{
  "key": "b80b20def91e06433483ef0f4856ef4d8f392480850745474cb126987eca7b7e",
  "tool": "PlaceSearch_kakao",
  "created_at": "2025-10-26T12:16:25.646784",
  "input_params": {
    "keyword": "디저트 카페",
    "page": 1,
    "radius": 1000,
    "size": 10,
    "sort": "distance",
    "x": 126.9787,
    "y": 37.5665
  },
  "raw_args": {
    "keyword": "디저트 카페",
    "x": 126.9787,
    "y": 37.5665,
    "page": 1,
    "size": 10,
    "radius": 1000,
    "sort": "distance"
  },
  "data": {
    "keyword": "디저트 카페",
    "total_count": 102,
    "places": [
      {
        "name": "만랩커피 을지로입구역점",
        "latitude": 37.5676732752027,
        "longitude": 126.980589861014,
        "address": "서울 중구 다동 166",
        "road_address": "서울 중구 다동길 24",
        "phone": "070-8800-8877",
        "category": "음식점 > 카페 > 커피전문점",
        "distance": "211"
      },
      {
        "name": "더라운지",
        "latitude": 37.5646706864769,
        "longitude": 126.977914892109,
        "address": "서울 중구 태평로2가 23",
        "road_address": "서울 중구 소공로 119",
        "phone": "02-310-7400",
        "category": "음식점 > 카페",
        "distance": "214"
      },
      {
        "name": "오뗄두스 SFC점",
        "latitude": 37.568445933074216,
        "longitude": 126.97831221693264,
        "address": "서울 중구 태평로1가 84",
        "road_address": "서울 중구 세종대로 136",
        "phone": "070-4221-5705",
        "category": "음식점 > 간식 > 제과,베이커리",
        "distance": "218"
      },
      {
        "name": "크리에잇쿠키 광화문SFC몰점",
        "latitude": 37.5683990186442,
        "longitude": 126.977973783615,
        "address": "서울 중구 태평로1가 84",
        "road_address": "서울 중구 세종대로 136",
        "phone": "02-3789-8710",
        "category": "음식점 > 카페 > 테마카페 > 디저트카페",
        "distance": "220"
      },
      {
        "name": "마호가니 광화문 케이스퀘어시티점",
        "latitude": 37.56857238363754,
        "longitude": 126.98007799438244,
        "address": "서울 중구 다동 39",
        "road_address": "서울 중구 청계천로 24",
        "phone": "02-6466-7177",
        "category": "음식점 > 카페",
        "distance": "260"
      },
      {
        "name": "애니브 롯데백화점 본점",
        "latitude": 37.56501819091785,
        "longitude": 126.98153000895314,
        "address": "서울 중구 소공동 1",
        "road_address": "서울 중구 을지로 30",
        "phone": "",
        "category": "음식점 > 카페 > 테마카페 > 디저트카페",
        "distance": "299"
      },
      {
        "name": "골든피스&골든치즈 롯데백화점본점",
        "latitude": 37.5648460937334,
        "longitude": 126.981485908289,
        "address": "서울 중구 소공동 1",
        "road_address": "서울 중구 남대문로 81",
        "phone": "02-772-3014",
        "category": "음식점 > 카페 > 테마카페 > 디저트카페",
        "distance": "306"
      },
      {
        "name": "고디바 롯데본점",
        "latitude": 37.564797454818134,
        "longitude": 126.98158099782651,
        "address": "서울 중구 소공동 1",
        "road_address": "서울 중구 남대문로 81",
        "phone": "02-772-3038",
        "category": "음식점 > 간식 > 초콜릿",
        "distance": "317"
      },
      {
        "name": "티라펠리체 명동본점",
        "latitude": 37.56463165007481,
        "longitude": 126.98144408207665,
        "address": "서울 중구 소공동 1",
        "road_address": "서울 중구 남대문로 81",
        "phone": "02-775-1379",
        "category": "음식점 > 카페 > 테마카페 > 디저트카페",
        "distance": "319"
      },
      {
        "name": "쇼콜라 롯데백화점본점",
        "latitude": 37.5652309119751,
        "longitude": 126.982087974046,
        "address": "서울 중구 소공동 1",
        "road_address": "서울 중구 을지로 30",
        "phone": "",
        "category": "음식점 > 카페 > 테마카페 > 디저트카페",
        "distance": "330"
      }
    ]
  }
}