{
  "key": "691540a63cb974515d182dca0ea1099023db2b34e147f1d14f8e838c6c1c2191",
  "tool": "PlaceSearch_kakao",
  "created_at": "2025-12-14T15:18:58.805633",
  "input_params": {
    "keyword": "한양대학교",
    "sort": "accuracy"
  },
  "raw_args": {
    "keyword": "한양대학교"
  },
  "data": {
    "keyword": "한양대학교",
    "total_count": 1022,
    "places": [
      {
        "name": "한양대학교 서울캠퍼스",
        "latitude": 37.5566436823703,
        "longitude": 127.04452650526459,
        "address": "서울 성동구 사근동 110",
        "road_address": "서울 성동구 왕십리로 222",
        "phone": "02-2220-0114",
        "category": "교육,학문 > 학교 > 대학교",
        "distance": ""
      },
      {
        "name": "한양대학교 ERICA캠퍼스",
        "latitude": 37.29643791960408,
        "longitude": 126.83516600417683,
        "address": "경기 안산시 상록구 사동 1271",
        "road_address": "경기 안산시 상록구 한양대학로 55",
        "phone": "031-400-5114",
        "category": "교육,학문 > 학교 > 대학교",
        "distance": ""
      },
      {
        "name": "한양대학교병원",
        "latitude": 37.559672992601826,
        "longitude": 127.04410614745778,
        "address": "서울 성동구 사근동 110",
        "road_address": "서울 성동구 왕십리로 222-1",
        "phone": "02-2290-8114",
        "category": "의료,건강 > 병원 > 대학병원",
        "distance": ""
      },
      {
        "name": "한양대학교병원 장례식장",
        "latitude": 37.5598516591496,
        "longitude": 127.04337963710033,
        "address": "서울 성동구 사근동 110",
        "road_address": "서울 성동구 왕십리로 222-1",
        "phone": "02-2290-9442",
        "category": "가정,생활 > 장례 > 장례식장",
        "distance": ""
      },
      {
        "name": "한양여자대학교",
        "latitude": 37.558968112905,
        "longitude": 127.049413811776,
        "address": "서울 성동구 사근동 110",
        "road_address": "서울 성동구 살곶이길 200",
        "phone": "02-2290-2114",
        "category": "교육,학문 > 학교 > 대학교",
        "distance": ""
      },
      {
        "name": "한양대학교 올림픽체육관",
        "latitude": 37.5565243594839,
        "longitude": 127.050005234938,
        "address": "서울 성동구 사근동 110",
        "road_address": "서울 성동구 왕십리로 222",
        "phone": "02-2220-1318",
        "category": "스포츠,레저 > 스포츠시설 > 체육관",
        "distance": ""
      },
      {
        "name": "한양대학교 서울캠퍼스 국제관",
        "latitude": 37.5551715663418,
        "longitude": 127.04422345763,
        "address": "서울 성동구 행당동 17-7",
        "road_address": "서울 성동구 왕십리로 222",
        "phone": "",
        "category": "교육,학문 > 학교부속시설",
        "distance": ""
      },
      {
        "name": "한양대학교병원 권역응급의료센터",
        "latitude": 37.55947559845978,
        "longitude": 127.04430862230389,
        "address": "서울 성동구 사근동 110",
        "road_address": "서울 성동구 왕십리로 222-1",
        "phone": "02-2290-8282",
        "category": "의료,건강 > 병원 > 응급실",
        "distance": ""
      },
      {
        "name": "한양사이버대학교",
        "latitude": 37.55719391118347,
        "longitude": 127.04755655394094,
        "address": "서울 성동구 행당동 17",
        "road_address": "서울 성동구 왕십리로 220",
        "phone": "02-2290-0114",
        "category": "교육,학문 > 학교 > 사이버대학",
        "distance": ""
      },
      {
        "name": "한양대학교 동문회관",
        "latitude": 37.5595549385814,
        "longitude": 127.04169082599,
        "address": "서울 성동구 행당동 15-1",
        "road_address": "서울 성동구 마조로 22-2",
        "phone": "",
        "category": "교육,학문 > 학교부속시설",
        "distance": ""
      },
      {
        "name": "한양대학교 제7학생생활관",
        "latitude": 37.56201776355689,
        "longitude": 127.04548610214573,
        "address": "서울 성동구 사근동 223",
        "road_address": "서울 성동구 살곶이2가길 51",
        "phone": "02-2220-1471",
        "category": "부동산 > 주거시설 > 기숙사,기숙시설",
        "distance": ""
      },
      {
        "name": "한양대학교사범대학 부속고등학교",
        "latitude": 37.5619189248829,
        "longitude": 127.042335023472,
        "address": "서울 성동구 사근동 223",
        "road_address": "서울 성동구 마조로 42",
        "phone": "02-2200-3520",
        "category": "교육,학문 > 학교 > 고등학교 > 자율형사립고등학교",
        "distance": ""
      },
      {
        "name": "한양대학교 제1공학관",
        "latitude": 37.5565873791269,
        "longitude": 127.045681989268,
        "address": "서울 성동구 행당동 17-7",
        "road_address": "서울 성동구 왕십리로 222",
        "phone": "",
        "category": "교육,학문 > 학교부속시설",
        "distance": ""
      },
      {
        "name": "한양대학교 백남학술정보관",
        "latitude": 37.5573730433633,
        "longitude": 127.045696050044,
        "address": "서울 성동구 사근동 110",
        "road_address": "서울 성동구 왕십리로 222",
        "phone": "02-2220-1353",
        "category": "교육,학문 > 학교부속시설",
        "distance": ""
      },
      {
        "name": "한양대학교 IT BT관",
        "latitude": 37.5559840108443,
        "longitude": 127.049411841271,
        "address": "서울 성동구 사근동 115-8",
        "road_address": "서울 성동구 왕십리로 222",
        "phone": "02-2220-0114",
        "category": "교육,학문 > 학교부속시설",
        "distance": ""
      }
    ]
  }
}