{
  "key": "69e4584fdc0ec0d0b7177054d7eb59218f57fbeb14eeeacd3cdf907e258174fd",
  "tool": "PlaceSearch_kakao",
  "created_at": "2025-10-21T00:11:46.461085",
  "input_params": {
    "keyword": "병원",
    "radius": 3000,
    "sort": "distance",
    "x": 126.9733,
    "y": 37.5655
  },
  "raw_args": {
    "keyword": "병원",
    "x": 126.9733,
    "y": 37.5655,
    "radius": 3000,
    "sort": "distance"
  },
  "data": {
    "keyword": "병원",
    "total_count": 1370,
    "places": [
      {
        "name": "서울특별시청치과의원",
        "latitude": 37.5644024612798,
        "longitude": 126.97477403475594,
        "address": "서울 중구 서소문동 37",
        "road_address": "서울 중구 덕수궁길 15",
        "phone": "02-2133-1826",
        "category": "의료,건강 > 병원 > 치과",
        "distance": "178"
      },
      {
        "name": "서울시청부속의원",
        "latitude": 37.5643348940572,
        "longitude": 126.974809145447,
        "address": "서울 중구 서소문동 37",
        "road_address": "서울 중구 덕수궁길 15",
        "phone": "02-2133-1829",
        "category": "의료,건강 > 병원",
        "distance": "185"
      },
      {
        "name": "시청역에이엠재활의학과의원",
        "latitude": 37.5634138193454,
        "longitude": 126.973634591075,
        "address": "서울 중구 서소문동 47-2",
        "road_address": "서울 중구 서소문로 115",
        "phone": "02-6743-0200",
        "category": "의료,건강 > 병원 > 재활의학과",
        "distance": "233"
      },
      {
        "name": "라이즈치과의원",
        "latitude": 37.5633354372182,
        "longitude": 126.973654992049,
        "address": "서울 중구 서소문동 47-2",
        "road_address": "서울 중구 서소문로 115",
        "phone": "02-755-2125",
        "category": "의료,건강 > 병원 > 치과",
        "distance": "242"
      },
      {
        "name": "서울바움치과의원",
        "latitude": 37.563697017616,
        "longitude": 126.974945183234,
        "address": "서울 중구 서소문동 34",
        "road_address": "서울 중구 서소문로 125",
        "phone": "02-6242-2875",
        "category": "의료,건강 > 병원 > 치과",
        "distance": "247"
      },
      {
        "name": "바른마음치과의원",
        "latitude": 37.5637970872019,
        "longitude": 126.975224719106,
        "address": "서울 중구 서소문동 26",
        "road_address": "서울 중구 서소문로 129",
        "phone": "02-2039-2835",
        "category": "의료,건강 > 병원 > 치과",
        "distance": "254"
      },
      {
        "name": "민트정신건강의학과의원",
        "latitude": 37.5637979884357,
        "longitude": 126.975225850668,
        "address": "서울 중구 서소문동 26",
        "road_address": "서울 중구 서소문로 129",
        "phone": "02-3789-7359",
        "category": "의료,건강 > 병원 > 정신건강의학과",
        "distance": "254"
      },
      {
        "name": "본라인한의원 시청역점",
        "latitude": 37.5631272797193,
        "longitude": 126.973532825579,
        "address": "서울 중구 서소문동 48-2",
        "road_address": "서울 중구 서소문로 113",
        "phone": "02-318-7119",
        "category": "의료,건강 > 병원 > 한의원",
        "distance": "263"
      },
      {
        "name": "바로고침한의원",
        "latitude": 37.563111030487065,
        "longitude": 126.97339361384176,
        "address": "서울 중구 서소문동 49-2",
        "road_address": "서울 중구 서소문로 111",
        "phone": "02-319-7775",
        "category": "의료,건강 > 병원 > 한의원",
        "distance": "264"
      },
      {
        "name": "더블유서울치과의원",
        "latitude": 37.56310835904917,
        "longitude": 126.97353396412181,
        "address": "서울 중구 서소문동 48-2",
        "road_address": "서울 중구 서소문로 113",
        "phone": "02-771-3920",
        "category": "의료,건강 > 병원 > 치과",
        "distance": "265"
      },
      {
        "name": "사마리아한의원",
        "latitude": 37.5638863516786,
        "longitude": 126.975540478823,
        "address": "서울 중구 서소문동 23",
        "road_address": "서울 중구 서소문로 133",
        "phone": "02-980-5406",
        "category": "의료,건강 > 병원 > 한의원",
        "distance": "266"
      },
      {
        "name": "씨에라여성의원",
        "latitude": 37.5638908582949,
        "longitude": 126.97554840037888,
        "address": "서울 중구 서소문동 23",
        "road_address": "서울 중구 서소문로 133",
        "phone": "02-777-3553",
        "category": "의료,건강 > 병원 > 산부인과",
        "distance": "266"
      },
      {
        "name": "닥터노아치과의원",
        "latitude": 37.564053998047285,
        "longitude": 126.9758369723142,
        "address": "서울 중구 서소문동 21-1",
        "road_address": "서울 중구 서소문로 135",
        "phone": "02-3789-7524",
        "category": "의료,건강 > 병원 > 치과",
        "distance": "275"
      },
      {
        "name": "올곧한의원",
        "latitude": 37.5640539980473,
        "longitude": 126.975836972314,
        "address": "서울 중구 서소문동 21-1",
        "road_address": "서울 중구 서소문로 135",
        "phone": "02-569-1075",
        "category": "의료,건강 > 병원 > 한의원",
        "distance": "275"
      },
      {
        "name": "김의원",
        "latitude": 37.5630586080237,
        "longitude": 126.972672644873,
        "address": "서울 중구 서소문동 55-4",
        "road_address": "서울 중구 서소문로 103",
        "phone": "02-754-9147",
        "category": "의료,건강 > 병원 > 내과",
        "distance": "276"
      }
    ]
  }
}