{
  "key": "a11d51ec2f9cc0032241f3d3cd07b2600f520dcba44b53f3ab4436947c0818fd",
  "tool": "PlaceSearch_kakao",
  "created_at": "2025-10-27T16:46:46.356209",
  "input_params": {
    "keyword": "대학교",
    "radius": 1000,
    "size": 10,
    "sort": "distance",
    "x": 127.0555,
    "y": 37.5907
  },
  "raw_args": {
    "keyword": "대학교",
    "size": 10,
    "x": 127.0555,
    "y": 37.5907,
    "radius": 1000,
    "sort": "distance"
  },
  "data": {
    "keyword": "대학교",
    "total_count": 339,
    "places": [
      {
        "name": "경희대국제과정앤드류스대학교",
        "latitude": 37.589577992931,
        "longitude": 127.054665036667,
        "address": "서울 동대문구 회기동 351",
        "road_address": "서울 동대문구 회기로26길 15",
        "phone": "02-3284-0501",
        "category": "교육,학문 > 학교부속시설",
        "distance": "144"
      },
      {
        "name": "마라대학",
        "latitude": 37.58982907103359,
        "longitude": 127.05719693990059,
        "address": "서울 동대문구 휘경동 319-8",
        "road_address": "서울 동대문구 회기로 192",
        "phone": "02-6368-6667",
        "category": "음식점 > 중식",
        "distance": "178"
      },
      {
        "name": "경희대학교 약학대학",
        "latitude": 37.5938014721905,
        "longitude": 127.055460745753,
        "address": "서울 동대문구 이문동 1-3",
        "road_address": "서울 동대문구 경희대로 26",
        "phone": "02-961-0355",
        "category": "교육,학문 > 학교부속시설",
        "distance": "344"
      },
      {
        "name": "경희대학교 행복기숙사 B동",
        "latitude": 37.5938155647097,
        "longitude": 127.056144674015,
        "address": "서울 동대문구 이문동 346-15",
        "road_address": "서울 동대문구 경희대로 26",
        "phone": "02-961-0376",
        "category": "부동산 > 주거시설 > 기숙사,기숙시설",
        "distance": "350"
      },
      {
        "name": "경희대학교 법학전문대학원 기숙사 세진원",
        "latitude": 37.5938839818173,
        "longitude": 127.056267015466,
        "address": "서울 동대문구 이문동 1-3",
        "road_address": "서울 동대문구 경희대로 26",
        "phone": "",
        "category": "부동산 > 주거시설 > 기숙사,기숙시설",
        "distance": "360"
      },
      {
        "name": "경희대학교부설 장애인건강연구소",
        "latitude": 37.5938794214495,
        "longitude": 127.054464366212,
        "address": "서울 동대문구 회기동 1-5",
        "road_address": "서울 동대문구 경희대로 26",
        "phone": "02-961-9102",
        "category": "교육,학문 > 연구소",
        "distance": "364"
      },
      {
        "name": "경희대학교 서울캠퍼스 의학계열전문도서관",
        "latitude": 37.5939530970864,
        "longitude": 127.05490828791,
        "address": "서울 동대문구 이문동 1-3",
        "road_address": "서울 동대문구 경희대로 26",
        "phone": "",
        "category": "교육,학문 > 학습시설 > 도서관",
        "distance": "364"
      },
      {
        "name": "경희대학교 간호학과",
        "latitude": 37.593978605625,
        "longitude": 127.05430138489,
        "address": "서울 동대문구 회기동 1-5",
        "road_address": "서울 동대문구 경희대로 26",
        "phone": "",
        "category": "교육,학문 > 학교부속시설",
        "distance": "379"
      },
      {
        "name": "경희대학교 의과대학",
        "latitude": 37.5941802855856,
        "longitude": 127.054609522416,
        "address": "서울 동대문구 이문동 1-3",
        "road_address": "서울 동대문구 경희대로 26",
        "phone": "02-961-0274",
        "category": "교육,학문 > 학교부속시설",
        "distance": "394"
      },
      {
        "name": "우리은행 경희대학교지점",
        "latitude": 37.59366211353326,
        "longitude": 127.05285406027545,
        "address": "서울 동대문구 회기동 36-3",
        "road_address": "서울 동대문구 경희대로 24",
        "phone": "02-957-8041",
        "category": "금융,보험 > 금융서비스 > 은행 > 우리은행",
        "distance": "403"
      }
    ]
  }
}