{
  "key": "417a7bd15f1d160185c31f42decc8b39e78ca274c99311a54df08a93a7579634",
  "tool": "PlaceSearch_kakao",
  "created_at": "2025-10-27T13:46:25.752206",
  "input_params": {
    "keyword": "애플스토어",
    "page": 1,
    "radius": 20000,
    "size": 10,
    "sort": "distance",
    "x": 127.02800140627488,
    "y": 37.49808633653005
  },
  "raw_args": {
    "keyword": "애플스토어",
    "x": 127.02800140627488,
    "y": 37.49808633653005,
    "page": 1,
    "size": 10,
    "sort": "distance",
    "radius": 20000
  },
  "data": {
    "keyword": "애플스토어",
    "total_count": 9,
    "places": [
      {
        "name": "Apple 강남",
        "latitude": 37.5036902997713,
        "longitude": 127.025310702725,
        "address": "서울 강남구 역삼동 809",
        "road_address": "서울 강남구 강남대로 464",
        "phone": "080-500-0456",
        "category": "가정,생활 > 전자제품 > 전자제품서비스센터 > 통신기기수리 > Apple 공인서비스센터",
        "distance": "665"
      },
      {
        "name": "Apple 가로수길",
        "latitude": 37.520819816124934,
        "longitude": 127.02272940977892,
        "address": "서울 강남구 신사동 534-19",
        "road_address": "서울 강남구 가로수길 43",
        "phone": "080-500-0029",
        "category": "가정,생활 > 전자제품 > 전자제품서비스센터 > 통신기기수리 > Apple 공인서비스센터",
        "distance": "2566"
      },
      {
        "name": "Apple 잠실",
        "latitude": 37.5139978977813,
        "longitude": 127.10408109426407,
        "address": "서울 송파구 신천동 29",
        "road_address": "서울 송파구 올림픽로 300",
        "phone": "080-500-0098",
        "category": "가정,생활 > 전자제품 > 전자제품서비스센터 > 통신기기수리 > Apple 공인서비스센터",
        "distance": "6954"
      },
      {
        "name": "애플 에이스토어 왕십리점",
        "latitude": 37.5614409428574,
        "longitude": 127.038391477602,
        "address": "서울 성동구 행당동 168-151",
        "road_address": "서울 성동구 왕십리광장로 17",
        "phone": "0507-1492-1573",
        "category": "가정,생활 > 전자제품 > 전자제품판매 > 에이스토어",
        "distance": "7091"
      },
      {
        "name": "Apple 명동",
        "latitude": 37.56468141612801,
        "longitude": 126.98284080132754,
        "address": "서울 중구 남대문로2가 9-1",
        "road_address": "서울 중구 남대문로 84",
        "phone": "080-500-1007",
        "category": "가정,생활 > 전자제품 > 전자제품서비스센터 > 통신기기수리 > Apple 공인서비스센터",
        "distance": "8400"
      },
      {
        "name": "Apple 여의도",
        "latitude": 37.52490014770034,
        "longitude": 126.92594128549898,
        "address": "서울 영등포구 여의도동 23",
        "road_address": "서울 영등포구 국제금융로 10",
        "phone": "080-500-0013",
        "category": "가정,생활 > 전자제품 > 전자제품서비스센터 > 통신기기수리 > Apple 공인서비스센터",
        "distance": "9501"
      },
      {
        "name": "Apple 홍대",
        "latitude": 37.55511260345064,
        "longitude": 126.92194695320684,
        "address": "서울 마포구 동교동 162-4",
        "road_address": "서울 마포구 양화로 140",
        "phone": "080-500-3005",
        "category": "가정,생활 > 전자제품 > 전자제품서비스센터 > 통신기기수리 > Apple 공인서비스센터",
        "distance": "11311"
      },
      {
        "name": "애플스토어 이마트 안양점",
        "latitude": 37.3983756770212,
        "longitude": 126.935345977025,
        "address": "경기 안양시 동안구 비산동 411-8",
        "road_address": "경기 안양시 동안구 관악대로 104",
        "phone": "031-380-3406",
        "category": "가정,생활 > 전자제품 > 전자제품서비스센터 > 휴대폰수리",
        "distance": "13772"
      },
      {
        "name": "Apple 하남",
        "latitude": 37.545694260622504,
        "longitude": 127.22402674722991,
        "address": "경기 하남시 신장동 616",
        "road_address": "경기 하남시 미사대로 750",
        "phone": "080-500-3006",
        "category": "가정,생활 > 전자제품 > 전자제품서비스센터 > 통신기기수리 > Apple 공인서비스센터",
        "distance": "18116"
      }
    ]
  }
}