{
  "key": "4193a0b0ca844da9eb553952e4f404c5002aee9e16c23b61dfc0bd6d6bc96ca5",
  "tool": "PlaceSearch_kakao",
  "created_at": "2025-10-27T15:50:19.963354",
  "input_params": {
    "keyword": "제드",
    "radius": 1,
    "sort": "accuracy",
    "x": 127.236390492
  },
  "raw_args": {
    "keyword": "제드",
    "x": 127.236390492,
    "radius": 1
  },
  "data": {
    "keyword": "제드",
    "total_count": 27,
    "places": [
      {
        "name": "제드",
        "latitude": 34.7430081440117,
        "longitude": 127.672116523869,
        "address": "전남 여수시 웅천동 1875-1",
        "road_address": "전남 여수시 웅천남4로 17",
        "phone": "",
        "category": "음식점 > 술집 > 호프,요리주점",
        "distance": ""
      },
      {
        "name": "제드휘트니스",
        "latitude": 35.85928385901768,
        "longitude": 128.62910397715405,
        "address": "대구 수성구 범어동 179",
        "road_address": "대구 수성구 달구벌대로 2435",
        "phone": "053-740-7600",
        "category": "스포츠,레저 > 스포츠시설 > 헬스클럽",
        "distance": ""
      },
      {
        "name": "향수박물관 뮤제드파팡",
        "latitude": 33.3753315139571,
        "longitude": 126.844641217691,
        "address": "제주특별자치도 서귀포시 성산읍 삼달리 1164-3",
        "road_address": "제주특별자치도 서귀포시 성산읍 삼달로 239",
        "phone": "",
        "category": "문화,예술 > 문화시설 > 박물관",
        "distance": ""
      },
      {
        "name": "제드스피닝",
        "latitude": 37.4892509853173,
        "longitude": 126.92738538892,
        "address": "서울 관악구 신림동 1429-17",
        "road_address": "서울 관악구 봉천로 234",
        "phone": "02-882-0901",
        "category": "가정,생활 > 미용 > 체형관리 > 다이어트,비만",
        "distance": ""
      },
      {
        "name": "뮤제드블루",
        "latitude": 35.1612228033616,
        "longitude": 129.191366497752,
        "address": "부산 해운대구 중동 555-2",
        "road_address": "부산 해운대구 청사포로 116",
        "phone": "",
        "category": "음식점 > 카페 > 테마카페 > 갤러리카페",
        "distance": ""
      },
      {
        "name": "뮤제드튜튜",
        "latitude": 37.4878982467087,
        "longitude": 127.005235204693,
        "address": "서울 서초구 서초동 1506-60",
        "road_address": "서울 서초구 명달로28길 13",
        "phone": "",
        "category": "가정,생활 > 패션 > 의류판매 > 무용복",
        "distance": ""
      },
      {
        "name": "제드아이티씨",
        "latitude": 37.55009274276134,
        "longitude": 127.11020370971052,
        "address": "서울 광진구 광장동 127",
        "road_address": "서울 광진구 아차산로78길 110",
        "phone": "",
        "category": "가정,생활 > 패션 > 패션잡화점 > 안경,렌즈",
        "distance": ""
      },
      {
        "name": "제드건축사사무소",
        "latitude": 37.48874306593177,
        "longitude": 127.01022176746244,
        "address": "서울 서초구 서초동 1547-5",
        "road_address": "서울 서초구 반포대로22길 14-4",
        "phone": "02-571-1649",
        "category": "서비스,산업 > 건설,건축 > 건축설계,컨설팅",
        "distance": ""
      },
      {
        "name": "제드짐",
        "latitude": 35.8438094982182,
        "longitude": 128.623843433686,
        "address": "대구 수성구 황금동 843-1",
        "road_address": "대구 수성구 동대구로 149",
        "phone": "",
        "category": "스포츠,레저 > 스포츠시설 > 헬스클럽",
        "distance": ""
      },
      {
        "name": "제드코리아 물류센터",
        "latitude": 37.7234503894954,
        "longitude": 126.787235498533,
        "address": "경기 파주시 상지석동 138-1",
        "road_address": "경기 파주시 상지석길 418-150",
        "phone": "",
        "category": "서비스,산업 > 보관,저장 > 물류센터",
        "distance": ""
      },
      {
        "name": "프로제드기념일",
        "latitude": 37.16960473130724,
        "longitude": 127.11819249099783,
        "address": "경기 화성시 산척동 724-4",
        "road_address": "경기 화성시 동탄순환대로 245",
        "phone": "0502-5553-1243",
        "category": "문화,예술 > 사진 > 사진관,포토스튜디오",
        "distance": ""
      },
      {
        "name": "제드코리아 AS센터",
        "latitude": 37.7043987864455,
        "longitude": 126.841209067637,
        "address": "경기 고양시 일산동구 사리현동 294-20",
        "road_address": "경기 고양시 일산동구 공릉천로175번길 93-39",
        "phone": "1899-3194",
        "category": "가정,생활 > 전자제품 > 전자제품서비스센터",
        "distance": ""
      },
      {
        "name": "제드스피닝 봉천점",
        "latitude": 37.47460388462897,
        "longitude": 126.96704553353996,
        "address": "서울 관악구 봉천동 1644-4",
        "road_address": "서울 관악구 인헌길 21",
        "phone": "",
        "category": "스포츠,레저 > 스포츠시설 > 헬스클럽",
        "distance": ""
      },
      {
        "name": "제드테크",
        "latitude": 37.5222555416393,
        "longitude": 126.776857838923,
        "address": "경기 부천시 오정구 내동 76-3",
        "road_address": "경기 부천시 오정구 삼작로133번길 44-13",
        "phone": "",
        "category": "서비스,산업 > 제조업",
        "distance": ""
      },
      {
        "name": "오브제드아트",
        "latitude": 35.53379064036911,
        "longitude": 129.29354900168946,
        "address": "울산 남구 옥동 265-1",
        "road_address": "울산 남구 문수로370번길 2",
        "phone": "010-2290-0612",
        "category": "문화,예술 > 미술,공예",
        "distance": ""
      }
    ]
  }
}