{
  "key": "41b7785b53a210728bd9c718f265c9a3883f5fa2baf4d95904f2676c7d0ed60c",
  "tool": "PlaceSearch_kakao",
  "created_at": "2025-10-20T02:34:59.498066",
  "input_params": {
    "keyword": "강남역 카페",
    "size": 5,
    "sort": "accuracy"
  },
  "raw_args": {
    "keyword": "강남역 카페",
    "sort": "accuracy",
    "size": 5
  },
  "data": {
    "keyword": "강남역 카페",
    "total_count": 2905,
    "places": [
      {
        "name": "키이스케이프 강남점",
        "latitude": 37.5001035869388,
        "longitude": 127.028430769789,
        "address": "서울 강남구 역삼동 817-21",
        "road_address": "서울 강남구 강남대로96길 17",
        "phone": "010-7456-6082",
        "category": "음식점 > 카페 > 테마카페",
        "distance": ""
      },
      {
        "name": "할리스 강남역점",
        "latitude": 37.49871619356776,
        "longitude": 127.02777433522404,
        "address": "서울 강남구 역삼동 820-11",
        "road_address": "서울 강남구 강남대로 402",
        "phone": "02-555-0890",
        "category": "음식점 > 카페 > 커피전문점 > 할리스",
        "distance": ""
      },
      {
        "name": "스타벅스 강남R점",
        "latitude": 37.4976744709989,
        "longitude": 127.028443419181,
        "address": "서울 강남구 역삼동 825",
        "road_address": "서울 강남구 강남대로 390",
        "phone": "1522-3232",
        "category": "음식점 > 카페 > 커피전문점 > 스타벅스",
        "distance": ""
      },
      {
        "name": "스타벅스 강남비젼타워점",
        "latitude": 37.49649026006633,
        "longitude": 127.0296167853337,
        "address": "서울 강남구 역삼동 826-26",
        "road_address": "서울 강남구 테헤란로2길 27",
        "phone": "1522-3232",
        "category": "음식점 > 카페 > 커피전문점 > 스타벅스",
        "distance": ""
      },
      {
        "name": "커피빈 강남역12번출구점",
        "latitude": 37.4988455657308,
        "longitude": 127.029316901779,
        "address": "서울 강남구 역삼동 822-5",
        "road_address": "서울 강남구 테헤란로 111",
        "phone": "02-569-5838",
        "category": "음식점 > 카페 > 커피전문점 > 커피빈",
        "distance": ""
      }
    ]
  }
}