{
  "key": "1eedb99c97cceb6785b82d0129d2de41122d31932871eaa017c4482a4c6c74c2",
  "tool": "PlaceSearch_kakao",
  "created_at": "2025-10-27T04:05:34.668221",
  "input_params": {
    "keyword": "애플",
    "radius": 1000,
    "sort": "accuracy",
    "x": 127.0323,
    "y": 37.514
  },
  "raw_args": {
    "keyword": "애플",
    "x": 127.0323,
    "y": 37.514,
    "radius": 1000
  },
  "data": {
    "keyword": "애플",
    "total_count": 9,
    "places": [
      {
        "name": "애플노래타운",
        "latitude": 37.5070814194057,
        "longitude": 127.026515234802,
        "address": "서울 강남구 논현동 185-1",
        "road_address": "서울 강남구 강남대로118길 40",
        "phone": "",
        "category": "가정,생활 > 유흥시설 > 유흥주점",
        "distance": "922"
      },
      {
        "name": "애플타운아파트",
        "latitude": 37.514935641496585,
        "longitude": 127.02123341357384,
        "address": "서울 강남구 논현동 16-42",
        "road_address": "서울 강남구 강남대로146길 13",
        "phone": "",
        "category": "부동산 > 주거시설 > 아파트",
        "distance": "983"
      },
      {
        "name": "컴퓨터수리 애플맥북수리",
        "latitude": 37.5143233203321,
        "longitude": 127.034883502976,
        "address": "서울 강남구 논현동 211-20",
        "road_address": "서울 강남구 언주로 647",
        "phone": "02-561-8245",
        "category": "가정,생활 > 전자제품 > 전자제품서비스센터 > 컴퓨터수리",
        "distance": "231"
      },
      {
        "name": "애플트리 커뮤니케이션",
        "latitude": 37.5160914367789,
        "longitude": 127.039503897359,
        "address": "서울 강남구 논현동 240-14",
        "road_address": "서울 강남구 선릉로129길 24",
        "phone": "",
        "category": "서비스,산업 > 전문대행 > 이벤트기획,대행",
        "distance": "677"
      },
      {
        "name": "강남역아이폰수리 애플퀵",
        "latitude": 37.5178438884517,
        "longitude": 127.022279434443,
        "address": "서울 강남구 신사동 514-9",
        "road_address": "서울 강남구 도산대로11길 5",
        "phone": "02-6104-0061",
        "category": "가정,생활 > 전자제품 > 전자제품서비스센터 > 휴대폰수리",
        "distance": "983"
      },
      {
        "name": "애플네이처",
        "latitude": 37.5153726136381,
        "longitude": 127.021314978602,
        "address": "서울 강남구 논현동 16-12",
        "road_address": "서울 강남구 도산대로4길 16",
        "phone": "",
        "category": "서비스,산업 > 전문대행 > 컨설팅",
        "distance": "983"
      },
      {
        "name": "애플앤유",
        "latitude": 37.5071442835624,
        "longitude": 127.034314660187,
        "address": "서울 강남구 역삼동 650",
        "road_address": "서울 강남구 논현로 570",
        "phone": "02-1688-3696",
        "category": "서비스,산업 > 농업 > 원예업",
        "distance": "781"
      },
      {
        "name": "언주컴퓨터수리 애플맥북수리",
        "latitude": 37.5081571292328,
        "longitude": 127.033912480973,
        "address": "서울 강남구 논현동 234-9",
        "road_address": "서울 강남구 논현로 608",
        "phone": "02-567-8245",
        "category": "가정,생활 > 전자제품 > 전자제품서비스센터 > 컴퓨터수리",
        "distance": "663"
      },
      {
        "name": "애플컴퓨터맥북에어수리 논현점",
        "latitude": 37.5184597604341,
        "longitude": 127.038021044661,
        "address": "서울 강남구 논현동 108",
        "road_address": "서울 강남구 학동로43길 38",
        "phone": "",
        "category": "가정,생활 > 전자제품 > 전자제품서비스센터 > 컴퓨터수리",
        "distance": "707"
      }
    ]
  }
}