{
  "key": "584cfa499ec7705ba824b2779b331b2be800e532b42790cd612605dec0cd4d9c",
  "tool": "PlaceSearch_kakao",
  "created_at": "2025-10-26T11:54:47.089680",
  "input_params": {
    "keyword": "주차장",
    "radius": 1000,
    "sort": "accuracy",
    "x": 126.9596,
    "y": 37.4798
  },
  "raw_args": {
    "keyword": "주차장",
    "x": 126.9596,
    "y": 37.4798,
    "radius": 1000,
    "sort": "accuracy"
  },
  "data": {
    "keyword": "주차장",
    "total_count": 69,
    "places": [
      {
        "name": "행운동제1공영주차장",
        "latitude": 37.47989986428995,
        "longitude": 126.96065083416015,
        "address": "서울 관악구 봉천동 1677-10",
        "road_address": "서울 관악구 행운4길 21",
        "phone": "",
        "category": "교통,수송 > 교통시설 > 주차장 > 공영주차장",
        "distance": "93"
      },
      {
        "name": "낙성대제1노상공영주차장",
        "latitude": 37.47777282465975,
        "longitude": 126.95872321220914,
        "address": "서울 관악구 봉천동 1693-62",
        "road_address": "",
        "phone": "",
        "category": "교통,수송 > 교통시설 > 주차장 > 공영주차장",
        "distance": "237"
      },
      {
        "name": "낙성대제1공영주차장",
        "latitude": 37.47782690889436,
        "longitude": 126.95879101617703,
        "address": "서울 관악구 봉천동 1693-46",
        "road_address": "",
        "phone": "",
        "category": "교통,수송 > 교통시설 > 주차장",
        "distance": "230"
      },
      {
        "name": "유료주차장",
        "latitude": 37.4796748231134,
        "longitude": 126.956133115493,
        "address": "서울 관악구 봉천동 1664-1",
        "road_address": "서울 관악구 남부순환로 1860",
        "phone": "",
        "category": "교통,수송 > 교통시설 > 주차장",
        "distance": "307"
      },
      {
        "name": "에덴오피스텔 주차장",
        "latitude": 37.47775912440213,
        "longitude": 126.9608260630218,
        "address": "서울 관악구 봉천동 1661-4",
        "road_address": "",
        "phone": "",
        "category": "교통,수송 > 교통시설 > 주차장",
        "distance": "251"
      },
      {
        "name": "모래내공원 지하공영주차장 (2025년 12월 예정)",
        "latitude": 37.477797753275,
        "longitude": 126.955418567311,
        "address": "서울 관악구 봉천동 1613-19",
        "road_address": "",
        "phone": "",
        "category": "교통,수송 > 교통시설 > 주차장 > 공영주차장",
        "distance": "431"
      },
      {
        "name": "오너벤쳐타운오피스텔 주차장",
        "latitude": 37.477764537945,
        "longitude": 126.960848671416,
        "address": "서울 관악구 봉천동 1661-4",
        "road_address": "",
        "phone": "",
        "category": "교통,수송 > 교통시설 > 주차장",
        "distance": "251"
      },
      {
        "name": "금동사랑방 주차장",
        "latitude": 37.4774286226591,
        "longitude": 126.961338377376,
        "address": "서울 관악구 봉천동 1660-12",
        "road_address": "서울 관악구 봉천로 573",
        "phone": "",
        "category": "교통,수송 > 교통시설 > 주차장",
        "distance": "304"
      },
      {
        "name": "동아타운아파트 주차장",
        "latitude": 37.47696263210627,
        "longitude": 126.96082647877905,
        "address": "서울 관악구 봉천동 1629-2",
        "road_address": "",
        "phone": "",
        "category": "교통,수송 > 교통시설 > 주차장",
        "distance": "332"
      },
      {
        "name": "모태산부인과 주차타워",
        "latitude": 37.4811843504273,
        "longitude": 126.95463982455,
        "address": "서울 관악구 봉천동 1666-6",
        "road_address": "서울 관악구 봉천로 496",
        "phone": "",
        "category": "교통,수송 > 교통시설 > 주차장",
        "distance": "465"
      },
      {
        "name": "호전클리닉스타워 주차장",
        "latitude": 37.4775103337695,
        "longitude": 126.963282893601,
        "address": "서울 관악구 봉천동 1686-21",
        "road_address": "서울 관악구 남부순환로 1925",
        "phone": "",
        "category": "교통,수송 > 교통시설 > 주차장",
        "distance": "412"
      },
      {
        "name": "경동제약빌딩 주차장",
        "latitude": 37.4767626633472,
        "longitude": 126.9630109961285,
        "address": "서울 관악구 봉천동 1659-7",
        "road_address": "서울 관악구 남부순환로 1926",
        "phone": "",
        "category": "교통,수송 > 교통시설 > 주차장",
        "distance": "452"
      },
      {
        "name": "인헌시장노상공영주차장",
        "latitude": 37.4761616958356,
        "longitude": 126.96384543022,
        "address": "서울 관악구 봉천동 1693-48",
        "road_address": "",
        "phone": "02-2081-2600",
        "category": "교통,수송 > 교통시설 > 주차장 > 공영주차장",
        "distance": "551"
      },
      {
        "name": "낙성대제2공영주차장",
        "latitude": 37.4748539241184,
        "longitude": 126.95979880881555,
        "address": "서울 관악구 봉천동 738-181",
        "road_address": "",
        "phone": "",
        "category": "교통,수송 > 교통시설 > 주차장 > 공영주차장",
        "distance": "549"
      },
      {
        "name": "케이타워 주차장",
        "latitude": 37.477224899157854,
        "longitude": 126.96388448737541,
        "address": "서울 관악구 봉천동 1687-5",
        "road_address": "서울 관악구 남부순환로 1931",
        "phone": "",
        "category": "교통,수송 > 교통시설 > 주차장",
        "distance": "474"
      }
    ]
  }
}