{
  "key": "58e53b0ec12ba3211de30a44433c9f8ce88f2986b1fc883ee69842207151192f",
  "tool": "PlaceSearch_kakao",
  "created_at": "2025-12-19T04:42:00.877856",
  "input_params": {
    "keyword": "시흥시청 맛집",
    "page": 1,
    "radius": 1000,
    "size": 15,
    "sort": "accuracy",
    "x": 126.802,
    "y": 37.381
  },
  "raw_args": {
    "keyword": "시흥시청 맛집",
    "x": 126.802,
    "y": 37.381,
    "page": 1,
    "size": 15,
    "radius": 1000,
    "sort": "accuracy"
  },
  "data": {
    "keyword": "시흥시청 맛집",
    "total_count": 154,
    "places": [
      {
        "name": "오 왕서방짬뽕",
        "latitude": 37.3811410423075,
        "longitude": 126.802261516649,
        "address": "경기 시흥시 장현동 547-5",
        "road_address": "경기 시흥시 새재로 19",
        "phone": "031-404-3700",
        "category": "음식점 > 중식 > 중국요리",
        "distance": "27"
      },
      {
        "name": "선도아구찜탕",
        "latitude": 37.3817464892232,
        "longitude": 126.802237344597,
        "address": "경기 시흥시 장현동 546-1",
        "road_address": "경기 시흥시 시청로68번길 26",
        "phone": "",
        "category": "음식점 > 한식 > 해물,생선 > 아구",
        "distance": "85"
      },
      {
        "name": "이루다제면소 시흥시청직영점",
        "latitude": 37.3785597641041,
        "longitude": 126.802352973934,
        "address": "경기 시흥시 장현동 673-2",
        "road_address": "경기 시흥시 시청전원마을길 3-1",
        "phone": "",
        "category": "음식점 > 일식 > 돈까스,우동",
        "distance": "272"
      },
      {
        "name": "장현족발",
        "latitude": 37.38091144937925,
        "longitude": 126.80128657389537,
        "address": "경기 시흥시 장현동 544-5",
        "road_address": "경기 시흥시 새재로7번길 6-1",
        "phone": "031-317-8989",
        "category": "음식점 > 한식 > 육류,고기 > 족발,보쌈",
        "distance": "63"
      },
      {
        "name": "컴포즈커피 시흥시청점",
        "latitude": 37.3815358716531,
        "longitude": 126.802370003914,
        "address": "경기 시흥시 장현동 547-1",
        "road_address": "경기 시흥시 새재로 23-2",
        "phone": "031-315-8080",
        "category": "음식점 > 카페 > 커피전문점 > 컴포즈커피",
        "distance": "68"
      },
      {
        "name": "마주생태탕",
        "latitude": 37.3820033134277,
        "longitude": 126.800646869127,
        "address": "경기 시흥시 장현동 533-2",
        "road_address": "경기 시흥시 새재로17번길 19",
        "phone": "031-317-1500",
        "category": "음식점 > 한식 > 해물,생선 > 매운탕,해물탕",
        "distance": "163"
      },
      {
        "name": "비긴어게인",
        "latitude": 37.3820651304127,
        "longitude": 126.800971892324,
        "address": "경기 시흥시 장현동 532-6",
        "road_address": "경기 시흥시 새재로17번길 18",
        "phone": "010-5839-5326",
        "category": "음식점 > 카페 > 커피전문점",
        "distance": "149"
      },
      {
        "name": "BHC치킨 시흥시청점",
        "latitude": 37.3821495942603,
        "longitude": 126.80083391618295,
        "address": "경기 시흥시 장현동 532-7",
        "road_address": "경기 시흥시 새재로17번길 20",
        "phone": "031-318-9996",
        "category": "음식점 > 치킨 > BHC치킨",
        "distance": "164"
      },
      {
        "name": "금별맥주 시흥시청점",
        "latitude": 37.3822783562418,
        "longitude": 126.80078389418,
        "address": "경기 시흥시 장현동 532-1",
        "road_address": "경기 시흥시 시청로80번길 20",
        "phone": "031-318-8020",
        "category": "음식점 > 술집 > 호프,요리주점 > 금별맥주",
        "distance": "177"
      },
      {
        "name": "송탄부대찌개 본점",
        "latitude": 37.3809259917535,
        "longitude": 126.800825861136,
        "address": "경기 시흥시 장현동 545-5",
        "road_address": "경기 시흥시 시청로68번길 10",
        "phone": "031-318-5377",
        "category": "음식점 > 한식",
        "distance": "104"
      },
      {
        "name": "초심 시흥연성점",
        "latitude": 37.38163812897424,
        "longitude": 126.80209536071762,
        "address": "경기 시흥시 장현동 546-1",
        "road_address": "경기 시흥시 시청로68번길 26",
        "phone": "031-435-7778",
        "category": "음식점 > 한식 > 육류,고기 > 갈비",
        "distance": "71"
      },
      {
        "name": "돈카츠마켙 시흥시청점",
        "latitude": 37.382088872587026,
        "longitude": 126.8022341872317,
        "address": "경기 시흥시 장현동 548-3",
        "road_address": "경기 시흥시 시청로68번길 30",
        "phone": "031-311-8446",
        "category": "음식점 > 일식 > 돈까스,우동",
        "distance": "122"
      },
      {
        "name": "매머드익스프레스 시흥시청점",
        "latitude": 37.381335435755,
        "longitude": 126.802125513029,
        "address": "경기 시흥시 장현동 547-6",
        "road_address": "경기 시흥시 새재로17번길 6",
        "phone": "",
        "category": "음식점 > 카페 > 커피전문점 > 매머드익스프레스",
        "distance": "38"
      },
      {
        "name": "투썸플레이스 시흥시청점",
        "latitude": 37.3815340677286,
        "longitude": 126.802368879535,
        "address": "경기 시흥시 장현동 547-1",
        "road_address": "경기 시흥시 새재로 23-2",
        "phone": "031-315-8811",
        "category": "음식점 > 카페 > 커피전문점 > 투썸플레이스",
        "distance": "67"
      },
      {
        "name": "진갈비 시흥장현점",
        "latitude": 37.381699540950564,
        "longitude": 126.80110609415459,
        "address": "경기 시흥시 장현동 534-1",
        "road_address": "경기 시흥시 시청로72번길 16",
        "phone": "031-318-3051",
        "category": "음식점 > 한식 > 육류,고기 > 갈비",
        "distance": "110"
      }
    ]
  }
}