{
  "key": "3196211064c6a1ac2334105bb043d7ddd565e388b7d48be69f67d385a4feccd7",
  "tool": "PlaceSearch_kakao",
  "created_at": "2025-10-26T11:36:23.261691",
  "input_params": {
    "keyword": "Apple 강남",
    "page": 1,
    "size": 5,
    "sort": "accuracy"
  },
  "raw_args": {
    "keyword": "Apple 강남",
    "page": 1,
    "size": 5
  },
  "data": {
    "keyword": "Apple 강남",
    "total_count": 72,
    "places": [
      {
        "name": "Apple 강남",
        "latitude": 37.5036902997713,
        "longitude": 127.025310702725,
        "address": "서울 강남구 역삼동 809",
        "road_address": "서울 강남구 강남대로 464",
        "phone": "080-500-0456",
        "category": "가정,생활 > 전자제품 > 전자제품서비스센터 > 통신기기수리 > Apple 공인서비스센터",
        "distance": ""
      },
      {
        "name": "애플공인서비스센터 프리스비 신세계강남점",
        "latitude": 37.50479216108638,
        "longitude": 127.0042637512257,
        "address": "서울 서초구 반포동 19-3",
        "road_address": "서울 서초구 신반포로 176",
        "phone": "1688-0476",
        "category": "가정,생활 > 전자제품 > 전자제품서비스센터 > 통신기기수리 > Apple 공인서비스센터",
        "distance": ""
      },
      {
        "name": "KT 애플 공인 AS센터 강남점",
        "latitude": 37.49861270380347,
        "longitude": 127.0308955125936,
        "address": "서울 강남구 역삼동 824-20",
        "road_address": "서울 강남구 테헤란로 120",
        "phone": "02-557-0267",
        "category": "가정,생활 > 전자제품 > 전자제품서비스센터 > 통신기기수리",
        "distance": ""
      },
      {
        "name": "애플산부인과의원 강남",
        "latitude": 37.49806055250073,
        "longitude": 127.02650525969585,
        "address": "서울 서초구 서초동 1317-20",
        "road_address": "서울 서초구 서초대로77길 3",
        "phone": "02-530-8500",
        "category": "의료,건강 > 병원 > 산부인과",
        "distance": ""
      },
      {
        "name": "사운즈오브애플 강남",
        "latitude": 37.4983185074689,
        "longitude": 127.032636932434,
        "address": "서울 강남구 역삼동 823-40",
        "road_address": "서울 강남구 테헤란로10길 11",
        "phone": "",
        "category": "음식점 > 카페",
        "distance": ""
      }
    ]
  }
}