{
  "key": "31c9269e290c12187861928b3102def2bf101cefd2579dad26155b07d4fb1f85",
  "tool": "PlaceSearch_kakao",
  "created_at": "2025-10-26T08:26:28.333635",
  "input_params": {
    "keyword": "맛집",
    "radius": 1000,
    "sort": "accuracy",
    "x": 126.9545,
    "y": 37.5514
  },
  "raw_args": {
    "keyword": "맛집",
    "radius": 1000,
    "x": 126.9545,
    "y": 37.5514
  },
  "data": {
    "keyword": "맛집",
    "total_count": 1083,
    "places": [
      {
        "name": "비파티세리 공덕점",
        "latitude": 37.548617458134956,
        "longitude": 126.95511954274626,
        "address": "서울 마포구 공덕동 105-67",
        "road_address": "서울 마포구 마포대로14길 4",
        "phone": "02-702-1220",
        "category": "음식점 > 카페",
        "distance": "313"
      },
      {
        "name": "진미식당",
        "latitude": 37.550608920427024,
        "longitude": 126.95579734486303,
        "address": "서울 마포구 공덕동 105-127",
        "road_address": "서울 마포구 마포대로 186-6",
        "phone": "02-3211-4468",
        "category": "음식점 > 한식 > 해물,생선 > 게,대게",
        "distance": "144"
      },
      {
        "name": "황금콩밭",
        "latitude": 37.550966062730375,
        "longitude": 126.95673415318058,
        "address": "서울 마포구 아현동 424-11",
        "road_address": "서울 마포구 마포대로16길 9",
        "phone": "02-313-2952",
        "category": "음식점 > 한식 > 두부전문점",
        "distance": "203"
      },
      {
        "name": "그레이스국밥",
        "latitude": 37.54802715511253,
        "longitude": 126.95472948732102,
        "address": "서울 마포구 공덕동 242-3",
        "road_address": "서울 마포구 마포대로12길 18",
        "phone": "02-6409-0900",
        "category": "음식점 > 한식 > 국밥",
        "distance": "374"
      },
      {
        "name": "멜로즈",
        "latitude": 37.55121808360182,
        "longitude": 126.95367736805112,
        "address": "서울 마포구 아현동 618-19",
        "road_address": "서울 마포구 마포대로 173-14",
        "phone": "070-7706-9994",
        "category": "음식점 > 양식",
        "distance": "75"
      },
      {
        "name": "진선",
        "latitude": 37.5488655252038,
        "longitude": 126.955895694922,
        "address": "서울 마포구 공덕동 105-236",
        "road_address": "서울 마포구 마포대로14가길 4",
        "phone": "02-707-0348",
        "category": "음식점 > 중식",
        "distance": "307"
      },
      {
        "name": "클래식햄버거",
        "latitude": 37.5488094097328,
        "longitude": 126.952905953262,
        "address": "서울 마포구 공덕동 232-10",
        "road_address": "서울 마포구 마포대로11길 21",
        "phone": "070-8808-3366",
        "category": "음식점 > 양식 > 햄버거",
        "distance": "320"
      },
      {
        "name": "이요이요스시 공덕1호점",
        "latitude": 37.550142831097,
        "longitude": 126.952764789306,
        "address": "서울 마포구 공덕동 469",
        "road_address": "서울 마포구 마포대로 167",
        "phone": "",
        "category": "음식점 > 일식 > 초밥,롤",
        "distance": "207"
      },
      {
        "name": "진대감 마포점",
        "latitude": 37.546611584052634,
        "longitude": 126.95446441740995,
        "address": "서울 마포구 공덕동 249-62",
        "road_address": "서울 마포구 마포대로12길 54",
        "phone": "02-715-1559",
        "category": "음식점 > 한식 > 육류,고기",
        "distance": "531"
      },
      {
        "name": "스타벅스 애오개역점",
        "latitude": 37.5523568157921,
        "longitude": 126.95568767065,
        "address": "서울 마포구 아현동 738",
        "road_address": "서울 마포구 마포대로 201",
        "phone": "1522-3232",
        "category": "음식점 > 카페 > 커피전문점 > 스타벅스",
        "distance": "149"
      },
      {
        "name": "삼미기사식당",
        "latitude": 37.5482029644069,
        "longitude": 126.955029261346,
        "address": "서울 마포구 공덕동 233",
        "road_address": "서울 마포구 마포대로12길 13-6",
        "phone": "02-712-7038",
        "category": "음식점 > 기사식당",
        "distance": "357"
      },
      {
        "name": "컴포즈커피 마포경찰서점",
        "latitude": 37.55025109017469,
        "longitude": 126.95544108487937,
        "address": "서울 마포구 공덕동 105-159",
        "road_address": "서울 마포구 마포대로 180",
        "phone": "010-4257-0308",
        "category": "음식점 > 카페 > 커피전문점 > 컴포즈커피",
        "distance": "152"
      },
      {
        "name": "황톳길",
        "latitude": 37.5485824661493,
        "longitude": 126.953177687169,
        "address": "서울 마포구 공덕동 270-1",
        "road_address": "서울 마포구 마포대로11길 15-7",
        "phone": "02-3272-9240",
        "category": "음식점 > 한식",
        "distance": "334"
      },
      {
        "name": "원조신촌설렁탕",
        "latitude": 37.5482809161142,
        "longitude": 126.956269475672,
        "address": "서울 마포구 공덕동 119-45",
        "road_address": "서울 마포구 마포대로14길 16",
        "phone": "02-712-3300",
        "category": "음식점 > 한식 > 설렁탕",
        "distance": "379"
      },
      {
        "name": "동신참치 공덕점",
        "latitude": 37.54745437832245,
        "longitude": 126.9530833373223,
        "address": "서울 마포구 공덕동 462",
        "road_address": "서울 마포구 마포대로 143",
        "phone": "02-718-6242",
        "category": "음식점 > 일식 > 참치회",
        "distance": "455"
      }
    ]
  }
}