{
  "key": "c4e6e12f66ba5ca4b62ee13dce33408b8cf6b07e1da8bcf0a744cfa668998790",
  "tool": "CategorySearch_tmap",
  "created_at": "2025-10-20T12:58:29.991653",
  "input_params": {
    "categories": "편의점",
    "centerLat": 37.56653,
    "centerLon": 126.97855,
    "count": 20,
    "radius": 1
  },
  "raw_args": {
    "categories": "편의점",
    "centerLon": 126.97855,
    "centerLat": 37.56653,
    "radius": 1,
    "count": 20
  },
  "data": {
    "totalCount": 214,
    "count": 20,
    "page": 1,
    "pois": [
      {
        "name": "세븐일레븐 무교본점",
        "telNo": "",
        "latitude": "37.56714858",
        "longitude": "126.97902096",
        "address": "서울 중구 무교동",
        "roadName": "무교로",
        "buildingNo": "-",
        "radius_km": "0.079",
        "dataKind": "",
        "stId": "",
        "parkFlag": "0",
        "merchantFlag": ""
      },
      {
        "name": "CU 한국프레스센터점",
        "telNo": "15778007",
        "latitude": "37.56745408",
        "longitude": "126.97790994",
        "address": "서울 중구 태평로1가",
        "roadName": "세종대로",
        "buildingNo": "-",
        "radius_km": "0.116",
        "dataKind": "",
        "stId": "",
        "parkFlag": "1",
        "merchantFlag": ""
      },
      {
        "name": "CU 한국프레스센터점 주차장",
        "telNo": "15778007",
        "latitude": "37.56787069",
        "longitude": "126.97771550",
        "address": "서울 중구 태평로1가",
        "roadName": "세종대로",
        "buildingNo": "-",
        "radius_km": "0.116",
        "dataKind": "",
        "stId": "",
        "parkFlag": "0",
        "merchantFlag": ""
      },
      {
        "name": "CU 시청광장점",
        "telNo": "027740167",
        "latitude": "37.56531546",
        "longitude": "126.97918766",
        "address": "서울 중구 을지로1가",
        "roadName": "을지로",
        "buildingNo": "-",
        "radius_km": "0.147",
        "dataKind": "",
        "stId": "",
        "parkFlag": "0",
        "merchantFlag": ""
      },
      {
        "name": "세븐일레븐 무교YG타워점",
        "telNo": "0260318990",
        "latitude": "37.56712083",
        "longitude": "126.98029862",
        "address": "서울 중구 다동",
        "roadName": "남대문로9길",
        "buildingNo": "-",
        "radius_km": "0.167",
        "dataKind": "",
        "stId": "",
        "parkFlag": "0",
        "merchantFlag": ""
      },
      {
        "name": "GS25 무교YG타워점",
        "telNo": "0260318934",
        "latitude": "37.56712083",
        "longitude": "126.98038194",
        "address": "서울 중구 다동",
        "roadName": "남대문로9길",
        "buildingNo": "-",
        "radius_km": "0.174",
        "dataKind": "",
        "stId": "",
        "parkFlag": "0",
        "merchantFlag": ""
      },
      {
        "name": "GS25 중구SFC점",
        "telNo": "",
        "latitude": "37.56839842",
        "longitude": "126.97818766",
        "address": "서울 중구 태평로1가",
        "roadName": "세종대로",
        "buildingNo": "-",
        "radius_km": "0.209",
        "dataKind": "",
        "stId": "",
        "parkFlag": "0",
        "merchantFlag": ""
      },
      {
        "name": "세븐일레븐 무교다동점",
        "telNo": "023182762",
        "latitude": "37.56823180",
        "longitude": "126.97968753",
        "address": "서울 중구 무교동",
        "roadName": "을지로1길",
        "buildingNo": "-",
        "radius_km": "0.213",
        "dataKind": "",
        "stId": "",
        "parkFlag": "0",
        "merchantFlag": ""
      },
      {
        "name": "CU 을지타워점 주차장",
        "telNo": "15778007",
        "latitude": "37.56637093",
        "longitude": "126.98149298",
        "address": "서울 중구 을지로1가",
        "roadName": "을지로",
        "buildingNo": "-",
        "radius_km": "0.218",
        "dataKind": "",
        "stId": "",
        "parkFlag": "0",
        "merchantFlag": ""
      },
      {
        "name": "CU 을지타워점",
        "telNo": "15778007",
        "latitude": "37.56648202",
        "longitude": "126.98102079",
        "address": "서울 중구 을지로1가",
        "roadName": "을지로",
        "buildingNo": "-",
        "radius_km": "0.218",
        "dataKind": "",
        "stId": "",
        "parkFlag": "1",
        "merchantFlag": ""
      },
      {
        "name": "세븐일레븐 청계퍼시픽점",
        "telNo": "",
        "latitude": "37.56878726",
        "longitude": "126.97818765",
        "address": "서울 중구 무교동",
        "roadName": "청계천로",
        "buildingNo": "-",
        "radius_km": "0.252",
        "dataKind": "",
        "stId": "",
        "parkFlag": "1",
        "merchantFlag": ""
      },
      {
        "name": "세븐일레븐 청계퍼시픽점 주차장",
        "telNo": "",
        "latitude": "37.56870394",
        "longitude": "126.97813210",
        "address": "서울 중구 무교동",
        "roadName": "청계천로",
        "buildingNo": "-",
        "radius_km": "0.252",
        "dataKind": "",
        "stId": "",
        "parkFlag": "0",
        "merchantFlag": ""
      },
      {
        "name": "CU 코리아나호텔점",
        "telNo": "15773663",
        "latitude": "37.56823174",
        "longitude": "126.97663225",
        "address": "서울 중구 태평로1가",
        "roadName": "세종대로",
        "buildingNo": "-",
        "radius_km": "0.253",
        "dataKind": "",
        "stId": "",
        "parkFlag": "0",
        "merchantFlag": ""
      },
      {
        "name": "CU 한화빌딩점",
        "telNo": "027717805",
        "latitude": "37.56423222",
        "longitude": "126.97760450",
        "address": "서울 중구 태평로2가",
        "roadName": "세종대로",
        "buildingNo": "-",
        "radius_km": "0.27",
        "dataKind": "",
        "stId": "",
        "parkFlag": "0",
        "merchantFlag": ""
      },
      {
        "name": "이마트24 서울조선호텔점",
        "telNo": "07088602424",
        "latitude": "37.56442669",
        "longitude": "126.98007649",
        "address": "서울 중구 소공동",
        "roadName": "소공로",
        "buildingNo": "-",
        "radius_km": "0.271",
        "dataKind": "",
        "stId": "",
        "parkFlag": "0",
        "merchantFlag": ""
      },
      {
        "name": "CU 하나은행점",
        "telNo": "15778007",
        "latitude": "37.56648204",
        "longitude": "126.98185405",
        "address": "서울 중구 을지로1가",
        "roadName": "을지로",
        "buildingNo": "-",
        "radius_km": "0.291",
        "dataKind": "",
        "stId": "",
        "parkFlag": "1",
        "merchantFlag": ""
      },
      {
        "name": "CU 하나은행점 주차장",
        "telNo": "15778007",
        "latitude": "37.56659313",
        "longitude": "126.98154852",
        "address": "서울 중구 을지로1가",
        "roadName": "을지로",
        "buildingNo": "-",
        "radius_km": "0.291",
        "dataKind": "",
        "stId": "",
        "parkFlag": "0",
        "merchantFlag": ""
      },
      {
        "name": "CU 예금보험공사점",
        "telNo": "",
        "latitude": "37.56853734",
        "longitude": "126.98074298",
        "address": "서울 중구 다동",
        "roadName": "청계천로",
        "buildingNo": "-",
        "radius_km": "0.294",
        "dataKind": "",
        "stId": "",
        "parkFlag": "0",
        "merchantFlag": ""
      },
      {
        "name": "GS25 덕수점",
        "telNo": "023185410",
        "latitude": "37.56445440",
        "longitude": "126.97646571",
        "address": "서울 중구 태평로2가",
        "roadName": "세종대로",
        "buildingNo": "-",
        "radius_km": "0.296",
        "dataKind": "",
        "stId": "",
        "parkFlag": "0",
        "merchantFlag": ""
      },
      {
        "name": "GS25 뉴을지로입구역점",
        "telNo": "027578624",
        "latitude": "37.56598210",
        "longitude": "126.98193739",
        "address": "서울 중구 을지로1가",
        "roadName": "을지로",
        "buildingNo": "-",
        "radius_km": "0.305",
        "dataKind": "",
        "stId": "",
        "parkFlag": "0",
        "merchantFlag": ""
      }
    ]
  }
}