{
  "key": "e300b80df63915f85098f7dba126fc3a113b2c98495ede06f59d3f936f28590f",
  "tool": "PlaceSearch_kakao",
  "created_at": "2025-10-26T10:31:11.050375",
  "input_params": {
    "keyword": "대학교",
    "radius": 1000,
    "size": 5,
    "sort": "accuracy",
    "x": 126.979338,
    "y": 37.584948
  },
  "raw_args": {
    "keyword": "대학교",
    "x": 126.979338,
    "y": 37.584948,
    "radius": 1000,
    "size": 5
  },
  "data": {
    "keyword": "대학교",
    "total_count": 17,
    "places": [
      {
        "name": "태재대학교",
        "latitude": 37.5835930655227,
        "longitude": 126.988327435237,
        "address": "서울 종로구 원서동 9-4",
        "road_address": "서울 종로구 창덕궁5길 22-8",
        "phone": "",
        "category": "교육,학문 > 학교 > 대학교",
        "distance": "808"
      },
      {
        "name": "북한대학원대학교",
        "latitude": 37.5860864437443,
        "longitude": 126.983537851388,
        "address": "서울 종로구 삼청동 28-7",
        "road_address": "서울 종로구 북촌로15길 2",
        "phone": "02-3700-0800",
        "category": "교육,학문 > 학교 > 대학원",
        "distance": "391"
      },
      {
        "name": "고려사이버대학교 계동캠퍼스",
        "latitude": 37.58694462750545,
        "longitude": 126.98705883637523,
        "address": "서울 종로구 계동 1-21",
        "road_address": "서울 종로구 북촌로 106",
        "phone": "02-6361-2000",
        "category": "교육,학문 > 학교 > 사이버대학",
        "distance": "717"
      },
      {
        "name": "경남대학교 극동문제연구소",
        "latitude": 37.5860468025807,
        "longitude": 126.983555975265,
        "address": "서울 종로구 삼청동 28-7",
        "road_address": "서울 종로구 북촌로15길 2",
        "phone": "02-3700-0700",
        "category": "교육,학문 > 연구소",
        "distance": "391"
      },
      {
        "name": "고려사이버대학교 미래교육원",
        "latitude": 37.585845283920634,
        "longitude": 126.98590418918751,
        "address": "서울 종로구 계동 1-36",
        "road_address": "서울 종로구 북촌로 104",
        "phone": "02-6361-1860",
        "category": "교육,학문 > 교육단체 > 평생교육원,사회교육원",
        "distance": "588"
      }
    ]
  }
}