{
  "key": "e348654564626dc2b9e496bdd60fd344e7ab033e5f0e24279668bf07a1713832",
  "tool": "PlaceSearch_kakao",
  "created_at": "2025-12-15T13:57:21.416996",
  "input_params": {
    "keyword": "남양주 맛집",
    "radius": 1000,
    "size": 10,
    "sort": "accuracy",
    "x": 127.216475764948,
    "y": 37.6360236390492
  },
  "raw_args": {
    "keyword": "남양주 맛집",
    "x": 127.216475764948,
    "y": 37.6360236390492,
    "radius": 1000,
    "size": 10,
    "sort": "accuracy"
  },
  "data": {
    "keyword": "남양주 맛집",
    "total_count": 117,
    "places": [
      {
        "name": "어랑손만두국",
        "latitude": 37.63628665040511,
        "longitude": 127.22423501355276,
        "address": "경기 남양주시 금곡동 14",
        "road_address": "경기 남양주시 경춘로 1084-25",
        "phone": "031-592-2959",
        "category": "음식점 > 한식",
        "distance": "685"
      },
      {
        "name": "태능배갈비",
        "latitude": 37.6353160633072,
        "longitude": 127.215164031511,
        "address": "경기 남양주시 금곡동 185-18",
        "road_address": "경기 남양주시 경춘로 1023",
        "phone": "031-559-8588",
        "category": "음식점 > 한식 > 육류,고기 > 갈비",
        "distance": "139"
      },
      {
        "name": "온기순대국 금곡본점",
        "latitude": 37.6339752890785,
        "longitude": 127.211738742707,
        "address": "경기 남양주시 금곡동 154-1",
        "road_address": "경기 남양주시 경춘로992번길 4",
        "phone": "031-511-1590",
        "category": "음식점 > 한식 > 순대",
        "distance": "475"
      },
      {
        "name": "초막집",
        "latitude": 37.635798585143306,
        "longitude": 127.20836206309232,
        "address": "경기 남양주시 금곡동 406-1",
        "road_address": "경기 남양주시 사릉로 32",
        "phone": "031-559-3495",
        "category": "음식점 > 한식 > 육류,고기 > 곱창,막창",
        "distance": "716"
      },
      {
        "name": "나능이 금곡점",
        "latitude": 37.6353181485961,
        "longitude": 127.214017500397,
        "address": "경기 남양주시 금곡동 158-66",
        "road_address": "경기 남양주시 경춘로1015번길 3",
        "phone": "031-593-2881",
        "category": "음식점 > 한식 > 육류,고기 > 닭요리",
        "distance": "230"
      },
      {
        "name": "옥돌",
        "latitude": 37.6337890035761,
        "longitude": 127.21211887480284,
        "address": "경기 남양주시 금곡동 152-65",
        "road_address": "경기 남양주시 경춘로992번길 9",
        "phone": "031-592-5902",
        "category": "음식점 > 한식 > 육류,고기",
        "distance": "457"
      },
      {
        "name": "맛있는해장국",
        "latitude": 37.63439850196885,
        "longitude": 127.21237891491245,
        "address": "경기 남양주시 금곡동 154-20",
        "road_address": "경기 남양주시 경춘로 998",
        "phone": "031-595-3440",
        "category": "음식점 > 한식 > 해장국",
        "distance": "404"
      },
      {
        "name": "왕십리양곱창구이",
        "latitude": 37.635946247712525,
        "longitude": 127.20841799004963,
        "address": "경기 남양주시 금곡동 406-1",
        "road_address": "경기 남양주시 사릉로 32",
        "phone": "031-559-3495",
        "category": "음식점 > 한식 > 육류,고기 > 곱창,막창",
        "distance": "711"
      },
      {
        "name": "키스톤 스피시즈",
        "latitude": 37.636560879941705,
        "longitude": 127.22547982828894,
        "address": "경기 남양주시 금곡동 14-1",
        "road_address": "경기 남양주시 경춘로 1104-2",
        "phone": "070-8887-1104",
        "category": "음식점 > 카페",
        "distance": "797"
      },
      {
        "name": "오가네아구찜",
        "latitude": 37.6359886906951,
        "longitude": 127.213901596625,
        "address": "경기 남양주시 금곡동 158-1",
        "road_address": "경기 남양주시 사릉로34번길 48",
        "phone": "031-591-5501",
        "category": "음식점 > 한식 > 해물,생선 > 아구",
        "distance": "227"
      }
    ]
  }
}