{
  "key": "09748a61c0a1b2d8e2ebaef8133047f754d3608561927d39d52e6cbce6eded38",
  "tool": "PlaceSearch_kakao",
  "created_at": "2025-10-27T09:04:14.042604",
  "input_params": {
    "keyword": "맛집",
    "radius": 1000,
    "sort": "accuracy",
    "x": 126.9525,
    "y": 37.4535
  },
  "raw_args": {
    "keyword": "맛집",
    "radius": 1000,
    "x": 126.9525,
    "y": 37.4535
  },
  "data": {
    "keyword": "맛집",
    "total_count": 42,
    "places": [
      {
        "name": "서울대학교 관악캠퍼스 공대간이식당",
        "latitude": 37.45726998456824,
        "longitude": 126.95078993943709,
        "address": "서울 관악구 신림동 산 56-1",
        "road_address": "서울 관악구 관악로 1",
        "phone": "02-889-8956",
        "category": "음식점 > 구내식당",
        "distance": "444"
      },
      {
        "name": "BBQ 서울대글로벌공학관점",
        "latitude": 37.454965161150334,
        "longitude": 126.9507112041094,
        "address": "서울 관악구 신림동 산 56-1",
        "road_address": "서울 관악구 관악로 1",
        "phone": "02-878-6690",
        "category": "음식점 > 치킨 > BBQ",
        "distance": "226"
      },
      {
        "name": "두레미담 서울대1호점",
        "latitude": 37.4565843009696,
        "longitude": 126.948641798612,
        "address": "서울 관악구 신림동 산 56-1",
        "road_address": "서울 관악구 관악로 1",
        "phone": "02-880-9358",
        "category": "음식점 > 구내식당",
        "distance": "483"
      },
      {
        "name": "카페드림 서울대학교300동점",
        "latitude": 37.45096637274742,
        "longitude": 126.95269160363186,
        "address": "서울 관악구 신림동 산 56-1",
        "road_address": "서울 관악구 관악로 1",
        "phone": "02-2282-6451",
        "category": "음식점 > 카페 > 커피전문점 > 카페드림",
        "distance": "281"
      },
      {
        "name": "포케올데이 서울대공대점",
        "latitude": 37.45524773734159,
        "longitude": 126.95207067565117,
        "address": "서울 관악구 신림동 산 56-1",
        "road_address": "서울 관악구 관악로 1",
        "phone": "070-4129-1482",
        "category": "음식점 > 샐러드 > 포케올데이",
        "distance": "197"
      },
      {
        "name": "락구정",
        "latitude": 37.454811018100486,
        "longitude": 126.95054403339074,
        "address": "서울 관악구 신림동 산 56-1",
        "road_address": "서울 관악구 관악로 1",
        "phone": "02-875-8840",
        "category": "음식점 > 한식 > 한정식",
        "distance": "225"
      },
      {
        "name": "머그 공대점",
        "latitude": 37.45516844227581,
        "longitude": 126.95205603338259,
        "address": "서울 관악구 신림동 산 56-1",
        "road_address": "서울 관악구 관악로 1",
        "phone": "",
        "category": "음식점 > 카페",
        "distance": "189"
      },
      {
        "name": "퀴즈노스 서울대공대점",
        "latitude": 37.4501130750401,
        "longitude": 126.952597208854,
        "address": "서울 관악구 신림동 산 56-1",
        "road_address": "서울 관악구 관악로 1",
        "phone": "02-871-9329",
        "category": "음식점 > 패스트푸드 > 샌드위치 > 퀴즈노스",
        "distance": "376"
      },
      {
        "name": "파스쿠찌 센트로서울대점",
        "latitude": 37.45923774182401,
        "longitude": 126.95518431664799,
        "address": "서울 관악구 신림동 산 56-1",
        "road_address": "서울 관악구 관악로 1",
        "phone": "02-882-8497",
        "category": "음식점 > 카페 > 커피전문점 > 파스쿠찌",
        "distance": "679"
      },
      {
        "name": "서울대학교 관악캠퍼스 제3학생식당",
        "latitude": 37.4564436899239,
        "longitude": 126.948519828854,
        "address": "서울 관악구 신림동 산 56-1",
        "road_address": "서울 관악구 관악로 1",
        "phone": "",
        "category": "음식점 > 구내식당",
        "distance": "480"
      },
      {
        "name": "파스쿠찌 서울대관정도서관점",
        "latitude": 37.45882472895686,
        "longitude": 126.95200057628041,
        "address": "서울 관악구 신림동 산 56-1",
        "road_address": "서울 관악구 관악로 1",
        "phone": "02-875-8497",
        "category": "음식점 > 카페 > 커피전문점 > 파스쿠찌",
        "distance": "592"
      },
      {
        "name": "이라운지 서울대점중식",
        "latitude": 37.448778038193936,
        "longitude": 126.95103847931776,
        "address": "서울 관악구 신림동 산 56-1",
        "road_address": "서울 관악구 관악로 1",
        "phone": "02-875-0192",
        "category": "음식점 > 중식 > 중국요리",
        "distance": "539"
      },
      {
        "name": "아이엔지 서울대학교 자연과학대학점",
        "latitude": 37.4576815362037,
        "longitude": 126.950285574456,
        "address": "서울 관악구 신림동 산 56-1",
        "road_address": "서울 관악구 관악로 1",
        "phone": "1522-4762",
        "category": "음식점 > 카페",
        "distance": "503"
      },
      {
        "name": "제1공학관 식당",
        "latitude": 37.4499112860626,
        "longitude": 126.952692268082,
        "address": "서울 관악구 신림동 산 56-1",
        "road_address": "서울 관악구 관악로 1",
        "phone": "",
        "category": "음식점 > 구내식당",
        "distance": "398"
      },
      {
        "name": "1847커피&샐러드 서울대 반도체점",
        "latitude": 37.4550924177642,
        "longitude": 126.95346094487,
        "address": "서울 관악구 신림동 산 56-1",
        "road_address": "서울 관악구 관악로 1",
        "phone": "",
        "category": "음식점 > 카페",
        "distance": "196"
      }
    ]
  }
}