{
  "key": "329b44fb98aae9889db23dd44c5948c48e35395650227a17a36062fd49d41a0f",
  "tool": "PlaceSearch_kakao",
  "created_at": "2025-12-15T08:36:26.745931",
  "input_params": {
    "keyword": "병원",
    "radius": 2000,
    "size": 10,
    "sort": "accuracy",
    "x": 127.05773316246166,
    "y": 37.584828300773886
  },
  "raw_args": {
    "x": 127.05773316246166,
    "y": 37.584828300773886,
    "keyword": "병원",
    "radius": 2000,
    "size": 10
  },
  "data": {
    "keyword": "병원",
    "total_count": 627,
    "places": [
      {
        "name": "삼육서울병원",
        "latitude": 37.587945367455426,
        "longitude": 127.06535204940005,
        "address": "서울 동대문구 휘경동 29-1",
        "road_address": "서울 동대문구 망우로 82",
        "phone": "1577-3675",
        "category": "의료,건강 > 병원 > 종합병원",
        "distance": "756"
      },
      {
        "name": "서울성심병원",
        "latitude": 37.5841741732334,
        "longitude": 127.049838048407,
        "address": "서울 동대문구 청량리동 40-9",
        "road_address": "서울 동대문구 왕산로 259",
        "phone": "02-966-1616",
        "category": "의료,건강 > 병원 > 종합병원",
        "distance": "700"
      },
      {
        "name": "경희의료원",
        "latitude": 37.5938752004487,
        "longitude": 127.051832862704,
        "address": "서울 동대문구 회기동 1-5",
        "road_address": "서울 동대문구 경희대로 23",
        "phone": "02-958-8114",
        "category": "의료,건강 > 병원 > 대학병원",
        "distance": "1131"
      },
      {
        "name": "사랑내과의원",
        "latitude": 37.5904389970222,
        "longitude": 127.055403901931,
        "address": "서울 동대문구 회기동 346-1",
        "road_address": "서울 동대문구 회기로 173",
        "phone": "02-962-9175",
        "category": "의료,건강 > 병원 > 내과",
        "distance": "655"
      },
      {
        "name": "삼육치과병원",
        "latitude": 37.58749331133146,
        "longitude": 127.06325365343766,
        "address": "서울 동대문구 휘경동 29-1",
        "road_address": "서울 동대문구 망우로 82",
        "phone": "02-3407-2875",
        "category": "의료,건강 > 병원 > 치과",
        "distance": "570"
      },
      {
        "name": "루트재활의학과의원",
        "latitude": 37.588624831309424,
        "longitude": 127.05824786524548,
        "address": "서울 동대문구 휘경동 380",
        "road_address": "서울 동대문구 망우로 46",
        "phone": "02-2246-7744",
        "category": "의료,건강 > 병원 > 재활의학과",
        "distance": "424"
      },
      {
        "name": "경희대학교치과병원",
        "latitude": 37.59411424584499,
        "longitude": 127.05322238365355,
        "address": "서울 동대문구 회기동 1-5",
        "road_address": "서울 동대문구 경희대로 26",
        "phone": "02-958-8114",
        "category": "의료,건강 > 병원 > 치과",
        "distance": "1105"
      },
      {
        "name": "경남한의원",
        "latitude": 37.58885175134132,
        "longitude": 127.05475508464667,
        "address": "서울 동대문구 휘경동 336-4",
        "road_address": "서울 동대문구 이문로 12",
        "phone": "02-967-4815",
        "category": "의료,건강 > 병원 > 한의원",
        "distance": "518"
      },
      {
        "name": "경희대학교한방병원",
        "latitude": 37.5938571806208,
        "longitude": 127.051832850206,
        "address": "서울 동대문구 회기동 1-5",
        "road_address": "서울 동대문구 경희대로 23",
        "phone": "02-958-8114",
        "category": "의료,건강 > 병원 > 한방병원",
        "distance": "1129"
      },
      {
        "name": "고은산부인과의원",
        "latitude": 37.590238565455714,
        "longitude": 127.0562733290739,
        "address": "서울 동대문구 휘경동 321-7",
        "road_address": "서울 동대문구 이문로 32",
        "phone": "02-960-2164",
        "category": "의료,건강 > 병원 > 산부인과",
        "distance": "614"
      }
    ]
  }
}