{
  "key": "32a2f7f57e7cf4861ffbbbe797083ca93ce05ec8604cc510c52dce6cc42b0c55",
  "tool": "PlaceSearch_kakao",
  "created_at": "2025-10-26T10:31:23.690615",
  "input_params": {
    "keyword": "대학교",
    "radius": 1000,
    "sort": "accuracy",
    "x": 126.9785,
    "y": 37.5675
  },
  "raw_args": {
    "keyword": "대학교",
    "x": 126.9785,
    "y": 37.5675,
    "radius": 1000
  },
  "data": {
    "keyword": "대학교",
    "total_count": 19,
    "places": [
      {
        "name": "정화예술대학교 백암관",
        "latitude": 37.55861635949,
        "longitude": 126.979994629993,
        "address": "서울 중구 회현동1가 92-6",
        "road_address": "서울 중구 퇴계로8길 13",
        "phone": "02-6916-3390",
        "category": "교육,학문 > 학교부속시설",
        "distance": "994"
      },
      {
        "name": "영진사이버대학교 서울캠퍼스",
        "latitude": 37.568260911363076,
        "longitude": 126.98176238532989,
        "address": "서울 중구 다동 70",
        "road_address": "서울 중구 다동길 43",
        "phone": "02-779-5900",
        "category": "교육,학문 > 학교 > 사이버대학",
        "distance": "300"
      },
      {
        "name": "반지대학 명동캠퍼스",
        "latitude": 37.5611108082421,
        "longitude": 126.983126838689,
        "address": "서울 중구 충무로1가 25-32",
        "road_address": "서울 중구 명동2길 52",
        "phone": "02-3789-6620",
        "category": "문화,예술 > 미술,공예",
        "distance": "818"
      },
      {
        "name": "조계사불교대학",
        "latitude": 37.5729965355341,
        "longitude": 126.981715950611,
        "address": "서울 종로구 수송동 46-22",
        "road_address": "서울 종로구 우정국로 45-19",
        "phone": "02-768-8580",
        "category": "교육,학문 > 학교 > 종교학교",
        "distance": "673"
      },
      {
        "name": "동산불교대학",
        "latitude": 37.572920928052,
        "longitude": 126.982214048189,
        "address": "서울 종로구 수송동 46-20",
        "road_address": "서울 종로구 우정국로 45-11",
        "phone": "02-732-1206",
        "category": "교육,학문 > 학교 > 종교학교",
        "distance": "685"
      },
      {
        "name": "정화예술대학교 명동캠퍼스 학술정보관",
        "latitude": 37.56010190879,
        "longitude": 126.984720646206,
        "address": "서울 중구 남산동1가 7-5",
        "road_address": "서울 중구 퇴계로16길 15",
        "phone": "02-6916-3282",
        "category": "교육,학문 > 학교부속시설",
        "distance": "988"
      },
      {
        "name": "한국전통문화대학교 서울교육관",
        "latitude": 37.5634534888089,
        "longitude": 126.983764676384,
        "address": "서울 중구 명동2가 50-14",
        "road_address": "서울 중구 명동길 26",
        "phone": "",
        "category": "교육,학문 > 학교부속시설",
        "distance": "646"
      },
      {
        "name": "서울사이버대학교",
        "latitude": 37.5612130643925,
        "longitude": 126.986584528131,
        "address": "서울 중구 충무로2가 64-5",
        "road_address": "서울 중구 퇴계로 131",
        "phone": "",
        "category": "교육,학문 > 학교 > 사이버대학",
        "distance": "998"
      },
      {
        "name": "정화예술대학교 정화아트센터",
        "latitude": 37.5603289711051,
        "longitude": 126.984806617201,
        "address": "서울 중구 남산동1가 7-1",
        "road_address": "서울 중구 퇴계로16길 3",
        "phone": "",
        "category": "교육,학문 > 학교부속시설",
        "distance": "971"
      },
      {
        "name": "한국원격대학협의회",
        "latitude": 37.5725640253393,
        "longitude": 126.981506637729,
        "address": "서울 종로구 수송동 58",
        "road_address": "서울 종로구 삼봉로 81",
        "phone": "02-723-6574",
        "category": "사회,공공기관 > 단체,협회",
        "distance": "621"
      },
      {
        "name": "동국대학교석림회",
        "latitude": 37.5750581409892,
        "longitude": 126.982571261468,
        "address": "서울 종로구 견지동 13",
        "road_address": "서울 종로구 우정국로 67",
        "phone": "02-733-8985",
        "category": "가정,생활 > 친목 > 동창회,동문회",
        "distance": "912"
      },
      {
        "name": "동경국제대학부속일본어학교 한국사무소",
        "latitude": 37.5704724682584,
        "longitude": 126.974766327868,
        "address": "서울 종로구 신문로1가 24",
        "road_address": "서울 종로구 새문안로 91",
        "phone": "02-732-8101",
        "category": "서비스,산업 > 전문대행 > 유학,어학연수",
        "distance": "466"
      },
      {
        "name": "한국불교법사대학",
        "latitude": 37.5729696477984,
        "longitude": 126.982657780085,
        "address": "서울 종로구 견지동 110-39",
        "road_address": "서울 종로구 우정국로 45-3",
        "phone": "02-733-1959",
        "category": "문화,예술 > 종교 > 불교",
        "distance": "709"
      },
      {
        "name": "국립세무대학 총동문회",
        "latitude": 37.574436582449,
        "longitude": 126.973560520152,
        "address": "서울 종로구 적선동 156",
        "road_address": "서울 종로구 새문안로5가길 28",
        "phone": "02-734-8732",
        "category": "가정,생활 > 친목 > 동창회,동문회",
        "distance": "884"
      },
      {
        "name": "정화예술대학교 미디어센터",
        "latitude": 37.560328972561,
        "longitude": 126.984817935275,
        "address": "서울 중구 남산동1가 7-1",
        "road_address": "서울 중구 퇴계로16길 3",
        "phone": "",
        "category": "교육,학문 > 학교부속시설",
        "distance": "972"
      }
    ]
  }
}