{
  "key": "ca9bf3d59f8cc1b6994f2ce49c44937b3aac227e661c9471406ba9d33e1f92de",
  "tool": "PlaceSearch_kakao",
  "created_at": "2025-10-26T22:20:38.718132",
  "input_params": {
    "keyword": "병원",
    "page": 1,
    "radius": 500,
    "size": 10,
    "sort": "accuracy",
    "x": 127.03,
    "y": 37.57
  },
  "raw_args": {
    "keyword": "병원",
    "x": 127.03,
    "y": 37.57,
    "page": 1,
    "size": 10,
    "radius": 500
  },
  "data": {
    "keyword": "병원",
    "total_count": 17,
    "places": [
      {
        "name": "왕십리휴병원",
        "latitude": 37.57207310750505,
        "longitude": 127.03083527438126,
        "address": "서울 동대문구 용두동 129-36",
        "road_address": "서울 동대문구 무학로 88",
        "phone": "02-927-6501",
        "category": "의료,건강 > 병원",
        "distance": "241"
      },
      {
        "name": "서울특별시장애인치과병원",
        "latitude": 37.566693610353,
        "longitude": 127.032888593832,
        "address": "서울 성동구 홍익동 102",
        "road_address": "서울 성동구 마장로 207",
        "phone": "02-2282-0001",
        "category": "의료,건강 > 병원 > 치과",
        "distance": "446"
      },
      {
        "name": "김승일마취과의원",
        "latitude": 37.573739784305,
        "longitude": 127.031456303211,
        "address": "서울 동대문구 용두동 122-52",
        "road_address": "서울 동대문구 천호대로 72",
        "phone": "02-927-2471",
        "category": "의료,건강 > 병원 > 통증클리닉",
        "distance": "434"
      },
      {
        "name": "아이숲안과의원",
        "latitude": 37.56721978963001,
        "longitude": 127.02562648011032,
        "address": "서울 성동구 상왕십리동 816",
        "road_address": "서울 성동구 왕십리로 410",
        "phone": "02-2295-1175",
        "category": "의료,건강 > 병원 > 안과",
        "distance": "494"
      },
      {
        "name": "연세오케이이비인후과의원",
        "latitude": 37.5677188381058,
        "longitude": 127.026097529464,
        "address": "서울 성동구 하왕십리동 339-67",
        "road_address": "서울 성동구 무학로 33",
        "phone": "02-6015-6051",
        "category": "의료,건강 > 병원 > 이비인후과",
        "distance": "427"
      },
      {
        "name": "세명성모내과의원",
        "latitude": 37.56683564001865,
        "longitude": 127.03076180524535,
        "address": "서울 성동구 홍익동 415",
        "road_address": "서울 성동구 마장로 187",
        "phone": "02-2282-2266",
        "category": "의료,건강 > 병원 > 내과",
        "distance": "357"
      },
      {
        "name": "봉산한의원",
        "latitude": 37.5674879162629,
        "longitude": 127.030932992754,
        "address": "서울 성동구 홍익동 429",
        "road_address": "서울 성동구 마장로21길 7-1",
        "phone": "02-2292-4892",
        "category": "의료,건강 > 병원 > 한의원",
        "distance": "290"
      },
      {
        "name": "삼성키즈아이소아청소년과의원",
        "latitude": 37.56774400562019,
        "longitude": 127.02636919894334,
        "address": "서울 성동구 하왕십리동 1066",
        "road_address": "서울 성동구 무학로 33",
        "phone": "02-6959-0157",
        "category": "의료,건강 > 병원 > 소아청소년과",
        "distance": "406"
      },
      {
        "name": "형치과의원",
        "latitude": 37.5680782071758,
        "longitude": 127.030398968436,
        "address": "서울 성동구 하왕십리동 242-167",
        "road_address": "서울 성동구 무학로 44",
        "phone": "02-2298-0280",
        "category": "의료,건강 > 병원 > 치과",
        "distance": "216"
      },
      {
        "name": "서울라이프치과의원",
        "latitude": 37.5677079839683,
        "longitude": 127.026287688075,
        "address": "서울 성동구 하왕십리동 508",
        "road_address": "서울 성동구 무학로 33",
        "phone": "02-2281-7528",
        "category": "의료,건강 > 병원 > 치과",
        "distance": "415"
      }
    ]
  }
}