{
  "key": "caea03e0839d7d92f19c9345317b7f9accb836738cdd4cbfbe13008856f39efb",
  "tool": "PlaceSearch_kakao",
  "created_at": "2025-10-15T13:32:43.502138",
  "input_params": {
    "keyword": "애플스토어",
    "sort": "accuracy"
  },
  "raw_args": {
    "keyword": "애플스토어"
  },
  "data": {
    "keyword": "애플스토어",
    "total_count": 16,
    "places": [
      {
        "name": "Apple 가로수길",
        "latitude": 37.520819816124934,
        "longitude": 127.02272940977892,
        "address": "서울 강남구 신사동 534-19",
        "road_address": "서울 강남구 가로수길 43",
        "phone": "080-500-0029",
        "category": "가정,생활 > 전자제품 > 전자제품서비스센터 > 통신기기수리 > Apple 공인서비스센터",
        "distance": ""
      },
      {
        "name": "Apple 홍대",
        "latitude": 37.55511260345064,
        "longitude": 126.92194695320684,
        "address": "서울 마포구 동교동 162-4",
        "road_address": "서울 마포구 양화로 140",
        "phone": "080-500-3005",
        "category": "가정,생활 > 전자제품 > 전자제품서비스센터 > 통신기기수리 > Apple 공인서비스센터",
        "distance": ""
      },
      {
        "name": "Apple 명동",
        "latitude": 37.56468141612801,
        "longitude": 126.98284080132754,
        "address": "서울 중구 남대문로2가 9-1",
        "road_address": "서울 중구 남대문로 84",
        "phone": "080-500-1007",
        "category": "가정,생활 > 전자제품 > 전자제품서비스센터 > 통신기기수리 > Apple 공인서비스센터",
        "distance": ""
      },
      {
        "name": "Apple 강남",
        "latitude": 37.5036902997713,
        "longitude": 127.025310702725,
        "address": "서울 강남구 역삼동 809",
        "road_address": "서울 강남구 강남대로 464",
        "phone": "080-500-0456",
        "category": "가정,생활 > 전자제품 > 전자제품서비스센터 > 통신기기수리 > Apple 공인서비스센터",
        "distance": ""
      },
      {
        "name": "Apple 여의도",
        "latitude": 37.52490014770034,
        "longitude": 126.92594128549898,
        "address": "서울 영등포구 여의도동 23",
        "road_address": "서울 영등포구 국제금융로 10",
        "phone": "080-500-0013",
        "category": "가정,생활 > 전자제품 > 전자제품서비스센터 > 통신기기수리 > Apple 공인서비스센터",
        "distance": ""
      },
      {
        "name": "Apple 잠실",
        "latitude": 37.5139978977813,
        "longitude": 127.10408109426407,
        "address": "서울 송파구 신천동 29",
        "road_address": "서울 송파구 올림픽로 300",
        "phone": "080-500-0098",
        "category": "가정,생활 > 전자제품 > 전자제품서비스센터 > 통신기기수리 > Apple 공인서비스센터",
        "distance": ""
      },
      {
        "name": "Apple 하남",
        "latitude": 37.545694260622504,
        "longitude": 127.22402674722991,
        "address": "경기 하남시 신장동 616",
        "road_address": "경기 하남시 미사대로 750",
        "phone": "080-500-3006",
        "category": "가정,생활 > 전자제품 > 전자제품서비스센터 > 통신기기수리 > Apple 공인서비스센터",
        "distance": ""
      },
      {
        "name": "에이스토어 서수원점",
        "latitude": 37.28290270047677,
        "longitude": 126.97010627364362,
        "address": "경기 수원시 권선구 구운동 925",
        "road_address": "경기 수원시 권선구 수인로 291",
        "phone": "",
        "category": "가정,생활 > 전자제품 > 전자제품판매 > 에이스토어",
        "distance": ""
      },
      {
        "name": "애플 에이스토어 왕십리점",
        "latitude": 37.5614409428574,
        "longitude": 127.038391477602,
        "address": "서울 성동구 행당동 168-151",
        "road_address": "서울 성동구 왕십리광장로 17",
        "phone": "0507-1492-1573",
        "category": "가정,생활 > 전자제품 > 전자제품판매 > 에이스토어",
        "distance": ""
      },
      {
        "name": "애플스토어사과농장",
        "latitude": 36.3926019469985,
        "longitude": 128.93053727828945,
        "address": "경북 안동시 길안면 금곡리 62",
        "road_address": "경북 안동시 길안면 미내소일길 42-18",
        "phone": "",
        "category": "의료,건강 > 건강식품판매",
        "distance": ""
      },
      {
        "name": "애플스토어 하이마트 경산점",
        "latitude": 35.8336037441236,
        "longitude": 128.73088820668,
        "address": "경북 경산시 정평동 255-2",
        "road_address": "경북 경산시 대학로 74",
        "phone": "",
        "category": "가정,생활 > 전자제품 > 전자제품판매",
        "distance": ""
      },
      {
        "name": "아이스토어 부산광복점",
        "latitude": 35.0978601120367,
        "longitude": 129.036689563884,
        "address": "부산 중구 중앙동7가 20-1",
        "road_address": "부산 중구 중앙대로 2",
        "phone": "051-678-3933",
        "category": "가정,생활 > 전자제품 > 전자제품서비스센터 > 통신기기수리 > Apple 공인서비스센터",
        "distance": ""
      },
      {
        "name": "아이스토어 부산본점",
        "latitude": 35.1565979394368,
        "longitude": 129.056554579339,
        "address": "부산 부산진구 부전동 503-15",
        "road_address": "부산 부산진구 가야대로 772",
        "phone": "051-810-4675",
        "category": "가정,생활 > 전자제품 > 전자제품판매",
        "distance": ""
      },
      {
        "name": "아이스토어 롯데동탄점",
        "latitude": 37.1997578013939,
        "longitude": 127.09823685543057,
        "address": "경기 화성시 오산동 1089",
        "road_address": "경기 화성시 동탄역로 150",
        "phone": "031-8036-3602",
        "category": "가정,생활 > 전자제품 > 전자제품판매",
        "distance": ""
      },
      {
        "name": "애플 A-STORE 이마트구미점",
        "latitude": 36.1094735077086,
        "longitude": 128.364892350759,
        "address": "경북 구미시 광평동 65-1",
        "road_address": "경북 구미시 구미대로 256",
        "phone": "054-467-1206",
        "category": "가정,생활 > 전자제품 > 전자제품판매 > 컴퓨터판매",
        "distance": ""
      }
    ]
  }
}