{
  "key": "0ca6aa62313b376d91663c698681bce2924a972cbd7e0c75235d33b4ac71c142",
  "tool": "CategorySearch_kakao",
  "created_at": "2025-12-15T13:57:34.155339",
  "input_params": {
    "category": "CS2",
    "radius": 800,
    "size": 15,
    "x": 129.165,
    "y": 35.163
  },
  "raw_args": {
    "x": 129.165,
    "y": 35.163,
    "category": "CS2",
    "radius": 800,
    "size": 15
  },
  "data": {
    "category": "CS2",
    "total_count": 61,
    "places": [
      {
        "name": "GS25 파라다이스점",
        "latitude": 35.16093124810991,
        "longitude": 129.16468949994518,
        "address": "부산 해운대구 중동 1404-39",
        "phone": "051-747-9735",
        "distance": "231"
      },
      {
        "name": "GS25 해운후레쉬점",
        "latitude": 35.1618944853227,
        "longitude": 129.160000889552,
        "address": "부산 해운대구 우동 542-5",
        "phone": "",
        "distance": "471"
      },
      {
        "name": "GS25 해운우동점",
        "latitude": 35.1637006298392,
        "longitude": 129.161602522509,
        "address": "부산 해운대구 우동 598-9",
        "phone": "051-746-9457",
        "distance": "319"
      },
      {
        "name": "GS25 씨클라우드점",
        "latitude": 35.1605137391956,
        "longitude": 129.16243552318,
        "address": "부산 해운대구 중동 1392-100",
        "phone": "",
        "distance": "361"
      },
      {
        "name": "CU 해운대마리안느점",
        "latitude": 35.1614263296288,
        "longitude": 129.164619226122,
        "address": "부산 해운대구 중동 1400-24",
        "phone": "",
        "distance": "177"
      },
      {
        "name": "GS25 해운중동역점",
        "latitude": 35.1669419108617,
        "longitude": 129.167356403613,
        "address": "부산 해운대구 중동 1754-3",
        "phone": "",
        "distance": "487"
      },
      {
        "name": "CU 해운대구남로점",
        "latitude": 35.1613824195383,
        "longitude": 129.161023222017,
        "address": "부산 해운대구 중동 1393-31",
        "phone": "",
        "distance": "404"
      },
      {
        "name": "GS25 W타워점",
        "latitude": 35.1600359687021,
        "longitude": 129.161536247771,
        "address": "부산 해운대구 중동 1391-66",
        "phone": "",
        "distance": "455"
      },
      {
        "name": "CU 해운대비치점",
        "latitude": 35.1617881738564,
        "longitude": 129.158685668102,
        "address": "부산 해운대구 우동 541-5",
        "phone": "",
        "distance": "590"
      },
      {
        "name": "GS25 해운온천점",
        "latitude": 35.1632172677806,
        "longitude": 129.164447228737,
        "address": "부산 해운대구 중동 1378-113",
        "phone": "",
        "distance": "55"
      },
      {
        "name": "GS25 해운베니키아점",
        "latitude": 35.1623295437058,
        "longitude": 129.164906528438,
        "address": "부산 해운대구 중동 1398-23",
        "phone": "051-747-1793",
        "distance": "74"
      },
      {
        "name": "CU 해운대팔레드시즈점",
        "latitude": 35.160422942150575,
        "longitude": 129.16630553584048,
        "address": "부산 해운대구 중동 1124-2",
        "phone": "051-742-7878",
        "distance": "309"
      },
      {
        "name": "CU 해운대솔밭예술마을점",
        "latitude": 35.1642993316382,
        "longitude": 129.1617851707,
        "address": "부산 해운대구 우동 598-4",
        "phone": "051-747-2159",
        "distance": "326"
      },
      {
        "name": "세븐일레븐 부산우동푸르지오점",
        "latitude": 35.164014174477714,
        "longitude": 129.16094911327278,
        "address": "부산 해운대구 우동 1562",
        "phone": "1577-0711",
        "distance": "386"
      },
      {
        "name": "GS25 팔레드시즈점",
        "latitude": 35.16021882207777,
        "longitude": 129.1665832273172,
        "address": "부산 해운대구 중동 1124-2",
        "phone": "051-743-5263",
        "distance": "340"
      }
    ]
  }
}