{
  "key": "7170348aff5ee01bbf13a1d20342608a96a8d311fe622049fa4545915d57f51e",
  "tool": "PlaceSearch_kakao",
  "created_at": "2025-10-27T13:40:04.144910",
  "input_params": {
    "keyword": "한국외국어대학교",
    "size": 5,
    "sort": "distance",
    "x": 127.04773632414528,
    "y": 37.57997010526071
  },
  "raw_args": {
    "keyword": "한국외국어대학교",
    "x": 127.04773632414528,
    "y": 37.57997010526071,
    "size": 5,
    "sort": "distance"
  },
  "data": {
    "keyword": "한국외국어대학교",
    "total_count": 214,
    "places": [
      {
        "name": "앙호두 한국외대점",
        "latitude": 37.5950034382432,
        "longitude": 127.05908510095,
        "address": "서울 동대문구 이문동 327-7",
        "road_address": "서울 동대문구 이문로 89",
        "phone": "",
        "category": "음식점 > 간식 > 제과,베이커리",
        "distance": "1946"
      },
      {
        "name": "한국외국어대학교 학군단",
        "latitude": 37.59612155469516,
        "longitude": 127.05728554984464,
        "address": "서울 동대문구 이문동 270-1",
        "road_address": "서울 동대문구 이문로 107",
        "phone": "02-2173-2595",
        "category": "교육,학문 > 학교부속시설",
        "distance": "1981"
      },
      {
        "name": "한국외국어대학교 기록학연구센터",
        "latitude": 37.5955116425276,
        "longitude": 127.058994915581,
        "address": "서울 동대문구 이문동 329-20",
        "road_address": "서울 동대문구 이문로25길 11",
        "phone": "02-2173-2969",
        "category": "교육,학문 > 연구소",
        "distance": "1991"
      },
      {
        "name": "한국외국어대학교 제1교수연구동",
        "latitude": 37.5955296623483,
        "longitude": 127.058994929807,
        "address": "서울 동대문구 이문동 329-20",
        "road_address": "서울 동대문구 이문로25길 11",
        "phone": "",
        "category": "교육,학문 > 학교부속시설",
        "distance": "1992"
      },
      {
        "name": "한국외국어대학교 사회과학관",
        "latitude": 37.5960997002405,
        "longitude": 127.057758854908,
        "address": "서울 동대문구 이문동 277-1",
        "road_address": "서울 동대문구 이문로 107",
        "phone": "",
        "category": "교육,학문 > 학교부속시설",
        "distance": "1997"
      }
    ]
  }
}