{
  "key": "7181b21800f0ef33f82e115f0c60254dc2ee5be2ed8b60c6ef8a480d0b21444d",
  "tool": "PlaceSearch_kakao",
  "created_at": "2025-12-19T05:21:01.505996",
  "input_params": {
    "keyword": "병원",
    "radius": 5000,
    "size": 10,
    "sort": "distance",
    "x": 127.0305,
    "y": 37.5865
  },
  "raw_args": {
    "x": 127.0305,
    "y": 37.5865,
    "sort": "distance",
    "keyword": "병원",
    "radius": 5000,
    "size": 10
  },
  "data": {
    "keyword": "병원",
    "total_count": 3349,
    "places": [
      {
        "name": "사람인치과의원",
        "latitude": 37.58649457438366,
        "longitude": 127.03022643585435,
        "address": "서울 성북구 안암동5가 99",
        "road_address": "서울 성북구 고려대로27길 4",
        "phone": "02-929-2857",
        "category": "의료,건강 > 병원 > 치과",
        "distance": "24"
      },
      {
        "name": "위드치과의원",
        "latitude": 37.586703778120906,
        "longitude": 127.02954153545198,
        "address": "서울 성북구 안암동5가 101-3",
        "road_address": "서울 성북구 개운사길 8",
        "phone": "02-925-2874",
        "category": "의료,건강 > 병원 > 치과",
        "distance": "87"
      },
      {
        "name": "서울의원",
        "latitude": 37.58609921620851,
        "longitude": 127.02952431357085,
        "address": "서울 성북구 안암동5가 101-51",
        "road_address": "서울 성북구 고려대로 92",
        "phone": "02-997-2682",
        "category": "의료,건강 > 병원 > 일반의원",
        "distance": "97"
      },
      {
        "name": "에이치앤비의원",
        "latitude": 37.5864623976989,
        "longitude": 127.029197250362,
        "address": "서울 성북구 안암동5가 101-53",
        "road_address": "서울 성북구 고려대로 89",
        "phone": "02-923-5905",
        "category": "의료,건강 > 병원 > 일반의원",
        "distance": "115"
      },
      {
        "name": "닥터민치과의원",
        "latitude": 37.58661737013556,
        "longitude": 127.02919051766116,
        "address": "서울 성북구 안암동5가 101-19",
        "road_address": "서울 성북구 개운사길 5",
        "phone": "02-925-2879",
        "category": "의료,건강 > 병원 > 치과",
        "distance": "116"
      },
      {
        "name": "휴앤힐 정신건강의학과의원",
        "latitude": 37.5856694411943,
        "longitude": 127.029529804783,
        "address": "서울 성북구 안암동5가 102-50",
        "road_address": "서울 성북구 고려대로24길 11",
        "phone": "02-922-1183",
        "category": "의료,건강 > 병원 > 정신건강의학과",
        "distance": "125"
      },
      {
        "name": "이민수정신건강의학과의원",
        "latitude": 37.5853848079917,
        "longitude": 127.029205886969,
        "address": "서울 성북구 안암동5가 102-69",
        "road_address": "서울 성북구 고려대로24길 20",
        "phone": "02-925-6900",
        "category": "의료,건강 > 병원 > 정신건강의학과",
        "distance": "168"
      },
      {
        "name": "동성제일한의원",
        "latitude": 37.585110331996155,
        "longitude": 127.03144070793093,
        "address": "서울 성북구 안암동5가 86-10",
        "road_address": "서울 성북구 안암로 105",
        "phone": "0502-5553-2736",
        "category": "의료,건강 > 병원 > 한의원",
        "distance": "175"
      },
      {
        "name": "우신향병원 구관동 개방화장실",
        "latitude": 37.5848257230972,
        "longitude": 127.031044325875,
        "address": "서울 성북구 안암동5가 86-125",
        "road_address": "서울 성북구 안암로 99",
        "phone": "",
        "category": "가정,생활 > 화장실",
        "distance": "192"
      },
      {
        "name": "우신향병원",
        "latitude": 37.58478154670066,
        "longitude": 127.03114960003643,
        "address": "서울 성북구 안암동5가 85-9",
        "road_address": "서울 성북구 안암로 99",
        "phone": "02-927-3331",
        "category": "의료,건강 > 병원",
        "distance": "199"
      }
    ]
  }
}