{
  "key": "8ba2c1d83aa9ee468ff0c7872e67fdf91a0078262be8b6b5c7d1be1518465796",
  "tool": "CategorySearch_tmap",
  "created_at": "2025-12-19T04:34:11.093866",
  "input_params": {
    "categories": "병원",
    "centerLat": 37.584828,
    "centerLon": 127.057733,
    "count": 20,
    "radius": 1
  },
  "raw_args": {
    "categories": "병원",
    "centerLon": 127.057733,
    "centerLat": 37.584828,
    "radius": 1,
    "count": 20
  },
  "data": {
    "totalCount": 140,
    "count": 20,
    "page": 1,
    "pois": [
      {
        "name": "전농비뇨기과의원",
        "telNo": "0222459885",
        "latitude": "37.58148167",
        "longitude": "127.05842998",
        "address": "서울 동대문구 전농동",
        "roadName": "사가정로13길",
        "buildingNo": "-",
        "radius_km": "0.379",
        "dataKind": "",
        "stId": "",
        "parkFlag": "0",
        "merchantFlag": ""
      },
      {
        "name": "성요한의원",
        "telNo": "",
        "latitude": "37.58811974",
        "longitude": "127.05545784",
        "address": "서울 동대문구 휘경동",
        "roadName": "망우로",
        "buildingNo": "-",
        "radius_km": "0.416",
        "dataKind": "",
        "stId": "",
        "parkFlag": "0",
        "merchantFlag": ""
      },
      {
        "name": "서울인치과의원",
        "telNo": "029337528",
        "latitude": "37.58306473",
        "longitude": "127.05354149",
        "address": "서울 동대문구 전농동",
        "roadName": "전농로",
        "buildingNo": "-",
        "radius_km": "0.419",
        "dataKind": "",
        "stId": "",
        "parkFlag": "1",
        "merchantFlag": ""
      },
      {
        "name": "서울인치과의원 주차장",
        "telNo": "029337528",
        "latitude": "37.58306473",
        "longitude": "127.05343039",
        "address": "서울 동대문구 전농동",
        "roadName": "전농로",
        "buildingNo": "-",
        "radius_km": "0.419",
        "dataKind": "",
        "stId": "",
        "parkFlag": "0",
        "merchantFlag": ""
      },
      {
        "name": "서울저스트치과의원 주차장",
        "telNo": "0222138222",
        "latitude": "37.58878639",
        "longitude": "127.05898528",
        "address": "서울 동대문구 휘경동",
        "roadName": "망우로",
        "buildingNo": "-",
        "radius_km": "0.429",
        "dataKind": "",
        "stId": "",
        "parkFlag": "0",
        "merchantFlag": ""
      },
      {
        "name": "서울저스트치과의원",
        "telNo": "0222138222",
        "latitude": "37.58864751",
        "longitude": "127.05851310",
        "address": "서울 동대문구 휘경동",
        "roadName": "망우로",
        "buildingNo": "-",
        "radius_km": "0.429",
        "dataKind": "",
        "stId": "",
        "parkFlag": "1",
        "merchantFlag": ""
      },
      {
        "name": "루트재활의학과의원",
        "telNo": "0222467744",
        "latitude": "37.58875861",
        "longitude": "127.05884640",
        "address": "서울 동대문구 휘경동",
        "roadName": "망우로",
        "buildingNo": "-",
        "radius_km": "0.447",
        "dataKind": "",
        "stId": "",
        "parkFlag": "1",
        "merchantFlag": ""
      },
      {
        "name": "루트재활의학과의원 주차장",
        "telNo": "0222467744",
        "latitude": "37.58878639",
        "longitude": "127.05898528",
        "address": "서울 동대문구 휘경동",
        "roadName": "망우로",
        "buildingNo": "-",
        "radius_km": "0.447",
        "dataKind": "",
        "stId": "",
        "parkFlag": "0",
        "merchantFlag": ""
      },
      {
        "name": "도연정신건강의학과의원",
        "telNo": "0222428992",
        "latitude": "37.58900859",
        "longitude": "127.05920747",
        "address": "서울 동대문구 휘경동",
        "roadName": "망우로12길",
        "buildingNo": "-",
        "radius_km": "0.481",
        "dataKind": "",
        "stId": "",
        "parkFlag": "1",
        "merchantFlag": ""
      },
      {
        "name": "도연정신건강의학과의원 주차장",
        "telNo": "0222428992",
        "latitude": "37.58903637",
        "longitude": "127.05940190",
        "address": "서울 동대문구 휘경동",
        "roadName": "망우로12길",
        "buildingNo": "-",
        "radius_km": "0.481",
        "dataKind": "",
        "stId": "",
        "parkFlag": "0",
        "merchantFlag": ""
      },
      {
        "name": "서울앤플란트치과의원",
        "telNo": "029647528",
        "latitude": "37.58978623",
        "longitude": "127.05679100",
        "address": "서울 동대문구 휘경동",
        "roadName": "회기로",
        "buildingNo": "-",
        "radius_km": "0.556",
        "dataKind": "",
        "stId": "",
        "parkFlag": "1",
        "merchantFlag": ""
      },
      {
        "name": "서울앤플란트치과의원 주차장",
        "telNo": "029647528",
        "latitude": "37.58970291",
        "longitude": "127.05676323",
        "address": "서울 동대문구 휘경동",
        "roadName": "회기로",
        "buildingNo": "-",
        "radius_km": "0.556",
        "dataKind": "",
        "stId": "",
        "parkFlag": "0",
        "merchantFlag": ""
      },
      {
        "name": "삼육치과병원",
        "telNo": "0234072875",
        "latitude": "37.58753661",
        "longitude": "127.06323493",
        "address": "서울 동대문구 휘경동",
        "roadName": "망우로",
        "buildingNo": "-",
        "radius_km": "0.57",
        "dataKind": "",
        "stId": "",
        "parkFlag": "1",
        "merchantFlag": ""
      },
      {
        "name": "최묘경의원",
        "telNo": "0222135197",
        "latitude": "37.58914750",
        "longitude": "127.06134616",
        "address": "서울 동대문구 휘경동",
        "roadName": "망우로16길",
        "buildingNo": "-",
        "radius_km": "0.575",
        "dataKind": "",
        "stId": "",
        "parkFlag": "0",
        "merchantFlag": ""
      },
      {
        "name": "미몽피부과의원",
        "telNo": "029577537",
        "latitude": "37.59006397",
        "longitude": "127.05629104",
        "address": "서울 동대문구 휘경동",
        "roadName": "이문로",
        "buildingNo": "-",
        "radius_km": "0.595",
        "dataKind": "",
        "stId": "",
        "parkFlag": "0",
        "merchantFlag": ""
      },
      {
        "name": "성신소아과의원",
        "telNo": "029660595",
        "latitude": "37.59009174",
        "longitude": "127.05626327",
        "address": "서울 동대문구 휘경동",
        "roadName": "이문로",
        "buildingNo": "-",
        "radius_km": "0.598",
        "dataKind": "",
        "stId": "",
        "parkFlag": "0",
        "merchantFlag": ""
      },
      {
        "name": "임치과의원",
        "telNo": "029673496",
        "latitude": "37.58995285",
        "longitude": "127.05531891",
        "address": "서울 동대문구 회기동",
        "roadName": "이문로",
        "buildingNo": "-",
        "radius_km": "0.607",
        "dataKind": "",
        "stId": "",
        "parkFlag": "0",
        "merchantFlag": ""
      },
      {
        "name": "연세오직치과교정과치과의원 주차장",
        "telNo": "024937528",
        "latitude": "37.58986953",
        "longitude": "127.05540224",
        "address": "서울 동대문구 회기동",
        "roadName": "이문로",
        "buildingNo": "-",
        "radius_km": "0.61",
        "dataKind": "",
        "stId": "",
        "parkFlag": "0",
        "merchantFlag": ""
      },
      {
        "name": "연세오직치과교정과치과의원",
        "telNo": "024937528",
        "latitude": "37.58998063",
        "longitude": "127.05531891",
        "address": "서울 동대문구 회기동",
        "roadName": "이문로",
        "buildingNo": "-",
        "radius_km": "0.61",
        "dataKind": "",
        "stId": "",
        "parkFlag": "1",
        "merchantFlag": ""
      },
      {
        "name": "고은산부인과의원",
        "telNo": "029602164",
        "latitude": "37.59020284",
        "longitude": "127.05626326",
        "address": "서울 동대문구 휘경동",
        "roadName": "이문로",
        "buildingNo": "-",
        "radius_km": "0.61",
        "dataKind": "",
        "stId": "",
        "parkFlag": "0",
        "merchantFlag": ""
      }
    ]
  }
}