{
  "key": "eeb80e5471ad54f059d1bccf5cdb74d0c9c8142e4011faf5153b5d1b319b4dfe",
  "tool": "PlaceSearch_kakao",
  "created_at": "2025-10-26T10:36:15.028165",
  "input_params": {
    "keyword": "맛집",
    "radius": 1000,
    "sort": "accuracy",
    "x": 126.9353,
    "y": 37.4855
  },
  "raw_args": {
    "keyword": "맛집",
    "radius": 1000,
    "x": 126.9353,
    "y": 37.4855
  },
  "data": {
    "keyword": "맛집",
    "total_count": 1684,
    "places": [
      {
        "name": "신풍루곱창구이",
        "latitude": 37.4858150122932,
        "longitude": 126.937676791569,
        "address": "서울 관악구 봉천동 957-18",
        "road_address": "서울 관악구 은천로2길 18",
        "phone": "02-877-6681",
        "category": "음식점 > 한식 > 육류,고기 > 곱창,막창",
        "distance": "213"
      },
      {
        "name": "서울갈비 신림점",
        "latitude": 37.4849874642852,
        "longitude": 126.933593500042,
        "address": "서울 관악구 신림동 1410-17",
        "road_address": "서울 관악구 남부순환로 1645",
        "phone": "02-885-7610",
        "category": "음식점 > 한식 > 육류,고기 > 갈비",
        "distance": "161"
      },
      {
        "name": "장충동영양족발",
        "latitude": 37.484421318465124,
        "longitude": 126.93629854263953,
        "address": "서울 관악구 신림동 10-627",
        "road_address": "서울 관악구 남부순환로 1672",
        "phone": "02-876-6869",
        "category": "음식점 > 한식 > 육류,고기 > 족발,보쌈",
        "distance": "148"
      },
      {
        "name": "고앤고 본점",
        "latitude": 37.485058890822344,
        "longitude": 126.93566821768789,
        "address": "서울 관악구 봉천동 959-2",
        "road_address": "서울 관악구 남부순환로 1665",
        "phone": "02-882-8492",
        "category": "음식점 > 한식 > 육류,고기",
        "distance": "58"
      },
      {
        "name": "강강술래 신림점",
        "latitude": 37.4845810083297,
        "longitude": 126.935032063852,
        "address": "서울 관악구 신림동 10-518",
        "road_address": "서울 관악구 남부순환로 1660",
        "phone": "02-886-9233",
        "category": "음식점 > 한식 > 육류,고기 > 갈비",
        "distance": "104"
      },
      {
        "name": "상도스시",
        "latitude": 37.48691602648182,
        "longitude": 126.93431770158557,
        "address": "서울 관악구 봉천동 967-15",
        "road_address": "서울 관악구 봉천로 299",
        "phone": "02-3285-9997",
        "category": "음식점 > 일식 > 초밥,롤",
        "distance": "179"
      },
      {
        "name": "어시장활어회 본점",
        "latitude": 37.48585477570524,
        "longitude": 126.93790289509387,
        "address": "서울 관악구 봉천동 956-3",
        "road_address": "서울 관악구 봉천로25길 13",
        "phone": "02-875-2881",
        "category": "음식점 > 한식 > 해물,생선 > 회",
        "distance": "233"
      },
      {
        "name": "정담은보쌈 신림점",
        "latitude": 37.48520831314562,
        "longitude": 126.93540238140316,
        "address": "서울 관악구 봉천동 959-4",
        "road_address": "서울 관악구 남부순환로 1661",
        "phone": "02-888-8401",
        "category": "음식점 > 한식 > 육류,고기 > 족발,보쌈",
        "distance": "33"
      },
      {
        "name": "중화요리팔공",
        "latitude": 37.48405234129973,
        "longitude": 126.9371129279526,
        "address": "서울 관악구 신림동 10-621",
        "road_address": "서울 관악구 남부순환로 1680",
        "phone": "02-877-9815",
        "category": "음식점 > 중식 > 중국요리",
        "distance": "227"
      },
      {
        "name": "원조민속순대타운",
        "latitude": 37.48325742954093,
        "longitude": 126.92878301206055,
        "address": "서울 관악구 신림동 1640-31",
        "road_address": "서울 관악구 신림로59길 14",
        "phone": "",
        "category": "음식점 > 한식 > 순대",
        "distance": "627"
      },
      {
        "name": "도미노피자 보라매점",
        "latitude": 37.487560306716674,
        "longitude": 126.93282121020303,
        "address": "서울 관악구 봉천동 968-29",
        "road_address": "서울 관악구 봉천로 283-1",
        "phone": "02-883-3085",
        "category": "음식점 > 양식 > 피자 > 도미노피자",
        "distance": "316"
      },
      {
        "name": "시골집",
        "latitude": 37.4861269181571,
        "longitude": 126.934632723395,
        "address": "서울 관악구 봉천동 961-3",
        "road_address": "서울 관악구 봉천로 308-2",
        "phone": "02-871-1588",
        "category": "음식점 > 한식 > 사철탕,영양탕",
        "distance": "91"
      },
      {
        "name": "달다어요",
        "latitude": 37.4864926643333,
        "longitude": 126.93134435131,
        "address": "서울 관악구 신림동 1419-23",
        "road_address": "서울 관악구 신림로68길 38",
        "phone": "",
        "category": "음식점 > 카페",
        "distance": "366"
      },
      {
        "name": "전주식당",
        "latitude": 37.485393988276996,
        "longitude": 126.9307494905695,
        "address": "서울 관악구 신림동 1421-41",
        "road_address": "서울 관악구 신림로66길 20",
        "phone": "",
        "category": "음식점 > 한식",
        "distance": "402"
      },
      {
        "name": "족족이 숯불구이불족발보쌈 본점",
        "latitude": 37.485895552587515,
        "longitude": 126.93834495855278,
        "address": "서울 관악구 봉천동 951-25",
        "road_address": "서울 관악구 은천로 28",
        "phone": "02-871-8077",
        "category": "음식점 > 한식 > 육류,고기 > 족발,보쌈",
        "distance": "273"
      }
    ]
  }
}