{
  "key": "fe3a5950d6ffa6db9bde3dd619e205d7c56e897b1ca90d0328bf236147703287",
  "tool": "PlaceSearch_kakao",
  "created_at": "2025-12-19T05:07:11.374233",
  "input_params": {
    "keyword": "디저트 카페",
    "page": 1,
    "radius": 600,
    "size": 5,
    "sort": "distance",
    "x": 127.028987,
    "y": 37.495768
  },
  "raw_args": {
    "keyword": "디저트 카페",
    "x": 127.028987,
    "y": 37.495768,
    "page": 1,
    "size": 5,
    "radius": 600,
    "sort": "distance"
  },
  "data": {
    "keyword": "디저트 카페",
    "total_count": 40,
    "places": [
      {
        "name": "브릭샌드 강남역점",
        "latitude": 37.49687174334512,
        "longitude": 127.02815474822921,
        "address": "서울 강남구 역삼동 858",
        "road_address": "",
        "phone": "070-8871-9673",
        "category": "음식점 > 간식 > 제과,베이커리",
        "distance": "142"
      },
      {
        "name": "스타벅스 강남역신분당역사점",
        "latitude": 37.49701321401818,
        "longitude": 127.02810165133745,
        "address": "서울 강남구 역삼동 858",
        "road_address": "",
        "phone": "1522-3232",
        "category": "음식점 > 카페 > 커피전문점 > 스타벅스",
        "distance": "158"
      },
      {
        "name": "셀렉티드닉스",
        "latitude": 37.4962223486255,
        "longitude": 127.030837985875,
        "address": "서울 강남구 역삼동 827-13",
        "road_address": "서울 강남구 테헤란로4길 37",
        "phone": "070-5176-7947",
        "category": "음식점 > 카페",
        "distance": "171"
      },
      {
        "name": "카페볼카 강남역점",
        "latitude": 37.4943011217571,
        "longitude": 127.028360721492,
        "address": "서울 서초구 서초동 1330-20",
        "road_address": "서울 서초구 강남대로53길 7",
        "phone": "02-585-5282",
        "category": "음식점 > 카페 > 커피전문점",
        "distance": "171"
      },
      {
        "name": "에슬로우커피 강남역삼성타운점",
        "latitude": 37.495754779672595,
        "longitude": 127.02693416100256,
        "address": "서울 서초구 서초동 1327",
        "road_address": "서울 서초구 서초대로74길 23",
        "phone": "02-3487-0908",
        "category": "음식점 > 카페 > 커피전문점",
        "distance": "181"
      }
    ]
  }
}