{
  "key": "fe966eb813ac7d502227cb6cdbf30f856be3da33c3d3e770072561090af437e5",
  "tool": "PlaceSearch_kakao",
  "created_at": "2025-12-19T02:56:10.820380",
  "input_params": {
    "keyword": "청량리역",
    "sort": "accuracy"
  },
  "raw_args": {
    "keyword": "청량리역"
  },
  "data": {
    "keyword": "청량리역",
    "total_count": 231,
    "places": [
      {
        "name": "청량리역",
        "latitude": 37.57997010526071,
        "longitude": 127.04773632414528,
        "address": "서울 동대문구 전농동 591-92",
        "road_address": "서울 동대문구 왕산로 214",
        "phone": "1544-7788",
        "category": "교통,수송 > 기차,철도 > 기차역 > KTX정차역",
        "distance": ""
      },
      {
        "name": "청량리역 1호선",
        "latitude": 37.580037056302906,
        "longitude": 127.04472723023305,
        "address": "서울 동대문구 전농동 620-67",
        "road_address": "서울 동대문구 왕산로 지하 205",
        "phone": "1577-1234",
        "category": "교통,수송 > 지하철,전철 > 수도권1호선",
        "distance": ""
      },
      {
        "name": "청량리역 경의중앙선",
        "latitude": 37.580279093795085,
        "longitude": 127.04786558187519,
        "address": "서울 동대문구 전농동 547",
        "road_address": "서울 동대문구 왕산로 214",
        "phone": "1544-7788",
        "category": "교통,수송 > 지하철,전철 > 경의중앙선",
        "distance": ""
      },
      {
        "name": "청량리역 수인분당선",
        "latitude": 37.5808953806814,
        "longitude": 127.047847862522,
        "address": "서울 동대문구 전농동 547",
        "road_address": "서울 동대문구 왕산로 214",
        "phone": "1544-7788",
        "category": "교통,수송 > 지하철,전철 > 수인분당선",
        "distance": ""
      },
      {
        "name": "청량리역 경춘선",
        "latitude": 37.581273475892466,
        "longitude": 127.0486360630067,
        "address": "서울 동대문구 전농동 547",
        "road_address": "서울 동대문구 왕산로 214",
        "phone": "1544-7788",
        "category": "교통,수송 > 지하철,전철 > 경춘선",
        "distance": ""
      },
      {
        "name": "청량리역롯데캐슬SKY-L65아파트",
        "latitude": 37.5787422414806,
        "longitude": 127.04495513706125,
        "address": "서울 동대문구 전농동 620-47",
        "road_address": "서울 동대문구 답십리로 27",
        "phone": "",
        "category": "부동산 > 주거시설 > 아파트",
        "distance": ""
      },
      {
        "name": "청량리역한양수자인그라시엘아파트",
        "latitude": 37.57724554963043,
        "longitude": 127.04291199498817,
        "address": "서울 동대문구 용두동 798",
        "road_address": "서울 동대문구 고산자로32길 78",
        "phone": "",
        "category": "부동산 > 주거시설 > 아파트",
        "distance": ""
      },
      {
        "name": "힐스테이트청량리역오피스텔",
        "latitude": 37.58304049825194,
        "longitude": 127.04821152373233,
        "address": "서울 동대문구 청량리동 235-6",
        "road_address": "서울 동대문구 왕산로 239",
        "phone": "",
        "category": "부동산 > 주거시설 > 오피스텔",
        "distance": ""
      },
      {
        "name": "롯데마트 청량리점",
        "latitude": 37.580304002283405,
        "longitude": 127.04864675346128,
        "address": "서울 동대문구 전농동 588-1",
        "road_address": "서울 동대문구 왕산로 214",
        "phone": "02-3298-2500",
        "category": "가정,생활 > 대형마트 > 롯데마트",
        "distance": ""
      },
      {
        "name": "청량리역해링턴플레이스아파트",
        "latitude": 37.578304485181064,
        "longitude": 127.04216995862815,
        "address": "서울 동대문구 용두동 797",
        "road_address": "서울 동대문구 고산자로34길 70",
        "phone": "",
        "category": "부동산 > 주거시설 > 아파트",
        "distance": ""
      },
      {
        "name": "청량리역롯데캐슬SKY-L65오피스텔",
        "latitude": 37.579827504553414,
        "longitude": 127.0460822314755,
        "address": "서울 동대문구 전농동 620-47",
        "road_address": "서울 동대문구 왕산로 200",
        "phone": "",
        "category": "부동산 > 주거시설 > 오피스텔",
        "distance": ""
      },
      {
        "name": "청량리역광장",
        "latitude": 37.5806543750578,
        "longitude": 127.046697479517,
        "address": "서울 동대문구 전농동 591-53",
        "road_address": "서울 동대문구 왕산로 214",
        "phone": "",
        "category": "여행 > 관광,명소 > 광장",
        "distance": ""
      },
      {
        "name": "청량리역우남SL타워300오피스텔",
        "latitude": 37.5794985369324,
        "longitude": 127.043995573143,
        "address": "서울 동대문구 전농동 620-15",
        "road_address": "서울 동대문구 왕산로 186",
        "phone": "",
        "category": "부동산 > 주거시설 > 오피스텔",
        "distance": ""
      },
      {
        "name": "청량리역환승센터",
        "latitude": 37.5802836203783,
        "longitude": 127.045533439571,
        "address": "서울 동대문구 전농동 620-67",
        "road_address": "",
        "phone": "",
        "category": "교통,수송 > 교통시설 > 고속,시외버스정류장",
        "distance": ""
      },
      {
        "name": "다이소 청량리역점",
        "latitude": 37.5802380078742,
        "longitude": 127.04464810283949,
        "address": "서울 동대문구 청량리동 749",
        "road_address": "서울 동대문구 왕산로 195",
        "phone": "1522-4400",
        "category": "가정,생활 > 생활용품점 > 다이소",
        "distance": ""
      }
    ]
  }
}