{
  "key": "8d9e8a8a86d56df7bb121c5eed1e0590a02780a8ef1d287617ea7022c00b9de1",
  "tool": "CategorySearch_tmap",
  "created_at": "2025-12-14T15:52:30.095336",
  "input_params": {
    "categories": "병원",
    "centerLat": 37.5938315697917,
    "centerLon": 127.052697920723,
    "count": 100,
    "radius": 1
  },
  "raw_args": {
    "categories": "병원",
    "centerLon": 127.052697920723,
    "centerLat": 37.5938315697917,
    "radius": 1,
    "count": 100
  },
  "data": {
    "totalCount": 102,
    "count": 100,
    "page": 1,
    "pois": [
      {
        "name": "경희대학교치과병원",
        "telNo": "029588114",
        "latitude": "37.59414677",
        "longitude": "127.05320787",
        "address": "서울 동대문구 회기동",
        "roadName": "경희대로",
        "buildingNo": "-",
        "radius_km": "0.055",
        "dataKind": "",
        "stId": "",
        "parkFlag": "1",
        "merchantFlag": ""
      },
      {
        "name": "경희대학교치과병원 주차장",
        "telNo": "029588114",
        "latitude": "37.59398012",
        "longitude": "127.05301345",
        "address": "서울 동대문구 회기동",
        "roadName": "경희대로",
        "buildingNo": "-",
        "radius_km": "0.055",
        "dataKind": "",
        "stId": "",
        "parkFlag": "0",
        "merchantFlag": ""
      },
      {
        "name": "후마니타스암병원 1주차장",
        "telNo": "",
        "latitude": "37.59325796",
        "longitude": "127.05190246",
        "address": "서울 동대문구 회기동",
        "roadName": "경희대로",
        "buildingNo": "-",
        "radius_km": "0.078",
        "dataKind": "",
        "stId": "",
        "parkFlag": "0",
        "merchantFlag": ""
      },
      {
        "name": "후마니타스암병원 2주차장",
        "telNo": "",
        "latitude": "37.59339682",
        "longitude": "127.05101365",
        "address": "서울 동대문구 회기동",
        "roadName": "경희대로",
        "buildingNo": "-",
        "radius_km": "0.078",
        "dataKind": "",
        "stId": "",
        "parkFlag": "0",
        "merchantFlag": ""
      },
      {
        "name": "후마니타스암병원",
        "telNo": "",
        "latitude": "37.59356348",
        "longitude": "127.05190245",
        "address": "서울 동대문구 회기동",
        "roadName": "경희대로",
        "buildingNo": "-",
        "radius_km": "0.078",
        "dataKind": "",
        "stId": "",
        "parkFlag": "1",
        "merchantFlag": ""
      },
      {
        "name": "경희의료원",
        "telNo": "029588114",
        "latitude": "37.59409120",
        "longitude": "127.05184689",
        "address": "서울 동대문구 회기동",
        "roadName": "경희대로",
        "buildingNo": "-",
        "radius_km": "0.081",
        "dataKind": "",
        "stId": "",
        "parkFlag": "1",
        "merchantFlag": ""
      },
      {
        "name": "경희의료원 응급실",
        "telNo": "029588282",
        "latitude": "37.59361903",
        "longitude": "127.05179135",
        "address": "서울 동대문구 회기동",
        "roadName": "경희대로",
        "buildingNo": "-",
        "radius_km": "0.085",
        "dataKind": "",
        "stId": "",
        "parkFlag": "0",
        "merchantFlag": ""
      },
      {
        "name": "더봄정신건강의학과의원",
        "telNo": "029626300",
        "latitude": "37.59100825",
        "longitude": "127.05326351",
        "address": "서울 동대문구 회기동",
        "roadName": "회기로",
        "buildingNo": "-",
        "radius_km": "0.319",
        "dataKind": "",
        "stId": "",
        "parkFlag": "0",
        "merchantFlag": ""
      },
      {
        "name": "백동준치과의원",
        "telNo": "029677325",
        "latitude": "37.59098047",
        "longitude": "127.05320796",
        "address": "서울 동대문구 회기동",
        "roadName": "회기로",
        "buildingNo": "-",
        "radius_km": "0.321",
        "dataKind": "",
        "stId": "",
        "parkFlag": "0",
        "merchantFlag": ""
      },
      {
        "name": "서울앤치과의원",
        "telNo": "",
        "latitude": "37.59161935",
        "longitude": "127.05679095",
        "address": "서울 동대문구 이문동",
        "roadName": "이문로",
        "buildingNo": "-",
        "radius_km": "0.436",
        "dataKind": "",
        "stId": "",
        "parkFlag": "0",
        "merchantFlag": ""
      },
      {
        "name": "사랑내과의원",
        "telNo": "029629175",
        "latitude": "37.59045280",
        "longitude": "127.05537445",
        "address": "서울 동대문구 회기동",
        "roadName": "회기로",
        "buildingNo": "-",
        "radius_km": "0.444",
        "dataKind": "",
        "stId": "",
        "parkFlag": "0",
        "merchantFlag": ""
      },
      {
        "name": "경희채움정신건강의학과의원 주차장",
        "telNo": "029681070",
        "latitude": "37.59098052",
        "longitude": "127.05598549",
        "address": "서울 동대문구 회기동",
        "roadName": "이문로",
        "buildingNo": "-",
        "radius_km": "0.452",
        "dataKind": "",
        "stId": "",
        "parkFlag": "0",
        "merchantFlag": ""
      },
      {
        "name": "경희채움정신건강의학과의원",
        "telNo": "029681070",
        "latitude": "37.59081388",
        "longitude": "127.05612437",
        "address": "서울 동대문구 회기동",
        "roadName": "이문로",
        "buildingNo": "-",
        "radius_km": "0.452",
        "dataKind": "",
        "stId": "",
        "parkFlag": "1",
        "merchantFlag": ""
      },
      {
        "name": "제이치과의원",
        "telNo": "029682275",
        "latitude": "37.59078611",
        "longitude": "127.05615215",
        "address": "서울 동대문구 회기동",
        "roadName": "이문로",
        "buildingNo": "-",
        "radius_km": "0.456",
        "dataKind": "",
        "stId": "",
        "parkFlag": "1",
        "merchantFlag": ""
      },
      {
        "name": "제이치과의원 주차장",
        "telNo": "029682275",
        "latitude": "37.59114717",
        "longitude": "127.05615214",
        "address": "서울 동대문구 회기동",
        "roadName": "이문로",
        "buildingNo": "-",
        "radius_km": "0.456",
        "dataKind": "",
        "stId": "",
        "parkFlag": "0",
        "merchantFlag": ""
      },
      {
        "name": "회기센트럴이비인후과의원",
        "telNo": "029607200",
        "latitude": "37.59070278",
        "longitude": "127.05615215",
        "address": "서울 동대문구 회기동",
        "roadName": "이문로",
        "buildingNo": "-",
        "radius_km": "0.462",
        "dataKind": "",
        "stId": "",
        "parkFlag": "1",
        "merchantFlag": ""
      },
      {
        "name": "회기센트럴이비인후과의원 주차장",
        "telNo": "029607200",
        "latitude": "37.59114717",
        "longitude": "127.05615214",
        "address": "서울 동대문구 회기동",
        "roadName": "이문로",
        "buildingNo": "-",
        "radius_km": "0.462",
        "dataKind": "",
        "stId": "",
        "parkFlag": "0",
        "merchantFlag": ""
      },
      {
        "name": "메디홈즈의원",
        "telNo": "029562155",
        "latitude": "37.59042503",
        "longitude": "127.05570775",
        "address": "서울 동대문구 회기동",
        "roadName": "회기로",
        "buildingNo": "-",
        "radius_km": "0.463",
        "dataKind": "",
        "stId": "",
        "parkFlag": "1",
        "merchantFlag": ""
      },
      {
        "name": "부치과의원",
        "telNo": "029656923",
        "latitude": "37.59339695",
        "longitude": "127.05798524",
        "address": "서울 동대문구 이문동",
        "roadName": "이문로",
        "buildingNo": "-",
        "radius_km": "0.467",
        "dataKind": "",
        "stId": "",
        "parkFlag": "0",
        "merchantFlag": ""
      },
      {
        "name": "올치과의원",
        "telNo": "029691705",
        "latitude": "37.59031393",
        "longitude": "127.05590218",
        "address": "서울 동대문구 회기동",
        "roadName": "이문로",
        "buildingNo": "-",
        "radius_km": "0.483",
        "dataKind": "",
        "stId": "",
        "parkFlag": "0",
        "merchantFlag": ""
      },
      {
        "name": "연세오직치과교정과치과의원 주차장",
        "telNo": "024937528",
        "latitude": "37.58986953",
        "longitude": "127.05540224",
        "address": "서울 동대문구 회기동",
        "roadName": "이문로",
        "buildingNo": "-",
        "radius_km": "0.487",
        "dataKind": "",
        "stId": "",
        "parkFlag": "0",
        "merchantFlag": ""
      },
      {
        "name": "연세오직치과교정과치과의원",
        "telNo": "024937528",
        "latitude": "37.58998063",
        "longitude": "127.05531891",
        "address": "서울 동대문구 회기동",
        "roadName": "이문로",
        "buildingNo": "-",
        "radius_km": "0.487",
        "dataKind": "",
        "stId": "",
        "parkFlag": "1",
        "merchantFlag": ""
      },
      {
        "name": "임치과의원",
        "telNo": "029673496",
        "latitude": "37.58995285",
        "longitude": "127.05531891",
        "address": "서울 동대문구 회기동",
        "roadName": "이문로",
        "buildingNo": "-",
        "radius_km": "0.49",
        "dataKind": "",
        "stId": "",
        "parkFlag": "0",
        "merchantFlag": ""
      },
      {
        "name": "고은산부인과의원",
        "telNo": "029602164",
        "latitude": "37.59020284",
        "longitude": "127.05626326",
        "address": "서울 동대문구 휘경동",
        "roadName": "이문로",
        "buildingNo": "-",
        "radius_km": "0.512",
        "dataKind": "",
        "stId": "",
        "parkFlag": "0",
        "merchantFlag": ""
      },
      {
        "name": "보람산부인과의원",
        "telNo": "029656669",
        "latitude": "37.59359138",
        "longitude": "127.05856851",
        "address": "서울 동대문구 이문동",
        "roadName": "이문로",
        "buildingNo": "-",
        "radius_km": "0.517",
        "dataKind": "",
        "stId": "",
        "parkFlag": "1",
        "merchantFlag": ""
      },
      {
        "name": "성신소아과의원",
        "telNo": "029660595",
        "latitude": "37.59009174",
        "longitude": "127.05626327",
        "address": "서울 동대문구 휘경동",
        "roadName": "이문로",
        "buildingNo": "-",
        "radius_km": "0.522",
        "dataKind": "",
        "stId": "",
        "parkFlag": "0",
        "merchantFlag": ""
      },
      {
        "name": "미몽피부과의원",
        "telNo": "029577537",
        "latitude": "37.59006397",
        "longitude": "127.05629104",
        "address": "서울 동대문구 휘경동",
        "roadName": "이문로",
        "buildingNo": "-",
        "radius_km": "0.525",
        "dataKind": "",
        "stId": "",
        "parkFlag": "0",
        "merchantFlag": ""
      },
      {
        "name": "심온치과의원",
        "telNo": "029607528",
        "latitude": "37.59389690",
        "longitude": "127.05887403",
        "address": "서울 동대문구 이문동",
        "roadName": "이문로12길",
        "buildingNo": "-",
        "radius_km": "0.543",
        "dataKind": "",
        "stId": "",
        "parkFlag": "0",
        "merchantFlag": ""
      },
      {
        "name": "서울앤플란트치과의원",
        "telNo": "029647528",
        "latitude": "37.58978623",
        "longitude": "127.05679100",
        "address": "서울 동대문구 휘경동",
        "roadName": "회기로",
        "buildingNo": "-",
        "radius_km": "0.577",
        "dataKind": "",
        "stId": "",
        "parkFlag": "1",
        "merchantFlag": ""
      },
      {
        "name": "서울앤플란트치과의원 주차장",
        "telNo": "029647528",
        "latitude": "37.58970291",
        "longitude": "127.05676323",
        "address": "서울 동대문구 휘경동",
        "roadName": "회기로",
        "buildingNo": "-",
        "radius_km": "0.577",
        "dataKind": "",
        "stId": "",
        "parkFlag": "0",
        "merchantFlag": ""
      },
      {
        "name": "동안비전내과의원",
        "telNo": "029690119",
        "latitude": "37.59464683",
        "longitude": "127.05940174",
        "address": "서울 동대문구 이문동",
        "roadName": "이문로",
        "buildingNo": "-",
        "radius_km": "0.596",
        "dataKind": "",
        "stId": "",
        "parkFlag": "1",
        "merchantFlag": ""
      },
      {
        "name": "동안비전내과의원 주차장",
        "telNo": "029690119",
        "latitude": "37.59478570",
        "longitude": "127.05954061",
        "address": "서울 동대문구 이문동",
        "roadName": "이문로",
        "buildingNo": "-",
        "radius_km": "0.596",
        "dataKind": "",
        "stId": "",
        "parkFlag": "0",
        "merchantFlag": ""
      },
      {
        "name": "아라현치과의원",
        "telNo": "029662877",
        "latitude": "37.59534120",
        "longitude": "127.05967947",
        "address": "서울 동대문구 이문동",
        "roadName": "이문로",
        "buildingNo": "-",
        "radius_km": "0.636",
        "dataKind": "",
        "stId": "",
        "parkFlag": "0",
        "merchantFlag": ""
      },
      {
        "name": "서울현정신건강의학과의원",
        "telNo": "0269495663",
        "latitude": "37.59550785",
        "longitude": "127.05984612",
        "address": "서울 동대문구 이문동",
        "roadName": "이문로",
        "buildingNo": "-",
        "radius_km": "0.655",
        "dataKind": "",
        "stId": "",
        "parkFlag": "1",
        "merchantFlag": ""
      },
      {
        "name": "서울현정신건강의학과의원 주차장",
        "telNo": "0269495663",
        "latitude": "37.59556339",
        "longitude": "127.05976279",
        "address": "서울 동대문구 이문동",
        "roadName": "이문로",
        "buildingNo": "-",
        "radius_km": "0.655",
        "dataKind": "",
        "stId": "",
        "parkFlag": "0",
        "merchantFlag": ""
      },
      {
        "name": "성요한의원",
        "telNo": "",
        "latitude": "37.58811974",
        "longitude": "127.05545784",
        "address": "서울 동대문구 휘경동",
        "roadName": "망우로",
        "buildingNo": "-",
        "radius_km": "0.681",
        "dataKind": "",
        "stId": "",
        "parkFlag": "0",
        "merchantFlag": ""
      },
      {
        "name": "서울아트피부과의원",
        "telNo": "029661357",
        "latitude": "37.59603558",
        "longitude": "127.06062381",
        "address": "서울 동대문구 이문동",
        "roadName": "휘경로",
        "buildingNo": "-",
        "radius_km": "0.739",
        "dataKind": "",
        "stId": "",
        "parkFlag": "1",
        "merchantFlag": ""
      },
      {
        "name": "에이블치과의원",
        "telNo": "0222342222",
        "latitude": "37.59603558",
        "longitude": "127.06062381",
        "address": "서울 동대문구 이문동",
        "roadName": "휘경로",
        "buildingNo": "-",
        "radius_km": "0.739",
        "dataKind": "",
        "stId": "",
        "parkFlag": "0",
        "merchantFlag": ""
      },
      {
        "name": "서울아트피부과의원 주차장",
        "telNo": "029661357",
        "latitude": "37.59611890",
        "longitude": "127.06056826",
        "address": "서울 동대문구 이문동",
        "roadName": "휘경로",
        "buildingNo": "-",
        "radius_km": "0.739",
        "dataKind": "",
        "stId": "",
        "parkFlag": "0",
        "merchantFlag": ""
      },
      {
        "name": "서울저스트치과의원 주차장",
        "telNo": "0222138222",
        "latitude": "37.58878639",
        "longitude": "127.05898528",
        "address": "서울 동대문구 휘경동",
        "roadName": "망우로",
        "buildingNo": "-",
        "radius_km": "0.772",
        "dataKind": "",
        "stId": "",
        "parkFlag": "0",
        "merchantFlag": ""
      },
      {
        "name": "서울저스트치과의원",
        "telNo": "0222138222",
        "latitude": "37.58864751",
        "longitude": "127.05851310",
        "address": "서울 동대문구 휘경동",
        "roadName": "망우로",
        "buildingNo": "-",
        "radius_km": "0.772",
        "dataKind": "",
        "stId": "",
        "parkFlag": "1",
        "merchantFlag": ""
      },
      {
        "name": "미체로의원",
        "telNo": "029623232",
        "latitude": "37.59675772",
        "longitude": "127.06067934",
        "address": "서울 동대문구 이문동",
        "roadName": "이문로",
        "buildingNo": "-",
        "radius_km": "0.773",
        "dataKind": "",
        "stId": "",
        "parkFlag": "0",
        "merchantFlag": ""
      },
      {
        "name": "루트재활의학과의원",
        "telNo": "0222467744",
        "latitude": "37.58875861",
        "longitude": "127.05884640",
        "address": "서울 동대문구 휘경동",
        "roadName": "망우로",
        "buildingNo": "-",
        "radius_km": "0.782",
        "dataKind": "",
        "stId": "",
        "parkFlag": "1",
        "merchantFlag": ""
      },
      {
        "name": "루트재활의학과의원 주차장",
        "telNo": "0222467744",
        "latitude": "37.58878639",
        "longitude": "127.05898528",
        "address": "서울 동대문구 휘경동",
        "roadName": "망우로",
        "buildingNo": "-",
        "radius_km": "0.782",
        "dataKind": "",
        "stId": "",
        "parkFlag": "0",
        "merchantFlag": ""
      },
      {
        "name": "도연정신건강의학과의원",
        "telNo": "0222428992",
        "latitude": "37.58900859",
        "longitude": "127.05920747",
        "address": "서울 동대문구 휘경동",
        "roadName": "망우로12길",
        "buildingNo": "-",
        "radius_km": "0.785",
        "dataKind": "",
        "stId": "",
        "parkFlag": "1",
        "merchantFlag": ""
      },
      {
        "name": "도연정신건강의학과의원 주차장",
        "telNo": "0222428992",
        "latitude": "37.58903637",
        "longitude": "127.05940190",
        "address": "서울 동대문구 휘경동",
        "roadName": "망우로12길",
        "buildingNo": "-",
        "radius_km": "0.785",
        "dataKind": "",
        "stId": "",
        "parkFlag": "0",
        "merchantFlag": ""
      },
      {
        "name": "외대이문바른정형외과의원",
        "telNo": "0266737773",
        "latitude": "37.59573007",
        "longitude": "127.06137375",
        "address": "서울 동대문구 이문동",
        "roadName": "휘경로",
        "buildingNo": "-",
        "radius_km": "0.792",
        "dataKind": "",
        "stId": "",
        "parkFlag": "1",
        "merchantFlag": ""
      },
      {
        "name": "서울프라임치과의원",
        "telNo": "029602857",
        "latitude": "37.59575784",
        "longitude": "127.06140153",
        "address": "서울 동대문구 이문동",
        "roadName": "휘경로",
        "buildingNo": "-",
        "radius_km": "0.795",
        "dataKind": "",
        "stId": "",
        "parkFlag": "0",
        "merchantFlag": ""
      },
      {
        "name": "윤명진윤나리내과의원",
        "telNo": "029603577",
        "latitude": "37.59647998",
        "longitude": "127.06120708",
        "address": "서울 동대문구 이문동",
        "roadName": "이문로30길",
        "buildingNo": "-",
        "radius_km": "0.804",
        "dataKind": "",
        "stId": "",
        "parkFlag": "0",
        "merchantFlag": ""
      },
      {
        "name": "보인내과의원",
        "telNo": "029660242",
        "latitude": "37.59742430",
        "longitude": "127.06065155",
        "address": "서울 동대문구 이문동",
        "roadName": "이문로",
        "buildingNo": "-",
        "radius_km": "0.805",
        "dataKind": "",
        "stId": "",
        "parkFlag": "0",
        "merchantFlag": ""
      },
      {
        "name": "서울석치과의원",
        "telNo": "029637522",
        "latitude": "37.59742430",
        "longitude": "127.06067932",
        "address": "서울 동대문구 이문동",
        "roadName": "이문로",
        "buildingNo": "-",
        "radius_km": "0.807",
        "dataKind": "",
        "stId": "",
        "parkFlag": "1",
        "merchantFlag": ""
      },
      {
        "name": "신현준&신은혜치과의원",
        "telNo": "029629056",
        "latitude": "37.58992517",
        "longitude": "127.06059621",
        "address": "서울 동대문구 휘경동",
        "roadName": "망우로",
        "buildingNo": "-",
        "radius_km": "0.82",
        "dataKind": "",
        "stId": "",
        "parkFlag": "0",
        "merchantFlag": ""
      },
      {
        "name": "이데아치과의원",
        "telNo": "029602275",
        "latitude": "37.59600782",
        "longitude": "127.06162372",
        "address": "서울 동대문구 이문동",
        "roadName": "휘경로",
        "buildingNo": "-",
        "radius_km": "0.822",
        "dataKind": "",
        "stId": "",
        "parkFlag": "1",
        "merchantFlag": ""
      },
      {
        "name": "이데아치과의원 주차장",
        "telNo": "029602275",
        "latitude": "37.59617447",
        "longitude": "127.06181814",
        "address": "서울 동대문구 이문동",
        "roadName": "휘경로",
        "buildingNo": "-",
        "radius_km": "0.822",
        "dataKind": "",
        "stId": "",
        "parkFlag": "0",
        "merchantFlag": ""
      },
      {
        "name": "최치과의원",
        "telNo": "029695282",
        "latitude": "37.58734192",
        "longitude": "127.04820852",
        "address": "서울 동대문구 청량리동",
        "roadName": "제기로",
        "buildingNo": "-",
        "radius_km": "0.825",
        "dataKind": "",
        "stId": "",
        "parkFlag": "0",
        "merchantFlag": ""
      },
      {
        "name": "밝은봄정신건강의학과의원 주차장",
        "telNo": "0232953058",
        "latitude": "37.59617447",
        "longitude": "127.06184592",
        "address": "서울 동대문구 이문동",
        "roadName": "휘경로",
        "buildingNo": "-",
        "radius_km": "0.825",
        "dataKind": "",
        "stId": "",
        "parkFlag": "0",
        "merchantFlag": ""
      },
      {
        "name": "밝은봄정신건강의학과의원",
        "telNo": "0232953058",
        "latitude": "37.59598005",
        "longitude": "127.06167927",
        "address": "서울 동대문구 이문동",
        "roadName": "휘경로",
        "buildingNo": "-",
        "radius_km": "0.825",
        "dataKind": "",
        "stId": "",
        "parkFlag": "1",
        "merchantFlag": ""
      },
      {
        "name": "더열린이비인후과의원",
        "telNo": "029637580",
        "latitude": "37.59600782",
        "longitude": "127.06167927",
        "address": "서울 동대문구 이문동",
        "roadName": "휘경로",
        "buildingNo": "-",
        "radius_km": "0.826",
        "dataKind": "",
        "stId": "",
        "parkFlag": "1",
        "merchantFlag": ""
      },
      {
        "name": "더열린이비인후과의원 주차장",
        "telNo": "029637580",
        "latitude": "37.59620224",
        "longitude": "127.06181814",
        "address": "서울 동대문구 이문동",
        "roadName": "휘경로",
        "buildingNo": "-",
        "radius_km": "0.826",
        "dataKind": "",
        "stId": "",
        "parkFlag": "0",
        "merchantFlag": ""
      },
      {
        "name": "바로핀재활의학과의원",
        "telNo": "029618582",
        "latitude": "37.59600782",
        "longitude": "127.06173482",
        "address": "서울 동대문구 이문동",
        "roadName": "휘경로",
        "buildingNo": "-",
        "radius_km": "0.831",
        "dataKind": "",
        "stId": "",
        "parkFlag": "0",
        "merchantFlag": ""
      },
      {
        "name": "빛서울성모안과의원 주차장",
        "telNo": "029633052",
        "latitude": "37.59620224",
        "longitude": "127.06179037",
        "address": "서울 동대문구 이문동",
        "roadName": "휘경로",
        "buildingNo": "-",
        "radius_km": "0.831",
        "dataKind": "",
        "stId": "",
        "parkFlag": "0",
        "merchantFlag": ""
      },
      {
        "name": "빛서울성모안과의원",
        "telNo": "029633052",
        "latitude": "37.59600782",
        "longitude": "127.06173482",
        "address": "서울 동대문구 이문동",
        "roadName": "휘경로",
        "buildingNo": "-",
        "radius_km": "0.831",
        "dataKind": "",
        "stId": "",
        "parkFlag": "1",
        "merchantFlag": ""
      },
      {
        "name": "정이비인후과의원 주차장",
        "telNo": "0232954031",
        "latitude": "37.59606338",
        "longitude": "127.06206812",
        "address": "서울 동대문구 이문동",
        "roadName": "휘경로",
        "buildingNo": "-",
        "radius_km": "0.839",
        "dataKind": "",
        "stId": "",
        "parkFlag": "0",
        "merchantFlag": ""
      },
      {
        "name": "정이비인후과의원",
        "telNo": "0232954031",
        "latitude": "37.59589673",
        "longitude": "127.06187370",
        "address": "서울 동대문구 이문동",
        "roadName": "휘경로",
        "buildingNo": "-",
        "radius_km": "0.839",
        "dataKind": "",
        "stId": "",
        "parkFlag": "1",
        "merchantFlag": ""
      },
      {
        "name": "삼성편한내과의원",
        "telNo": "029633579",
        "latitude": "37.59589673",
        "longitude": "127.06195703",
        "address": "서울 동대문구 이문동",
        "roadName": "휘경로",
        "buildingNo": "-",
        "radius_km": "0.846",
        "dataKind": "",
        "stId": "",
        "parkFlag": "0",
        "merchantFlag": ""
      },
      {
        "name": "원플란트치과의원",
        "telNo": "029632875",
        "latitude": "37.59589673",
        "longitude": "127.06195703",
        "address": "서울 동대문구 이문동",
        "roadName": "휘경로",
        "buildingNo": "-",
        "radius_km": "0.846",
        "dataKind": "",
        "stId": "",
        "parkFlag": "1",
        "merchantFlag": ""
      },
      {
        "name": "원플란트치과의원 주차장",
        "telNo": "029632875",
        "latitude": "37.59606338",
        "longitude": "127.06206812",
        "address": "서울 동대문구 이문동",
        "roadName": "휘경로",
        "buildingNo": "-",
        "radius_km": "0.846",
        "dataKind": "",
        "stId": "",
        "parkFlag": "0",
        "merchantFlag": ""
      },
      {
        "name": "NYU이문치과의원",
        "telNo": "029683208",
        "latitude": "37.59786870",
        "longitude": "127.06087374",
        "address": "서울 동대문구 이문동",
        "roadName": "이문로",
        "buildingNo": "-",
        "radius_km": "0.847",
        "dataKind": "",
        "stId": "",
        "parkFlag": "0",
        "merchantFlag": ""
      },
      {
        "name": "수비뇨기과의원",
        "telNo": "029637533",
        "latitude": "37.59786870",
        "longitude": "127.06087374",
        "address": "서울 동대문구 이문동",
        "roadName": "이문로",
        "buildingNo": "-",
        "radius_km": "0.847",
        "dataKind": "",
        "stId": "",
        "parkFlag": "0",
        "merchantFlag": ""
      },
      {
        "name": "밝은성모안과의원",
        "telNo": "029651515",
        "latitude": "37.59786870",
        "longitude": "127.06087374",
        "address": "서울 동대문구 이문동",
        "roadName": "이문로",
        "buildingNo": "-",
        "radius_km": "0.847",
        "dataKind": "",
        "stId": "",
        "parkFlag": "0",
        "merchantFlag": ""
      },
      {
        "name": "고치과의원",
        "telNo": "029651887",
        "latitude": "37.59536902",
        "longitude": "127.06220702",
        "address": "서울 동대문구 이문동",
        "roadName": "휘경로",
        "buildingNo": "-",
        "radius_km": "0.854",
        "dataKind": "",
        "stId": "",
        "parkFlag": "0",
        "merchantFlag": ""
      },
      {
        "name": "캘리포니아치과의원",
        "telNo": "029602879",
        "latitude": "37.58614765",
        "longitude": "127.05037503",
        "address": "서울 동대문구 청량리동",
        "roadName": "제기로",
        "buildingNo": "-",
        "radius_km": "0.88",
        "dataKind": "",
        "stId": "",
        "parkFlag": "0",
        "merchantFlag": ""
      },
      {
        "name": "이문연합의원",
        "telNo": "029688575",
        "latitude": "37.59578564",
        "longitude": "127.06240143",
        "address": "서울 동대문구 이문동",
        "roadName": "휘경로3길",
        "buildingNo": "-",
        "radius_km": "0.881",
        "dataKind": "",
        "stId": "",
        "parkFlag": "0",
        "merchantFlag": ""
      },
      {
        "name": "미소진의원",
        "telNo": "029630901",
        "latitude": "37.59578564",
        "longitude": "127.06242921",
        "address": "서울 동대문구 이문동",
        "roadName": "휘경로3길",
        "buildingNo": "-",
        "radius_km": "0.883",
        "dataKind": "",
        "stId": "",
        "parkFlag": "0",
        "merchantFlag": ""
      },
      {
        "name": "빛치과의원",
        "telNo": "029570811",
        "latitude": "37.59578564",
        "longitude": "127.06242921",
        "address": "서울 동대문구 이문동",
        "roadName": "휘경로3길",
        "buildingNo": "-",
        "radius_km": "0.883",
        "dataKind": "",
        "stId": "",
        "parkFlag": "0",
        "merchantFlag": ""
      },
      {
        "name": "서울이안치과의원",
        "telNo": "029572752",
        "latitude": "37.59550789",
        "longitude": "127.06256809",
        "address": "서울 동대문구 이문동",
        "roadName": "휘경로",
        "buildingNo": "-",
        "radius_km": "0.888",
        "dataKind": "",
        "stId": "",
        "parkFlag": "0",
        "merchantFlag": ""
      },
      {
        "name": "365휘경사랑의원",
        "telNo": "",
        "latitude": "37.59017517",
        "longitude": "127.06176276",
        "address": "서울 동대문구 휘경동",
        "roadName": "망우로",
        "buildingNo": "-",
        "radius_km": "0.896",
        "dataKind": "",
        "stId": "",
        "parkFlag": "0",
        "merchantFlag": ""
      },
      {
        "name": "최일규정형외과의원",
        "telNo": "029598312",
        "latitude": "37.59795203",
        "longitude": "127.06145701",
        "address": "서울 동대문구 이문동",
        "roadName": "이문로",
        "buildingNo": "-",
        "radius_km": "0.896",
        "dataKind": "",
        "stId": "",
        "parkFlag": "0",
        "merchantFlag": ""
      },
      {
        "name": "보스톤튼튼치과의원",
        "telNo": "0233947975",
        "latitude": "37.58961967",
        "longitude": "127.06137393",
        "address": "서울 동대문구 휘경동",
        "roadName": "망우로",
        "buildingNo": "-",
        "radius_km": "0.896",
        "dataKind": "",
        "stId": "",
        "parkFlag": "1",
        "merchantFlag": ""
      },
      {
        "name": "유진여성의원",
        "telNo": "029664263",
        "latitude": "37.59831310",
        "longitude": "127.06120703",
        "address": "서울 동대문구 이문동",
        "roadName": "이문로",
        "buildingNo": "-",
        "radius_km": "0.899",
        "dataKind": "",
        "stId": "",
        "parkFlag": "0",
        "merchantFlag": ""
      },
      {
        "name": "연세치과의원",
        "telNo": "0222457260",
        "latitude": "37.58973077",
        "longitude": "127.06165167",
        "address": "서울 동대문구 휘경동",
        "roadName": "망우로",
        "buildingNo": "-",
        "radius_km": "0.911",
        "dataKind": "",
        "stId": "",
        "parkFlag": "0",
        "merchantFlag": ""
      },
      {
        "name": "방이비인후과의원",
        "telNo": "029640133",
        "latitude": "37.59864639",
        "longitude": "127.06123479",
        "address": "서울 동대문구 이문동",
        "roadName": "이문로",
        "buildingNo": "-",
        "radius_km": "0.922",
        "dataKind": "",
        "stId": "",
        "parkFlag": "1",
        "merchantFlag": ""
      },
      {
        "name": "최묘경의원",
        "telNo": "0222135197",
        "latitude": "37.58914750",
        "longitude": "127.06134616",
        "address": "서울 동대문구 휘경동",
        "roadName": "망우로16길",
        "buildingNo": "-",
        "radius_km": "0.923",
        "dataKind": "",
        "stId": "",
        "parkFlag": "0",
        "merchantFlag": ""
      },
      {
        "name": "신재호내과의원",
        "telNo": "029686906",
        "latitude": "37.59861862",
        "longitude": "127.06129034",
        "address": "서울 동대문구 이문동",
        "roadName": "이문로",
        "buildingNo": "-",
        "radius_km": "0.924",
        "dataKind": "",
        "stId": "",
        "parkFlag": "1",
        "merchantFlag": ""
      },
      {
        "name": "신재호내과의원 주차장",
        "telNo": "029686906",
        "latitude": "37.59856307",
        "longitude": "127.06140145",
        "address": "서울 동대문구 이문동",
        "roadName": "이문로",
        "buildingNo": "-",
        "radius_km": "0.924",
        "dataKind": "",
        "stId": "",
        "parkFlag": "0",
        "merchantFlag": ""
      },
      {
        "name": "굿모닝치과의원",
        "telNo": "0222142875",
        "latitude": "37.58981410",
        "longitude": "127.06201275",
        "address": "서울 동대문구 휘경동",
        "roadName": "망우로",
        "buildingNo": "-",
        "radius_km": "0.934",
        "dataKind": "",
        "stId": "",
        "parkFlag": "0",
        "merchantFlag": ""
      },
      {
        "name": "최내과",
        "telNo": "",
        "latitude": "37.59053625",
        "longitude": "127.06259601",
        "address": "서울 동대문구 휘경동",
        "roadName": "망우로21길",
        "buildingNo": "-",
        "radius_km": "0.946",
        "dataKind": "",
        "stId": "",
        "parkFlag": "0",
        "merchantFlag": ""
      },
      {
        "name": "아이키소아청소년과의원 이문점",
        "telNo": "0269512205",
        "latitude": "37.59920188",
        "longitude": "127.06106813",
        "address": "서울 동대문구 이문동",
        "roadName": "이문로35길",
        "buildingNo": "-",
        "radius_km": "0.947",
        "dataKind": "",
        "stId": "",
        "parkFlag": "1",
        "merchantFlag": ""
      },
      {
        "name": "아이키소아청소년과의원 이문점 주차장",
        "telNo": "0269512205",
        "latitude": "37.59864636",
        "longitude": "127.05904055",
        "address": "서울 동대문구 이문동",
        "roadName": "이문로35길",
        "buildingNo": "-",
        "radius_km": "0.947",
        "dataKind": "",
        "stId": "",
        "parkFlag": "0",
        "merchantFlag": ""
      },
      {
        "name": "허내과의원",
        "telNo": "029590011",
        "latitude": "37.59847976",
        "longitude": "127.06187363",
        "address": "서울 동대문구 이문동",
        "roadName": "이문로",
        "buildingNo": "-",
        "radius_km": "0.958",
        "dataKind": "",
        "stId": "",
        "parkFlag": "0",
        "merchantFlag": ""
      },
      {
        "name": "라이프치과의원",
        "telNo": "029636630",
        "latitude": "37.59847976",
        "longitude": "127.06187363",
        "address": "서울 동대문구 이문동",
        "roadName": "이문로",
        "buildingNo": "-",
        "radius_km": "0.958",
        "dataKind": "",
        "stId": "",
        "parkFlag": "1",
        "merchantFlag": ""
      },
      {
        "name": "라이프치과의원 주차장",
        "telNo": "029636630",
        "latitude": "37.59884083",
        "longitude": "127.06209582",
        "address": "서울 동대문구 이문동",
        "roadName": "이문로",
        "buildingNo": "-",
        "radius_km": "0.958",
        "dataKind": "",
        "stId": "",
        "parkFlag": "0",
        "merchantFlag": ""
      },
      {
        "name": "순풍산부인과의원",
        "telNo": "029639988",
        "latitude": "37.59473022",
        "longitude": "127.06354025",
        "address": "서울 동대문구 휘경동",
        "roadName": "휘경로",
        "buildingNo": "-",
        "radius_km": "0.959",
        "dataKind": "",
        "stId": "",
        "parkFlag": "0",
        "merchantFlag": ""
      },
      {
        "name": "라임소아청소년과의원",
        "telNo": "0263388275",
        "latitude": "37.59856308",
        "longitude": "127.06184585",
        "address": "서울 동대문구 이문동",
        "roadName": "이문로",
        "buildingNo": "-",
        "radius_km": "0.961",
        "dataKind": "",
        "stId": "",
        "parkFlag": "1",
        "merchantFlag": ""
      },
      {
        "name": "라임소아청소년과의원 주차장",
        "telNo": "0263388275",
        "latitude": "37.59878528",
        "longitude": "127.06217915",
        "address": "서울 동대문구 이문동",
        "roadName": "이문로",
        "buildingNo": "-",
        "radius_km": "0.961",
        "dataKind": "",
        "stId": "",
        "parkFlag": "0",
        "merchantFlag": ""
      },
      {
        "name": "김표한정신건강의학과의원",
        "telNo": "0222122040",
        "latitude": "37.59059181",
        "longitude": "127.06295709",
        "address": "서울 동대문구 휘경동",
        "roadName": "망우로21길",
        "buildingNo": "-",
        "radius_km": "0.973",
        "dataKind": "",
        "stId": "",
        "parkFlag": "1",
        "merchantFlag": ""
      },
      {
        "name": "김표한정신건강의학과의원 주차장",
        "telNo": "0222122040",
        "latitude": "37.59059181",
        "longitude": "127.06309596",
        "address": "서울 동대문구 휘경동",
        "roadName": "망우로21길",
        "buildingNo": "-",
        "radius_km": "0.973",
        "dataKind": "",
        "stId": "",
        "parkFlag": "0",
        "merchantFlag": ""
      },
      {
        "name": "김표한신경정신과의원",
        "telNo": "0222122040",
        "latitude": "37.59061958",
        "longitude": "127.06298486",
        "address": "서울 동대문구 휘경동",
        "roadName": "망우로21길",
        "buildingNo": "-",
        "radius_km": "0.974",
        "dataKind": "",
        "stId": "",
        "parkFlag": "0",
        "merchantFlag": ""
      },
      {
        "name": "한국정형외과의원",
        "telNo": "0222484992",
        "latitude": "37.59064736",
        "longitude": "127.06301264",
        "address": "서울 동대문구 휘경동",
        "roadName": "망우로21길",
        "buildingNo": "-",
        "radius_km": "0.975",
        "dataKind": "",
        "stId": "",
        "parkFlag": "1",
        "merchantFlag": ""
      },
      {
        "name": "예쁜얼굴치과의원",
        "telNo": "025162275",
        "latitude": "37.59009186",
        "longitude": "127.06279045",
        "address": "서울 동대문구 휘경동",
        "roadName": "망우로",
        "buildingNo": "-",
        "radius_km": "0.981",
        "dataKind": "",
        "stId": "",
        "parkFlag": "0",
        "merchantFlag": ""
      }
    ]
  }
}