{
  "key": "449eff0a038b43f02ea6591d2e4f596780cbdd9ae4b7970e10e07b1cd8426340",
  "tool": "PlaceSearch_kakao",
  "created_at": "2025-10-27T16:46:57.826118",
  "input_params": {
    "keyword": "대학교",
    "radius": 5000,
    "size": 10,
    "sort": "accuracy",
    "x": 126.965,
    "y": 37.6015
  },
  "raw_args": {
    "size": 10,
    "x": 126.965,
    "y": 37.6015,
    "keyword": "대학교",
    "radius": 5000
  },
  "data": {
    "keyword": "대학교",
    "total_count": 1373,
    "places": [
      {
        "name": "상명대학교 서울캠퍼스",
        "latitude": 37.6023222243288,
        "longitude": 126.955350026719,
        "address": "서울 종로구 홍지동 7-1",
        "road_address": "서울 종로구 홍지문2길 20",
        "phone": "02-2287-5114",
        "category": "교육,학문 > 학교 > 대학교",
        "distance": "856"
      },
      {
        "name": "성균관대학교 인문사회과학캠퍼스",
        "latitude": 37.58831649367718,
        "longitude": 126.99396747284503,
        "address": "서울 종로구 명륜3가 53-21",
        "road_address": "서울 종로구 성균관로 25-2",
        "phone": "02-760-0114",
        "category": "교육,학문 > 학교 > 대학교",
        "distance": "2947"
      },
      {
        "name": "국민대학교",
        "latitude": 37.6107638961532,
        "longitude": 126.996969239236,
        "address": "서울 성북구 정릉동 861-1",
        "road_address": "서울 성북구 정릉로 77",
        "phone": "02-910-4114",
        "category": "교육,학문 > 학교 > 대학교",
        "distance": "3004"
      },
      {
        "name": "경기대학교 서울캠퍼스",
        "latitude": 37.5651964618968,
        "longitude": 126.962122732909,
        "address": "서울 서대문구 충정로2가 67-13",
        "road_address": "서울 서대문구 경기대로9길 24",
        "phone": "02-390-5114",
        "category": "교육,학문 > 학교 > 대학교",
        "distance": "4037"
      },
      {
        "name": "태재대학교",
        "latitude": 37.5835930655227,
        "longitude": 126.988327435237,
        "address": "서울 종로구 원서동 9-4",
        "road_address": "서울 종로구 창덕궁5길 22-8",
        "phone": "",
        "category": "교육,학문 > 학교 > 대학교",
        "distance": "2862"
      },
      {
        "name": "가톨릭대학교 성신교정",
        "latitude": 37.586336176926416,
        "longitude": 127.0045786211564,
        "address": "서울 종로구 혜화동 90-1",
        "road_address": "서울 종로구 창경궁로 296-12",
        "phone": "02-740-9714",
        "category": "교육,학문 > 학교 > 대학교",
        "distance": "3879"
      },
      {
        "name": "명지대학교 인문캠퍼스",
        "latitude": 37.580234738358605,
        "longitude": 126.92282415743652,
        "address": "서울 서대문구 남가좌동 50-3",
        "road_address": "서울 서대문구 거북골로 34",
        "phone": "1577-0020",
        "category": "교육,학문 > 학교 > 대학교",
        "distance": "4409"
      },
      {
        "name": "한국방송통신대학교 대학본부",
        "latitude": 37.5792472133724,
        "longitude": 127.002907216688,
        "address": "서울 종로구 동숭동 169-1",
        "road_address": "서울 종로구 대학로 86",
        "phone": "1577-2853",
        "category": "교육,학문 > 학교 > 대학교",
        "distance": "4160"
      },
      {
        "name": "서경대학교",
        "latitude": 37.61537353959452,
        "longitude": 127.01335157441319,
        "address": "서울 성북구 정릉동 산 16-1",
        "road_address": "서울 성북구 서경로 124",
        "phone": "02-940-7114",
        "category": "교육,학문 > 학교 > 대학교",
        "distance": "4538"
      },
      {
        "name": "감리교신학대학교",
        "latitude": 37.56712464691834,
        "longitude": 126.96229041120145,
        "address": "서울 서대문구 냉천동 31",
        "road_address": "서울 서대문구 독립문로 56",
        "phone": "02-361-9114",
        "category": "교육,학문 > 학교 > 대학교",
        "distance": "3822"
      }
    ]
  }
}