{
  "key": "77449e7f04ed255526d5a6d03c419724df50417642f8281d19ee535e224ffc84",
  "tool": "PlaceSearch_kakao",
  "created_at": "2025-10-27T09:05:36.180633",
  "input_params": {
    "keyword": "주차장",
    "radius": 1000,
    "sort": "accuracy",
    "x": 127.0988,
    "y": 37.4975
  },
  "raw_args": {
    "keyword": "주차장",
    "x": 127.0988,
    "y": 37.4975,
    "radius": 1000,
    "sort": "accuracy"
  },
  "data": {
    "keyword": "주차장",
    "total_count": 42,
    "places": [
      {
        "name": "삼전동공영주차장",
        "latitude": 37.5002663474122,
        "longitude": 127.095846044679,
        "address": "서울 송파구 삼전동 175-8",
        "road_address": "서울 송파구 백제고분로32길 25-17",
        "phone": "02-412-1532",
        "category": "교통,수송 > 교통시설 > 주차장 > 공영주차장",
        "distance": "403"
      },
      {
        "name": "금송빌딩주차장",
        "latitude": 37.4978145719989,
        "longitude": 127.097118524294,
        "address": "서울 송파구 석촌동 221",
        "road_address": "서울 송파구 가락로 2",
        "phone": "",
        "category": "교통,수송 > 교통시설 > 주차장",
        "distance": "152"
      },
      {
        "name": "송파책박물관 주차장",
        "latitude": 37.4986675810014,
        "longitude": 127.103763523543,
        "address": "서울 송파구 가락동 910",
        "road_address": "",
        "phone": "",
        "category": "교통,수송 > 교통시설 > 주차장",
        "distance": "457"
      },
      {
        "name": "석촌고분공영주차장",
        "latitude": 37.5009993018516,
        "longitude": 127.102826963266,
        "address": "서울 송파구 석촌동 248",
        "road_address": "서울 송파구 가락로7길 21",
        "phone": "",
        "category": "교통,수송 > 교통시설 > 주차장 > 공영주차장",
        "distance": "526"
      },
      {
        "name": "공익빌딩 주차장",
        "latitude": 37.50202295798945,
        "longitude": 127.09737617151114,
        "address": "서울 송파구 석촌동 210-1",
        "road_address": "",
        "phone": "",
        "category": "교통,수송 > 교통시설 > 주차장",
        "distance": "517"
      },
      {
        "name": "삼전근린공원 공영주차장",
        "latitude": 37.50261392449731,
        "longitude": 127.09301944556081,
        "address": "서울 송파구 삼전동 62-1",
        "road_address": "서울 송파구 백제고분로 240",
        "phone": "",
        "category": "교통,수송 > 교통시설 > 주차장 > 공영주차장",
        "distance": "763"
      },
      {
        "name": "가락 농수산물종합도매시장 19주차장",
        "latitude": 37.4938146321964,
        "longitude": 127.104929451442,
        "address": "서울 송파구 가락동 600",
        "road_address": "서울 송파구 양재대로 932",
        "phone": "",
        "category": "교통,수송 > 교통시설 > 주차장",
        "distance": "678"
      },
      {
        "name": "주은감자탕 주차장",
        "latitude": 37.5036803077196,
        "longitude": 127.096888622066,
        "address": "서울 송파구 삼전동 132-14",
        "road_address": "",
        "phone": "",
        "category": "교통,수송 > 교통시설 > 주차장",
        "distance": "706"
      },
      {
        "name": "엄마손쇼핑 주차장",
        "latitude": 37.5013896190812,
        "longitude": 127.107679131054,
        "address": "서울 송파구 석촌동 277-3",
        "road_address": "서울 송파구 가락로 103",
        "phone": "",
        "category": "교통,수송 > 교통시설 > 주차장",
        "distance": "896"
      },
      {
        "name": "SNH타워 주차장",
        "latitude": 37.500317222251,
        "longitude": 127.103877765405,
        "address": "서울 송파구 석촌동 256",
        "road_address": "",
        "phone": "",
        "category": "교통,수송 > 교통시설 > 주차장",
        "distance": "547"
      },
      {
        "name": "현인기획",
        "latitude": 37.4987299078336,
        "longitude": 127.092740955326,
        "address": "서울 송파구 삼전동 69-24",
        "road_address": "서울 송파구 삼학사로1길 38",
        "phone": "",
        "category": "교통,수송 > 교통시설 > 주차장",
        "distance": "552"
      },
      {
        "name": "군산오징어 잠실본점 전용주차장",
        "latitude": 37.50514455998159,
        "longitude": 127.09674348779167,
        "address": "서울 송파구 삼전동 131-7",
        "road_address": "",
        "phone": "",
        "category": "교통,수송 > 교통시설 > 주차장",
        "distance": "867"
      },
      {
        "name": "아마노 빌라드그리움 석촌 주차장",
        "latitude": 37.5002638389576,
        "longitude": 127.104132143886,
        "address": "서울 송파구 석촌동 256",
        "road_address": "서울 송파구 가락로 71",
        "phone": "",
        "category": "교통,수송 > 교통시설 > 주차장",
        "distance": "562"
      },
      {
        "name": "썬파킹",
        "latitude": 37.5048908498012,
        "longitude": 127.100611076252,
        "address": "서울 송파구 석촌동 56-15",
        "road_address": "서울 송파구 석촌호수로18길 20-16",
        "phone": "",
        "category": "교통,수송 > 교통시설 > 주차장",
        "distance": "835"
      },
      {
        "name": "배명빌딩 주차장",
        "latitude": 37.5028266334468,
        "longitude": 127.0974020959,
        "address": "서울 송파구 석촌동 14-7",
        "road_address": "서울 송파구 백제고분로 275",
        "phone": "",
        "category": "교통,수송 > 교통시설 > 주차장",
        "distance": "604"
      }
    ]
  }
}