{
  "key": "a35aa6c1d1a86f015629e980655677c46298d08027b6a5b2724c1136c27217d6",
  "tool": "PlaceSearch_kakao",
  "created_at": "2025-10-21T02:39:12.200225",
  "input_params": {
    "keyword": "오이도역 카페",
    "sort": "accuracy"
  },
  "raw_args": {
    "keyword": "오이도역 카페"
  },
  "data": {
    "keyword": "오이도역 카페",
    "total_count": 297,
    "places": [
      {
        "name": "카페적정온도",
        "latitude": 37.3615247263337,
        "longitude": 126.734153041999,
        "address": "경기 시흥시 정왕동 1877-5",
        "road_address": "경기 시흥시 함송로 61",
        "phone": "0504-2543-9820",
        "category": "음식점 > 카페 > 테마카페 > 무인카페",
        "distance": ""
      },
      {
        "name": "나우커피 시흥오이도역점",
        "latitude": 37.3627695477833,
        "longitude": 126.736796886831,
        "address": "경기 시흥시 정왕동 1877-3",
        "road_address": "경기 시흥시 역전로 427",
        "phone": "",
        "category": "음식점 > 카페",
        "distance": ""
      },
      {
        "name": "고망고 시흥정왕점",
        "latitude": 37.36320429934339,
        "longitude": 126.73059692510522,
        "address": "경기 시흥시 정왕동 1882-4",
        "road_address": "경기 시흥시 함송로 24",
        "phone": "",
        "category": "음식점 > 카페 > 생과일전문점 > 고망고",
        "distance": ""
      },
      {
        "name": "우지커피 시흥함송점",
        "latitude": 37.36393335899992,
        "longitude": 126.73025905093428,
        "address": "경기 시흥시 정왕동 1881-11",
        "road_address": "경기 시흥시 함송로 15",
        "phone": "031-432-0624",
        "category": "음식점 > 카페 > 커피전문점 > 우지커피",
        "distance": ""
      },
      {
        "name": "엔그리고",
        "latitude": 37.36069089166835,
        "longitude": 126.73398101944865,
        "address": "경기 시흥시 정왕동 1874-1",
        "road_address": "경기 시흥시 옥구천동로 456",
        "phone": "010-7785-9565",
        "category": "음식점 > 카페 > 테마카페 > 디저트카페",
        "distance": ""
      },
      {
        "name": "커피에반하다 시흥함송로점",
        "latitude": 37.36357854844455,
        "longitude": 126.72994876047584,
        "address": "경기 시흥시 정왕동 1882-2",
        "road_address": "경기 시흥시 함송로 18",
        "phone": "031-488-9772",
        "category": "음식점 > 카페 > 커피전문점 > 커피에반하다",
        "distance": ""
      },
      {
        "name": "메가MGC커피 시흥함송점",
        "latitude": 37.363746673001444,
        "longitude": 126.73057805344703,
        "address": "경기 시흥시 정왕동 1881-9",
        "road_address": "경기 시흥시 함송로 21",
        "phone": "031-499-7332",
        "category": "음식점 > 카페 > 커피전문점 > 메가MGC커피",
        "distance": ""
      },
      {
        "name": "쟁이의슈가키친",
        "latitude": 37.3603634906374,
        "longitude": 126.733035116638,
        "address": "경기 시흥시 정왕동 1876-3",
        "road_address": "경기 시흥시 옥구천동로 449",
        "phone": "",
        "category": "음식점 > 카페 > 테마카페 > 디저트카페",
        "distance": ""
      },
      {
        "name": "카페이사칠",
        "latitude": 37.3665417531057,
        "longitude": 126.729439172794,
        "address": "경기 시흥시 배곧동 233",
        "road_address": "경기 시흥시 서울대학로264번길 50",
        "phone": "0507-1366-9648",
        "category": "음식점 > 카페 > 테마카페 > 무인카페",
        "distance": ""
      },
      {
        "name": "더150 무인카페 시흥정왕점",
        "latitude": 37.362389061328486,
        "longitude": 126.73186976716278,
        "address": "경기 시흥시 정왕동 1876-2",
        "road_address": "경기 시흥시 함송로 38",
        "phone": "",
        "category": "음식점 > 카페",
        "distance": ""
      },
      {
        "name": "그린앤코",
        "latitude": 37.3682051140735,
        "longitude": 126.730654682301,
        "address": "경기 시흥시 배곧동 204",
        "road_address": "경기 시흥시 서울대학로278번길 61",
        "phone": "",
        "category": "음식점 > 카페 > 테마카페",
        "distance": ""
      },
      {
        "name": "커피베이 시흥정왕점",
        "latitude": 37.3626125217599,
        "longitude": 126.729104472488,
        "address": "경기 시흥시 정왕동 1885-6",
        "road_address": "경기 시흥시 함송로14번길 13-10",
        "phone": "",
        "category": "음식점 > 카페 > 커피전문점 > 커피베이",
        "distance": ""
      },
      {
        "name": "스타벅스 배곧아브뉴프랑",
        "latitude": 37.3682155689049,
        "longitude": 126.728920636313,
        "address": "경기 시흥시 배곧동 216",
        "road_address": "경기 시흥시 서울대학로278번길 34",
        "phone": "1522-3232",
        "category": "음식점 > 카페 > 커피전문점 > 스타벅스",
        "distance": ""
      },
      {
        "name": "빽다방 시흥세종프라자점",
        "latitude": 37.363145650956746,
        "longitude": 126.73056101202062,
        "address": "경기 시흥시 정왕동 1882-5",
        "road_address": "경기 시흥시 함송로 24",
        "phone": "0507-1371-0218",
        "category": "음식점 > 카페 > 커피전문점 > 빽다방",
        "distance": ""
      },
      {
        "name": "스타벅스 배곧신도시점",
        "latitude": 37.369267657267656,
        "longitude": 126.73036300723687,
        "address": "경기 시흥시 배곧동 200-1",
        "road_address": "경기 시흥시 서울대학로278번길 43-13",
        "phone": "",
        "category": "음식점 > 카페 > 커피전문점 > 스타벅스",
        "distance": ""
      }
    ]
  }
}