{
  "key": "eaa265cfe0318be978c9892ea910e5f29cba5520913a0f2d3befc9f2a984e7c0",
  "tool": "PlaceSearch_kakao",
  "created_at": "2025-12-14T15:19:07.165558",
  "input_params": {
    "keyword": "애플 매장",
    "radius": 20000,
    "sort": "distance",
    "x": 127.0388,
    "y": 37.5141
  },
  "raw_args": {
    "x": 127.0388,
    "y": 37.5141,
    "sort": "distance",
    "keyword": "애플 매장",
    "radius": 20000
  },
  "data": {
    "keyword": "애플 매장",
    "total_count": 715,
    "places": [
      {
        "name": "애플트리 커뮤니케이션",
        "latitude": 37.5160914367789,
        "longitude": 127.039503897359,
        "address": "서울 강남구 논현동 240-14",
        "road_address": "서울 강남구 선릉로129길 24",
        "phone": "",
        "category": "서비스,산업 > 전문대행 > 이벤트기획,대행",
        "distance": "229"
      },
      {
        "name": "컴퓨터수리 애플맥북수리",
        "latitude": 37.5143233203321,
        "longitude": 127.034883502976,
        "address": "서울 강남구 논현동 211-20",
        "road_address": "서울 강남구 언주로 647",
        "phone": "02-561-8245",
        "category": "가정,생활 > 전자제품 > 전자제품서비스센터 > 컴퓨터수리",
        "distance": "347"
      },
      {
        "name": "애플컴퓨터맥북에어수리 논현점",
        "latitude": 37.5184597604341,
        "longitude": 127.038021044661,
        "address": "서울 강남구 논현동 108",
        "road_address": "서울 강남구 학동로43길 38",
        "phone": "",
        "category": "가정,생활 > 전자제품 > 전자제품서비스센터 > 컴퓨터수리",
        "distance": "488"
      },
      {
        "name": "언주컴퓨터수리 애플맥북수리",
        "latitude": 37.5081571292328,
        "longitude": 127.033912480973,
        "address": "서울 강남구 논현동 234-9",
        "road_address": "서울 강남구 논현로 608",
        "phone": "02-567-8245",
        "category": "가정,생활 > 전자제품 > 전자제품서비스센터 > 컴퓨터수리",
        "distance": "788"
      },
      {
        "name": "제이드애플스튜디오",
        "latitude": 37.51172930501782,
        "longitude": 127.04782177175497,
        "address": "서울 강남구 삼성동 44-12",
        "road_address": "서울 강남구 봉은사로 439",
        "phone": "02-525-4682",
        "category": "서비스,산업 > 전문대행",
        "distance": "839"
      },
      {
        "name": "애플앤유",
        "latitude": 37.5071442835624,
        "longitude": 127.034314660187,
        "address": "서울 강남구 역삼동 650",
        "road_address": "서울 강남구 논현로 570",
        "phone": "02-1688-3696",
        "category": "서비스,산업 > 농업 > 원예업",
        "distance": "867"
      },
      {
        "name": "디애플공인중개사사무소",
        "latitude": 37.51392735655982,
        "longitude": 127.04879592557238,
        "address": "서울 강남구 삼성동 47",
        "road_address": "서울 강남구 봉은사로69길 30",
        "phone": "02-556-3212",
        "category": "부동산 > 부동산서비스 > 부동산중개업소",
        "distance": "883"
      },
      {
        "name": "애플에이엠씨대부",
        "latitude": 37.5062733824168,
        "longitude": 127.041575222332,
        "address": "서울 강남구 역삼동 689-27",
        "road_address": "서울 강남구 봉은사로44길 48",
        "phone": "0507-0079-0888",
        "category": "금융,보험 > 금융서비스",
        "distance": "902"
      },
      {
        "name": "스튜디오애플",
        "latitude": 37.5150859328213,
        "longitude": 127.049072674084,
        "address": "서울 강남구 삼성동 25-9",
        "road_address": "서울 강남구 봉은사로71길 44",
        "phone": "02-518-3388",
        "category": "문화,예술 > 사진 > 사진관,포토스튜디오",
        "distance": "914"
      },
      {
        "name": "오아시스",
        "latitude": 37.52477403856608,
        "longitude": 127.04057639403156,
        "address": "서울 강남구 청담동 88-5",
        "road_address": "서울 강남구 도산대로55길 20",
        "phone": "",
        "category": "음식점 > 양식",
        "distance": "1195"
      },
      {
        "name": "애플컴퓨터맥북에어수리 신사점",
        "latitude": 37.5232082973671,
        "longitude": 127.03099162679,
        "address": "서울 강남구 신사동 595-1",
        "road_address": "서울 강남구 논현로168길 36",
        "phone": "",
        "category": "가정,생활 > 전자제품 > 전자제품서비스센터 > 컴퓨터수리",
        "distance": "1224"
      },
      {
        "name": "애플가든",
        "latitude": 37.504837168943,
        "longitude": 127.046442116836,
        "address": "서울 강남구 역삼동 704-51",
        "road_address": "서울 강남구 선릉로93길 26",
        "phone": "",
        "category": "음식점 > 술집",
        "distance": "1230"
      },
      {
        "name": "빌리엔젤 압구정역점",
        "latitude": 37.52306071666289,
        "longitude": 127.0302834069001,
        "address": "서울 강남구 신사동 596-13",
        "road_address": "서울 강남구 논현로164길 26",
        "phone": "070-4126-1400",
        "category": "음식점 > 카페 > 테마카페 > 디저트카페",
        "distance": "1247"
      },
      {
        "name": "애플뮤직",
        "latitude": 37.503472061874646,
        "longitude": 127.03335167319348,
        "address": "서울 강남구 역삼동 626-31",
        "road_address": "서울 강남구 논현로99길 24",
        "phone": "02-2263-2616",
        "category": "문화,예술 > 음악 > 음반,레코드샵",
        "distance": "1273"
      },
      {
        "name": "선릉애플치과의원",
        "latitude": 37.5036987618868,
        "longitude": 127.045247126453,
        "address": "서울 강남구 역삼동 702-13",
        "road_address": "서울 강남구 테헤란로 313",
        "phone": "02-538-3694",
        "category": "의료,건강 > 병원 > 치과",
        "distance": "1287"
      }
    ]
  }
}