{
  "key": "997541d4803ae9f6ae75e2ac75d61d7ef71723bfa2c0e0b5649a5fdaa457591e",
  "tool": "POISearch_tmap",
  "created_at": "2025-10-26T11:23:53.516358",
  "input_params": {
    "count": 50,
    "page": 1,
    "searchKeyword": "서울 이마트 트레이더스"
  },
  "raw_args": {
    "searchKeyword": "서울 이마트 트레이더스",
    "count": 50
  },
  "data": {
    "searchPoiInfo": {
      "totalCount": "16",
      "count": "16",
      "page": "1",
      "pois": {
        "poi": [
          {
            "id": "8879448",
            "pkey": "887944800",
            "navSeq": "0",
            "collectionType": "poi",
            "name": "트레이더스 홀세일 클럽 월계점",
            "telNo": "02-6320-1234",
            "frontLat": "37.62794856",
            "frontLon": "127.06201166",
            "noorLat": "37.62778190",
            "noorLon": "127.06137284",
            "pnsLat": "37.62747639",
            "pnsLon": "127.06209500",
            "upperAddrName": "서울",
            "middleAddrName": "노원구",
            "lowerAddrName": "월계동",
            "detailAddrName": "",
            "mlClass": "1",
            "firstNo": "333",
            "secondNo": "1",
            "roadName": "마들로3길",
            "firstBuildNo": "17",
            "secondBuildNo": "0",
            "radius": "0.0",
            "bizName": "",
            "upperBizName": "쇼핑",
            "middleBizName": "슈퍼\\/마트",
            "lowerBizName": "대형마트",
            "detailBizName": "트레이더스홀세일클럽",
            "rpFlag": "16",
            "parkFlag": "1",
            "detailInfoFlag": "1",
            "desc": "이마트는 국내 최초의 할인점으로서 대한민국 1등 할인점입니다.",
            "dataKind": "",
            "zipCode": "01906",
            "adminDongCode": "1135056000",
            "legalDongCode": "1135010200",
            "newAddressList": {
              "newAddress": [
                {
                  "centerLat": "37.62778190",
                  "centerLon": "127.06137284",
                  "frontLat": "37.62794856",
                  "frontLon": "127.06201166",
                  "roadName": "마들로3길",
                  "bldNo1": "17",
                  "bldNo2": "0",
                  "roadId": "00257",
                  "fullAddressRoad": "서울 노원구 마들로3길 17"
                }
              ]
            },
            "evChargers": {
              "evCharger": []
            }
          },
          {
            "id": "8879448",
            "pkey": "887944801",
            "navSeq": "1",
            "collectionType": "poi",
            "name": "트레이더스 홀세일 클럽 월계점 지상주차장",
            "telNo": "02-6320-1234",
            "frontLat": "37.62794856",
            "frontLon": "127.06201166",
            "noorLat": "37.62794856",
            "noorLon": "127.06201166",
            "pnsLat": "37.62794856",
            "pnsLon": "127.06201166",
            "upperAddrName": "서울",
            "middleAddrName": "노원구",
            "lowerAddrName": "월계동",
            "detailAddrName": "",
            "mlClass": "1",
            "firstNo": "333",
            "secondNo": "1",
            "roadName": "마들로3길",
            "firstBuildNo": "17",
            "secondBuildNo": "0",
            "radius": "0.0",
            "bizName": "",
            "upperBizName": "쇼핑",
            "middleBizName": "슈퍼\\/마트",
            "lowerBizName": "대형마트",
            "detailBizName": "트레이더스홀세일클럽",
            "rpFlag": "16",
            "parkFlag": "0",
            "detailInfoFlag": "1",
            "desc": "이마트는 국내 최초의 할인점으로서 대한민국 1등 할인점입니다.",
            "dataKind": "",
            "zipCode": "01906",
            "adminDongCode": "1135056000",
            "legalDongCode": "1135010200",
            "newAddressList": {
              "newAddress": [
                {
                  "centerLat": "37.62794856",
                  "centerLon": "127.06201166",
                  "frontLat": "37.62794856",
                  "frontLon": "127.06201166",
                  "roadName": "마들로3길",
                  "bldNo1": "17",
                  "bldNo2": "0",
                  "roadId": "00257",
                  "fullAddressRoad": "서울 노원구 마들로3길 17"
                }
              ]
            },
            "evChargers": {
              "evCharger": []
            }
          },
          {
            "id": "8879448",
            "pkey": "887944802",
            "navSeq": "2",
            "collectionType": "poi",
            "name": "트레이더스 홀세일 클럽 월계점 주차타워",
            "telNo": "02-6320-1234",
            "frontLat": "37.62800411",
            "frontLon": "127.06226164",
            "noorLat": "37.62800411",
            "noorLon": "127.06226164",
            "pnsLat": "37.62800411",
            "pnsLon": "127.06226164",
            "upperAddrName": "서울",
            "middleAddrName": "노원구",
            "lowerAddrName": "월계동",
            "detailAddrName": "",
            "mlClass": "1",
            "firstNo": "333",
            "secondNo": "1",
            "roadName": "마들로3길",
            "firstBuildNo": "17",
            "secondBuildNo": "0",
            "radius": "0.0",
            "bizName": "",
            "upperBizName": "쇼핑",
            "middleBizName": "슈퍼\\/마트",
            "lowerBizName": "대형마트",
            "detailBizName": "트레이더스홀세일클럽",
            "rpFlag": "16",
            "parkFlag": "0",
            "detailInfoFlag": "1",
            "desc": "이마트는 국내 최초의 할인점으로서 대한민국 1등 할인점입니다.",
            "dataKind": "",
            "zipCode": "01906",
            "adminDongCode": "1135056000",
            "legalDongCode": "1135010200",
            "newAddressList": {
              "newAddress": [
                {
                  "centerLat": "37.62800411",
                  "centerLon": "127.06226164",
                  "frontLat": "37.62800411",
                  "frontLon": "127.06226164",
                  "roadName": "마들로3길",
                  "bldNo1": "17",
                  "bldNo2": "0",
                  "roadId": "00257",
                  "fullAddressRoad": "서울 노원구 마들로3길 17"
                }
              ]
            },
            "evChargers": {
              "evCharger": []
            }
          },
          {
            "id": "8879448",
            "pkey": "887944803",
            "navSeq": "3",
            "collectionType": "poi",
            "name": "트레이더스 홀세일 클럽 월계점 정문",
            "telNo": "02-6320-1234",
            "frontLat": "37.62747639",
            "frontLon": "127.06209500",
            "noorLat": "37.62747639",
            "noorLon": "127.06209500",
            "pnsLat": "37.62747639",
            "pnsLon": "127.06209500",
            "upperAddrName": "서울",
            "middleAddrName": "노원구",
            "lowerAddrName": "월계동",
            "detailAddrName": "",
            "mlClass": "1",
            "firstNo": "333",
            "secondNo": "1",
            "roadName": "마들로3길",
            "firstBuildNo": "17",
            "secondBuildNo": "0",
            "radius": "0.0",
            "bizName": "",
            "upperBizName": "쇼핑",
            "middleBizName": "슈퍼\\/마트",
            "lowerBizName": "대형마트",
            "detailBizName": "트레이더스홀세일클럽",
            "rpFlag": "16",
            "parkFlag": "0",
            "detailInfoFlag": "1",
            "desc": "이마트는 국내 최초의 할인점으로서 대한민국 1등 할인점입니다.",
            "dataKind": "",
            "zipCode": "01906",
            "adminDongCode": "1135056000",
            "legalDongCode": "1135010200",
            "newAddressList": {
              "newAddress": [
                {
                  "centerLat": "37.62747639",
                  "centerLon": "127.06209500",
                  "frontLat": "37.62747639",
                  "frontLon": "127.06209500",
                  "roadName": "마들로3길",
                  "bldNo1": "17",
                  "bldNo2": "0",
                  "roadId": "00257",
                  "fullAddressRoad": "서울 노원구 마들로3길 17"
                }
              ]
            },
            "evChargers": {
              "evCharger": []
            }
          },
          {
            "id": "11791733",
            "pkey": "1179173301",
            "navSeq": "1",
            "collectionType": "poi",
            "name": "트레이더스 홀세일 클럽 마곡점",
            "telNo": "02-6252-1234",
            "frontLat": "37.56139653",
            "frontLon": "126.82692388",
            "noorLat": "37.56075770",
            "noorLon": "126.82628506",
            "pnsLat": "37.56050774",
            "pnsLon": "126.82661837",
            "upperAddrName": "서울",
            "middleAddrName": "강서구",
            "lowerAddrName": "마곡동",
            "detailAddrName": "",
            "mlClass": "1",
            "firstNo": "769",
            "secondNo": "0",
            "roadName": "공항대로",
            "firstBuildNo": "165",
            "secondBuildNo": "0",
            "radius": "0.0",
            "bizName": "",
            "upperBizName": "쇼핑",
            "middleBizName": "슈퍼\\/마트",
            "lowerBizName": "대형마트",
            "detailBizName": "트레이더스홀세일클럽",
            "rpFlag": "16",
            "parkFlag": "1",
            "detailInfoFlag": "0",
            "desc": "",
            "dataKind": "",
            "zipCode": "07800",
            "adminDongCode": "1150062000",
            "legalDongCode": "1150010500",
            "newAddressList": {
              "newAddress": [
                {
                  "centerLat": "37.56075770",
                  "centerLon": "126.82628506",
                  "frontLat": "37.56139653",
                  "frontLon": "126.82692388",
                  "roadName": "공항대로",
                  "bldNo1": "165",
                  "bldNo2": "0",
                  "roadId": "00166",
                  "fullAddressRoad": "서울 강서구 공항대로 165"
                }
              ]
            },
            "evChargers": {
              "evCharger": []
            }
          },
          {
            "id": "11791733",
            "pkey": "1179173303",
            "navSeq": "3",
            "collectionType": "poi",
            "name": "트레이더스 홀세일 클럽 마곡점 서측주차장",
            "telNo": "02-6252-1234",
            "frontLat": "37.56089653",
            "frontLon": "126.82409082",
            "noorLat": "37.56089653",
            "noorLon": "126.82409082",
            "pnsLat": "37.56089653",
            "pnsLon": "126.82409082",
            "upperAddrName": "서울",
            "middleAddrName": "강서구",
            "lowerAddrName": "마곡동",
            "detailAddrName": "",
            "mlClass": "1",
            "firstNo": "769",
            "secondNo": "0",
            "roadName": "공항대로",
            "firstBuildNo": "165",
            "secondBuildNo": "0",
            "radius": "0.0",
            "bizName": "",
            "upperBizName": "쇼핑",
            "middleBizName": "슈퍼\\/마트",
            "lowerBizName": "대형마트",
            "detailBizName": "트레이더스홀세일클럽",
            "rpFlag": "16",
            "parkFlag": "0",
            "detailInfoFlag": "0",
            "desc": "",
            "dataKind": "",
            "zipCode": "07800",
            "adminDongCode": "1150062000",
            "legalDongCode": "1150010500",
            "newAddressList": {
              "newAddress": [
                {
                  "centerLat": "37.56089653",
                  "centerLon": "126.82409082",
                  "frontLat": "37.56089653",
                  "frontLon": "126.82409082",
                  "roadName": "공항대로",
                  "bldNo1": "165",
                  "bldNo2": "0",
                  "roadId": "00166",
                  "fullAddressRoad": "서울 강서구 공항대로 165"
                }
              ]
            },
            "evChargers": {
              "evCharger": []
            }
          },
          {
            "id": "11791733",
            "pkey": "1179173304",
            "navSeq": "4",
            "collectionType": "poi",
            "name": "트레이더스 홀세일 클럽 마곡점 동측주차장",
            "telNo": "02-6252-1234",
            "frontLat": "37.56139653",
            "frontLon": "126.82692388",
            "noorLat": "37.56139653",
            "noorLon": "126.82692388",
            "pnsLat": "37.56139653",
            "pnsLon": "126.82692388",
            "upperAddrName": "서울",
            "middleAddrName": "강서구",
            "lowerAddrName": "마곡동",
            "detailAddrName": "",
            "mlClass": "1",
            "firstNo": "769",
            "secondNo": "0",
            "roadName": "공항대로",
            "firstBuildNo": "165",
            "secondBuildNo": "0",
            "radius": "0.0",
            "bizName": "",
            "upperBizName": "쇼핑",
            "middleBizName": "슈퍼\\/마트",
            "lowerBizName": "대형마트",
            "detailBizName": "트레이더스홀세일클럽",
            "rpFlag": "16",
            "parkFlag": "0",
            "detailInfoFlag": "0",
            "desc": "",
            "dataKind": "",
            "zipCode": "07800",
            "adminDongCode": "1150062000",
            "legalDongCode": "1150010500",
            "newAddressList": {
              "newAddress": [
                {
                  "centerLat": "37.56139653",
                  "centerLon": "126.82692388",
                  "frontLat": "37.56139653",
                  "frontLon": "126.82692388",
                  "roadName": "공항대로",
                  "bldNo1": "165",
                  "bldNo2": "0",
                  "roadId": "00166",
                  "fullAddressRoad": "서울 강서구 공항대로 165"
                }
              ]
            },
            "evChargers": {
              "evCharger": []
            }
          },
          {
            "id": "10024211",
            "pkey": "1002421101",
            "navSeq": "1",
            "collectionType": "poi",
            "name": "포르쉐HPC데스티네이션이마트트레이더스월계점 전기차충전소",
            "telNo": "",
            "frontLat": "37.62794856",
            "frontLon": "127.06206722",
            "noorLat": "37.62794855",
            "noorLon": "127.06165059",
            "pnsLat": "37.62789301",
            "pnsLon": "127.06201167",
            "upperAddrName": "서울",
            "middleAddrName": "노원구",
            "lowerAddrName": "월계동",
            "detailAddrName": "",
            "mlClass": "1",
            "firstNo": "333",
            "secondNo": "1",
            "roadName": "마들로3길",
            "firstBuildNo": "17",
            "secondBuildNo": "0",
            "radius": "0.0",
            "bizName": "",
            "upperBizName": "교통편의",
            "middleBizName": "자동차시설",
            "lowerBizName": "전기차충전소",
            "detailBizName": "기타",
            "rpFlag": "16",
            "parkFlag": "0",
            "detailInfoFlag": "0",
            "desc": "",
            "dataKind": "6",
            "zipCode": "01906",
            "adminDongCode": "1135058000",
            "legalDongCode": "1135010200",
            "newAddressList": {
              "newAddress": [
                {
                  "centerLat": "37.62794855",
                  "centerLon": "127.06165059",
                  "frontLat": "37.62794856",
                  "frontLon": "127.06206722",
                  "roadName": "마들로3길",
                  "bldNo1": "17",
                  "bldNo2": "0",
                  "roadId": "00257",
                  "fullAddressRoad": "서울 노원구 마들로3길 17"
                }
              ]
            },
            "evChargers": {
              "evCharger": [
                {
                  "operatorId": "CV",
                  "stationId": "CV000582",
                  "chargerId": "02",
                  "status": "2",
                  "type": "02",
                  "powerType": "완속(17kW단독)",
                  "operatorName": "채비",
                  "chargingDateTime": "20251025203020",
                  "updateDateTime": "20251026103226",
                  "isFast": "N",
                  "isAvailable": "Y"
                },
                {
                  "operatorId": "CV",
                  "stationId": "CV000582",
                  "chargerId": "04",
                  "status": "2",
                  "type": "04",
                  "powerType": "급속(320kW단독)",
                  "operatorName": "채비",
                  "chargingDateTime": "20251025181423",
                  "updateDateTime": "20251026103226",
                  "isFast": "Y",
                  "isAvailable": "Y"
                },
                {
                  "operatorId": "CV",
                  "stationId": "CV000582",
                  "chargerId": "03",
                  "status": "2",
                  "type": "04",
                  "powerType": "급속(320kW단독)",
                  "operatorName": "채비",
                  "chargingDateTime": "20251025121347",
                  "updateDateTime": "20251026103226",
                  "isFast": "Y",
                  "isAvailable": "Y"
                },
                {
                  "operatorId": "CV",
                  "stationId": "CV000582",
                  "chargerId": "01",
                  "status": "2",
                  "type": "02",
                  "powerType": "완속(17kW단독)",
                  "operatorName": "채비",
                  "chargingDateTime": "20251025165849",
                  "updateDateTime": "20251026103226",
                  "isFast": "N",
                  "isAvailable": "Y"
                }
              ]
            }
          },
          {
            "id": "11136084",
            "pkey": "1113608401",
            "navSeq": "1",
            "collectionType": "poi",
            "name": "뚜호X허니대왕카스테라",
            "telNo": "050714312305",
            "frontLat": "37.53695778",
            "frontLon": "126.98693776",
            "noorLat": "37.53695779",
            "noorLon": "126.98704886",
            "pnsLat": "37.53695778",
            "pnsLon": "126.98702108",
            "upperAddrName": "서울",
            "middleAddrName": "용산구",
            "lowerAddrName": "이태원동",
            "detailAddrName": "",
            "mlClass": "1",
            "firstNo": "567",
            "secondNo": "0",
            "roadName": "녹사평대로",
            "firstBuildNo": "216",
            "secondBuildNo": "1",
            "radius": "0.0",
            "bizName": "",
            "upperBizName": "생활편의",
            "middleBizName": "카페",
            "lowerBizName": "카페기타",
            "detailBizName": "기타",
            "rpFlag": "16",
            "parkFlag": "0",
            "detailInfoFlag": "1",
            "desc": "다년간 백화점 이마트 트레이더스 팝업스토어만\n진행하다 고객님들 요청으로 매장을 오픈했습니다.\n저온살균 계란과 우유로 만들어 건강하고 맛있는\n빵으로 어린이 어르신들에게 선물용으로 좋습니다.",
            "dataKind": "",
            "zipCode": "04345",
            "adminDongCode": "1117066000",
            "legalDongCode": "1117013000",
            "newAddressList": {
              "newAddress": [
                {
                  "centerLat": "37.53695779",
                  "centerLon": "126.98704886",
                  "frontLat": "37.53695778",
                  "frontLon": "126.98693776",
                  "roadName": "녹사평대로",
                  "bldNo1": "216",
                  "bldNo2": "1",
                  "roadId": "00002",
                  "fullAddressRoad": "서울 용산구 녹사평대로 216-1"
                }
              ]
            },
            "evChargers": {
              "evCharger": []
            }
          },
          {
            "id": "12171149",
            "pkey": "1217114901",
            "navSeq": "1",
            "collectionType": "poi",
            "name": "LG전자 이마트월계점",
            "telNo": "",
            "frontLat": "37.62697643",
            "frontLon": "127.06101178",
            "noorLat": "37.62658761",
            "noorLon": "127.06223391",
            "pnsLat": "37.62725420",
            "pnsLon": "127.06215056",
            "upperAddrName": "서울",
            "middleAddrName": "노원구",
            "lowerAddrName": "월계동",
            "detailAddrName": "",
            "mlClass": "1",
            "firstNo": "333",
            "secondNo": "1",
            "roadName": "마들로3길",
            "firstBuildNo": "15",
            "secondBuildNo": "0",
            "radius": "0.0",
            "bizName": "",
            "upperBizName": "쇼핑",
            "middleBizName": "가전",
            "lowerBizName": "LG",
            "detailBizName": "기타",
            "rpFlag": "16",
            "parkFlag": "1",
            "detailInfoFlag": "0",
            "desc": "",
            "dataKind": "",
            "zipCode": "01906",
            "adminDongCode": "1135058000",
            "legalDongCode": "1135010200",
            "newAddressList": {
              "newAddress": [
                {
                  "centerLat": "37.62658761",
                  "centerLon": "127.06223391",
                  "frontLat": "37.62697643",
                  "frontLon": "127.06101178",
                  "roadName": "마들로3길",
                  "bldNo1": "15",
                  "bldNo2": "0",
                  "roadId": "00257",
                  "fullAddressRoad": "서울 노원구 마들로3길 15"
                }
              ]
            },
            "evChargers": {
              "evCharger": []
            }
          },
          {
            "id": "11313726",
            "pkey": "1131372601",
            "navSeq": "1",
            "collectionType": "poi",
            "name": "본우리집밥 이마트트레이더스월계점",
            "telNo": "",
            "frontLat": "37.62794856",
            "frontLon": "127.06201166",
            "noorLat": "37.62778190",
            "noorLon": "127.06137284",
            "pnsLat": "37.62747639",
            "pnsLon": "127.06209500",
            "upperAddrName": "서울",
            "middleAddrName": "노원구",
            "lowerAddrName": "월계동",
            "detailAddrName": "",
            "mlClass": "1",
            "firstNo": "333",
            "secondNo": "1",
            "roadName": "마들로3길",
            "firstBuildNo": "17",
            "secondBuildNo": "0",
            "radius": "0.0",
            "bizName": "",
            "upperBizName": "생활편의",
            "middleBizName": "음식점",
            "lowerBizName": "시설내 음식점",
            "detailBizName": "구내식당",
            "rpFlag": "16",
            "parkFlag": "0",
            "detailInfoFlag": "0",
            "desc": "",
            "dataKind": "",
            "zipCode": "01906",
            "adminDongCode": "1135058000",
            "legalDongCode": "1135010200",
            "newAddressList": {
              "newAddress": [
                {
                  "centerLat": "37.62778190",
                  "centerLon": "127.06137284",
                  "frontLat": "37.62794856",
                  "frontLon": "127.06201166",
                  "roadName": "마들로3길",
                  "bldNo1": "17",
                  "bldNo2": "0",
                  "roadId": "00257",
                  "fullAddressRoad": "서울 노원구 마들로3길 17"
                }
              ]
            },
            "evChargers": {
              "evCharger": []
            }
          },
          {
            "id": "210813",
            "pkey": "21081301",
            "navSeq": "1",
            "collectionType": "poi",
            "name": "월계삼호4차아파트",
            "telNo": "02-978-0313",
            "frontLat": "37.62667099",
            "frontLon": "127.06548361",
            "noorLat": "37.62653210",
            "noorLon": "127.06426150",
            "pnsLat": "37.62667099",
            "pnsLon": "127.06548361",
            "upperAddrName": "서울",
            "middleAddrName": "노원구",
            "lowerAddrName": "월계동",
            "detailAddrName": "",
            "mlClass": "1",
            "firstNo": "12",
            "secondNo": "0",
            "roadName": "마들로",
            "firstBuildNo": "127",
            "secondBuildNo": "",
            "radius": "0.0",
            "bizName": "",
            "upperBizName": "건물\\/시설",
            "middleBizName": "주요건물",
            "lowerBizName": "아파트단지",
            "detailBizName": "중형(6~10동)",
            "rpFlag": "16",
            "parkFlag": "1",
            "detailInfoFlag": "1",
            "desc": "1987년식 총 910세대 22평5개동 25평2개동 단지 내 유일하게 25평형은 방이 세개입니다. 광운대역과 이마트 트레이더스가 아파트에 연결되어있어 생활이 편리합니다.",
            "dataKind": "",
            "zipCode": "01909",
            "adminDongCode": "1135056000",
            "legalDongCode": "1135010200",
            "newAddressList": {
              "newAddress": [
                {
                  "centerLat": "37.62653210",
                  "centerLon": "127.06426150",
                  "frontLat": "37.62667099",
                  "frontLon": "127.06548361",
                  "roadName": "마들로",
                  "bldNo1": "127",
                  "bldNo2": "",
                  "roadId": "00254",
                  "fullAddressRoad": "서울 노원구 마들로 127"
                }
              ]
            },
            "evChargers": {
              "evCharger": []
            }
          },
          {
            "id": "11887369",
            "pkey": "1188736901",
            "navSeq": "1",
            "collectionType": "poi",
            "name": "통나무집닭갈비 마곡점",
            "telNo": "02-6989-5212",
            "frontLat": "37.56314631",
            "frontLon": "126.82645165",
            "noorLat": "37.56286856",
            "noorLon": "126.82606280",
            "pnsLat": "37.56311854",
            "pnsLon": "126.82622945",
            "upperAddrName": "서울",
            "middleAddrName": "강서구",
            "lowerAddrName": "마곡동",
            "detailAddrName": "",
            "mlClass": "1",
            "firstNo": "768",
            "secondNo": "1",
            "roadName": "마곡중앙로",
            "firstBuildNo": "105",
            "secondBuildNo": "7",
            "radius": "0.0",
            "bizName": "",
            "upperBizName": "생활편의",
            "middleBizName": "음식점",
            "lowerBizName": "전문음식점",
            "detailBizName": "닭갈비",
            "rpFlag": "16",
            "parkFlag": "1",
            "detailInfoFlag": "1",
            "desc": "안녕하세요. 춘천 하면 닭갈비, 닭갈비 하면 통나무집!\n닭갈비 고장 춘천에서도 닭갈비 맛집으로 우뚝 선\nSince1978, 47년 전통의 통나무집닭갈비를 마곡점에서 선보입니다.\n\n춘천 닭갈비의 자존심! 자타공인 춘천닭갈비 1등 맛집\n통나무집닭갈비는 당일 손질한 재료를 당일 소진해\n가장 신선한 재료가 맛의 비법이라는 신념으로\n건강하고 맛있는 음식을 만들고 있습니다.\n\n[춘천 닭갈비 1등 통나무집닭갈비]\n1) 본점 티맵 춘천 랭킹 1등, 쏘카 춘천 랭킹 1등\n2) 백년가게 선정, 블루리본서베이 13년 연속 선정\n3) 맛있는녀석들, 백종원의3대천왕 등 맛집 매스컴 다수 출연\n4) 본점 영수증리뷰 16,400건, 블로그리뷰 7,000건\n5) 통나무집 철판닭갈비 밀키트 리뷰 60,000개\n\n춘천 닭갈비의 정수, 통나무집닭갈비를\n보다 가까이서 편하고 쾌적하게 드실 수 있도록\n서울 최초 상륙! 케이스퀘어 마곡점에서 만나실 수 있습니다.\n\n맛집 없이는 완성되지 않는 행복한 하루를 위해\n마곡데이트, 마곡회식, 단체회식, 마곡식사\n모두 만족하실 수 있도록 최선을 다해 음식을 만듭니다.\n\n믿고 먹는 춘천 통나무집닭갈비의 진심을\n마곡점에서도 느끼실 수 있도록 준비했습니다.\n야들야들 부드럽고 탱글한 닭다리살 고기와\n달큰한 채즙이 쭈욱 나오는 신선한 야채 가득\n춘천과 동일한 철판닭갈비 한 상이 마곡에도!\n\n[마곡에서 즐기는 춘천의 맛]\n\n매장 위치 : 서울 강서구 마곡중앙로 105-7 2동 지하2층 B203호\n전화번호 : 02-6989-5212\n영업시간 : 매일 11:00 - 21:30 (라스트오더 20:30)\n브레이크타임, 정기휴무 없습니다. 연중무휴 운영 중!\n\n국내 최대 규모 이마트트레이더스 마곡에서 도보 10분\n눈과 입이 즐거운 마곡에서 통나무집닭갈비를 만나보세요\n\n[통나무집닭갈비 시그니처 메뉴]\n\n1) 철판닭갈비\n\n당일손질 당일소진하는 신선한 재료로 잡내 없이\n부드럽고 달큰하고 고소한 맛의 전통 닭갈비!\n마곡 최고의 닭갈비맛집이라고 자신합니다\n춘천에서 직접 공수하는 닭내장과 닭목살은\n신선도를 위해 한정수량으로만 판매해요\n꼬득한 식감으로 단골분들은 무조건 찾는 내장!\n닭갈비와 섞어 다채로운 맛으로 즐겨보세요\n\n2) 막국수 / 명태회막국수 / 양푼물막국수\n\n매콤달콤한 닭갈비의 자타공인 단짝친구 막국수!\n춘천의 또 다른 대표 메뉴입니다.\n기성품 면을 사용하는 것이 아닌 직접 반죽해 뽑는\n정통을 지켜 더욱 담백하고 찰기 있는 면으로\n춘천막국수의 맛을 마곡에서 즐길 수 있어요\n\n3) 감자채전\n\n춘천 하면 감자를 빼놓을 수 없죠! 질 좋은 강원도 감자로\n겉은 바삭! 속은 쫀득~ 남녀노소 즐길 수 있는\n최고의 사이드메뉴로 강력 추천 드립니다.\n\n[통나무집닭갈비의 약속]\n\n저희 통나무집닭갈비는 많은 분들께 춘천의 맛이 추억으로\n남을 수 있는 행복한 음식을 전달하겠다는 신념으로\n운영해 나갈 것을 약속드립니다.\n맛있는 한 끼, 마곡데이트, 마곡회식, 마곡닭갈비맛집,\n지인분들께 마곡맛집추천 해줄 곳을 찾으신다면 바로 여기!\n통나무집닭갈비 마곡점 저장하기 추천 드립니다!",
            "dataKind": "",
            "zipCode": "07800",
            "adminDongCode": "1150063000",
            "legalDongCode": "1150010500",
            "newAddressList": {
              "newAddress": [
                {
                  "centerLat": "37.56286856",
                  "centerLon": "126.82606280",
                  "frontLat": "37.56314631",
                  "frontLon": "126.82645165",
                  "roadName": "마곡중앙로",
                  "bldNo1": "105",
                  "bldNo2": "7",
                  "roadId": "00574",
                  "fullAddressRoad": "서울 강서구 마곡중앙로 105-7"
                }
              ]
            },
            "evChargers": {
              "evCharger": []
            }
          },
          {
            "id": "11887369",
            "pkey": "1188736902",
            "navSeq": "2",
            "collectionType": "poi",
            "name": "통나무집닭갈비 마곡점 주차장",
            "telNo": "02-6989-5212",
            "frontLat": "37.56314631",
            "frontLon": "126.82645165",
            "noorLat": "37.56314631",
            "noorLon": "126.82645165",
            "pnsLat": "37.56314631",
            "pnsLon": "126.82645165",
            "upperAddrName": "서울",
            "middleAddrName": "강서구",
            "lowerAddrName": "마곡동",
            "detailAddrName": "",
            "mlClass": "1",
            "firstNo": "768",
            "secondNo": "1",
            "roadName": "마곡중앙로",
            "firstBuildNo": "105",
            "secondBuildNo": "7",
            "radius": "0.0",
            "bizName": "",
            "upperBizName": "생활편의",
            "middleBizName": "음식점",
            "lowerBizName": "전문음식점",
            "detailBizName": "닭갈비",
            "rpFlag": "16",
            "parkFlag": "0",
            "detailInfoFlag": "1",
            "desc": "안녕하세요. 춘천 하면 닭갈비, 닭갈비 하면 통나무집!\n닭갈비 고장 춘천에서도 닭갈비 맛집으로 우뚝 선\nSince1978, 47년 전통의 통나무집닭갈비를 마곡점에서 선보입니다.\n\n춘천 닭갈비의 자존심! 자타공인 춘천닭갈비 1등 맛집\n통나무집닭갈비는 당일 손질한 재료를 당일 소진해\n가장 신선한 재료가 맛의 비법이라는 신념으로\n건강하고 맛있는 음식을 만들고 있습니다.\n\n[춘천 닭갈비 1등 통나무집닭갈비]\n1) 본점 티맵 춘천 랭킹 1등, 쏘카 춘천 랭킹 1등\n2) 백년가게 선정, 블루리본서베이 13년 연속 선정\n3) 맛있는녀석들, 백종원의3대천왕 등 맛집 매스컴 다수 출연\n4) 본점 영수증리뷰 16,400건, 블로그리뷰 7,000건\n5) 통나무집 철판닭갈비 밀키트 리뷰 60,000개\n\n춘천 닭갈비의 정수, 통나무집닭갈비를\n보다 가까이서 편하고 쾌적하게 드실 수 있도록\n서울 최초 상륙! 케이스퀘어 마곡점에서 만나실 수 있습니다.\n\n맛집 없이는 완성되지 않는 행복한 하루를 위해\n마곡데이트, 마곡회식, 단체회식, 마곡식사\n모두 만족하실 수 있도록 최선을 다해 음식을 만듭니다.\n\n믿고 먹는 춘천 통나무집닭갈비의 진심을\n마곡점에서도 느끼실 수 있도록 준비했습니다.\n야들야들 부드럽고 탱글한 닭다리살 고기와\n달큰한 채즙이 쭈욱 나오는 신선한 야채 가득\n춘천과 동일한 철판닭갈비 한 상이 마곡에도!\n\n[마곡에서 즐기는 춘천의 맛]\n\n매장 위치 : 서울 강서구 마곡중앙로 105-7 2동 지하2층 B203호\n전화번호 : 02-6989-5212\n영업시간 : 매일 11:00 - 21:30 (라스트오더 20:30)\n브레이크타임, 정기휴무 없습니다. 연중무휴 운영 중!\n\n국내 최대 규모 이마트트레이더스 마곡에서 도보 10분\n눈과 입이 즐거운 마곡에서 통나무집닭갈비를 만나보세요\n\n[통나무집닭갈비 시그니처 메뉴]\n\n1) 철판닭갈비\n\n당일손질 당일소진하는 신선한 재료로 잡내 없이\n부드럽고 달큰하고 고소한 맛의 전통 닭갈비!\n마곡 최고의 닭갈비맛집이라고 자신합니다\n춘천에서 직접 공수하는 닭내장과 닭목살은\n신선도를 위해 한정수량으로만 판매해요\n꼬득한 식감으로 단골분들은 무조건 찾는 내장!\n닭갈비와 섞어 다채로운 맛으로 즐겨보세요\n\n2) 막국수 / 명태회막국수 / 양푼물막국수\n\n매콤달콤한 닭갈비의 자타공인 단짝친구 막국수!\n춘천의 또 다른 대표 메뉴입니다.\n기성품 면을 사용하는 것이 아닌 직접 반죽해 뽑는\n정통을 지켜 더욱 담백하고 찰기 있는 면으로\n춘천막국수의 맛을 마곡에서 즐길 수 있어요\n\n3) 감자채전\n\n춘천 하면 감자를 빼놓을 수 없죠! 질 좋은 강원도 감자로\n겉은 바삭! 속은 쫀득~ 남녀노소 즐길 수 있는\n최고의 사이드메뉴로 강력 추천 드립니다.\n\n[통나무집닭갈비의 약속]\n\n저희 통나무집닭갈비는 많은 분들께 춘천의 맛이 추억으로\n남을 수 있는 행복한 음식을 전달하겠다는 신념으로\n운영해 나갈 것을 약속드립니다.\n맛있는 한 끼, 마곡데이트, 마곡회식, 마곡닭갈비맛집,\n지인분들께 마곡맛집추천 해줄 곳을 찾으신다면 바로 여기!\n통나무집닭갈비 마곡점 저장하기 추천 드립니다!",
            "dataKind": "",
            "zipCode": "07800",
            "adminDongCode": "1150063000",
            "legalDongCode": "1150010500",
            "newAddressList": {
              "newAddress": [
                {
                  "centerLat": "37.56314631",
                  "centerLon": "126.82645165",
                  "frontLat": "37.56314631",
                  "frontLon": "126.82645165",
                  "roadName": "마곡중앙로",
                  "bldNo1": "105",
                  "bldNo2": "7",
                  "roadId": "00574",
                  "fullAddressRoad": "서울 강서구 마곡중앙로 105-7"
                }
              ]
            },
            "evChargers": {
              "evCharger": []
            }
          },
          {
            "id": "7858181",
            "pkey": "785818100",
            "navSeq": "0",
            "collectionType": "poi",
            "name": "서울연합의원",
            "telNo": "031-378-6734",
            "frontLat": "37.19255527",
            "frontLon": "127.09902059",
            "noorLat": "37.19333298",
            "noorLon": "127.10002048",
            "pnsLat": "37.19322187",
            "pnsLon": "127.09957607",
            "upperAddrName": "경기",
            "middleAddrName": "화성시",
            "lowerAddrName": "청계동",
            "detailAddrName": "",
            "mlClass": "1",
            "firstNo": "564",
            "secondNo": "0",
            "roadName": "동탄대로",
            "firstBuildNo": "446",
            "secondBuildNo": "",
            "radius": "0.0",
            "bizName": "",
            "upperBizName": "의료편의",
            "middleBizName": "의료시설",
            "lowerBizName": "의원",
            "detailBizName": "기타",
            "rpFlag": "16",
            "parkFlag": "1",
            "detailInfoFlag": "0",
            "desc": "",
            "dataKind": "",
            "zipCode": "18482",
            "adminDongCode": "4159059000",
            "legalDongCode": "4159013000",
            "newAddressList": {
              "newAddress": [
                {
                  "centerLat": "37.19333298",
                  "centerLon": "127.10002048",
                  "frontLat": "37.19255527",
                  "frontLon": "127.09902059",
                  "roadName": "동탄대로",
                  "bldNo1": "446",
                  "bldNo2": "",
                  "roadId": "01767",
                  "fullAddressRoad": "경기 화성시 동탄대로 446"
                }
              ]
            },
            "evChargers": {
              "evCharger": []
            }
          },
          {
            "id": "7858181",
            "pkey": "785818101",
            "navSeq": "1",
            "collectionType": "poi",
            "name": "서울연합의원 주차장",
            "telNo": "031-378-6734",
            "frontLat": "37.19255527",
            "frontLon": "127.09902059",
            "noorLat": "37.19255527",
            "noorLon": "127.09902059",
            "pnsLat": "37.19255527",
            "pnsLon": "127.09902059",
            "upperAddrName": "경기",
            "middleAddrName": "화성시",
            "lowerAddrName": "청계동",
            "detailAddrName": "",
            "mlClass": "1",
            "firstNo": "564",
            "secondNo": "0",
            "roadName": "동탄대로",
            "firstBuildNo": "446",
            "secondBuildNo": "",
            "radius": "0.0",
            "bizName": "",
            "upperBizName": "의료편의",
            "middleBizName": "의료시설",
            "lowerBizName": "의원",
            "detailBizName": "기타",
            "rpFlag": "16",
            "parkFlag": "0",
            "detailInfoFlag": "0",
            "desc": "",
            "dataKind": "",
            "zipCode": "18482",
            "adminDongCode": "4159059000",
            "legalDongCode": "4159013000",
            "newAddressList": {
              "newAddress": [
                {
                  "centerLat": "37.19255527",
                  "centerLon": "127.09902059",
                  "frontLat": "37.19255527",
                  "frontLon": "127.09902059",
                  "roadName": "동탄대로",
                  "bldNo1": "446",
                  "bldNo2": "",
                  "roadId": "01767",
                  "fullAddressRoad": "경기 화성시 동탄대로 446"
                }
              ]
            },
            "evChargers": {
              "evCharger": []
            }
          }
        ]
      }
    }
  }
}