{
  "key": "83e78205116f28ea1de0a3dcf5cb5b21139d24887f74d035bae0110b57c64ed2",
  "tool": "CategorySearch_kakao",
  "created_at": "2025-10-21T01:49:56.647030",
  "input_params": {
    "category": "PM9",
    "radius": 1000,
    "size": 15,
    "x": 126.9768,
    "y": 37.5759
  },
  "raw_args": {
    "x": 126.9768,
    "y": 37.5759,
    "category": "PM9"
  },
  "data": {
    "category": "PM9",
    "total_count": 41,
    "places": [
      {
        "name": "행복약국",
        "latitude": 37.5763202687714,
        "longitude": 126.972281770404,
        "address": "서울 종로구 내자동 67-1",
        "phone": "",
        "distance": "401"
      },
      {
        "name": "새명성약국",
        "latitude": 37.5703552066396,
        "longitude": 126.974155109518,
        "address": "서울 종로구 신문로1가 33",
        "phone": "02-735-2870",
        "distance": "658"
      },
      {
        "name": "광화문123약국",
        "latitude": 37.5723997485735,
        "longitude": 126.97970681417,
        "address": "서울 종로구 청진동 215-1",
        "phone": "02-723-0124",
        "distance": "465"
      },
      {
        "name": "안국365약국",
        "latitude": 37.577222806780355,
        "longitude": 126.98617524574533,
        "address": "서울 종로구 재동 92",
        "phone": "070-8827-8800",
        "distance": "840"
      },
      {
        "name": "삼원온누리약국",
        "latitude": 37.570481772624,
        "longitude": 126.976183539916,
        "address": "서울 종로구 신문로1가 1",
        "phone": "02-739-8744",
        "distance": "603"
      },
      {
        "name": "북촌약국",
        "latitude": 37.57875393751818,
        "longitude": 126.98202247030657,
        "address": "서울 종로구 소격동 153",
        "phone": "02-720-8081",
        "distance": "559"
      },
      {
        "name": "세종약국",
        "latitude": 37.57175597702993,
        "longitude": 126.97291850299607,
        "address": "서울 종로구 당주동 100",
        "phone": "02-3210-2292",
        "distance": "573"
      },
      {
        "name": "한누리약국",
        "latitude": 37.57476799075145,
        "longitude": 126.97286533909144,
        "address": "서울 종로구 내자동 219",
        "phone": "02-736-7980",
        "distance": "369"
      },
      {
        "name": "시민약국",
        "latitude": 37.57632668719058,
        "longitude": 126.97276062495328,
        "address": "서울 종로구 적선동 106-3",
        "phone": "02-736-6512",
        "distance": "359"
      },
      {
        "name": "당근약국",
        "latitude": 37.5704290484631,
        "longitude": 126.973973970369,
        "address": "서울 종로구 신문로1가 34",
        "phone": "02-735-0709",
        "distance": "656"
      },
      {
        "name": "송송약국",
        "latitude": 37.570570744374166,
        "longitude": 126.97980013133822,
        "address": "서울 종로구 종로1가 24",
        "phone": "02-733-4425",
        "distance": "648"
      },
      {
        "name": "종로엔약국",
        "latitude": 37.57040028996443,
        "longitude": 126.98468458387403,
        "address": "서울 종로구 종로2가 8-4",
        "phone": "02-739-9856",
        "distance": "926"
      },
      {
        "name": "광화문이층약국",
        "latitude": 37.5704742160246,
        "longitude": 126.974513899999,
        "address": "서울 종로구 신문로1가 25",
        "phone": "0503-7151-4141",
        "distance": "635"
      },
      {
        "name": "힐링약국",
        "latitude": 37.5710321661356,
        "longitude": 126.980466736668,
        "address": "서울 종로구 청진동 136",
        "phone": "02-723-6593",
        "distance": "629"
      },
      {
        "name": "종로1층엔약국",
        "latitude": 37.5705637546873,
        "longitude": 126.981118869262,
        "address": "서울 종로구 청진동 70",
        "phone": "02-2158-7977",
        "distance": "704"
      }
    ]
  }
}