{
  "key": "899c4564c9279fd00955d3bc0c7f2a33ae47003bc634fcdda516b8f5f0eacc22",
  "tool": "PlaceSearch_kakao",
  "created_at": "2025-10-26T11:53:37.423305",
  "input_params": {
    "keyword": "맛집",
    "radius": 1000,
    "sort": "accuracy",
    "x": 126.9337,
    "y": 37.4973
  },
  "raw_args": {
    "keyword": "맛집",
    "radius": 1000,
    "x": 126.9337,
    "y": 37.4973
  },
  "data": {
    "keyword": "맛집",
    "total_count": 817,
    "places": [
      {
        "name": "시래불고기 화풍정",
        "latitude": 37.49972687113233,
        "longitude": 126.93171673954177,
        "address": "서울 동작구 상도동 324-1",
        "road_address": "서울 동작구 상도로 102",
        "phone": "02-814-3392",
        "category": "음식점 > 한식 > 육류,고기 > 불고기,두루치기",
        "distance": "321"
      },
      {
        "name": "카츠 디나인 신대방삼거리 본점",
        "latitude": 37.4985135590908,
        "longitude": 126.929237838596,
        "address": "서울 동작구 상도동 323-27",
        "road_address": "서울 동작구 국사봉1길 12-5",
        "phone": "010-2163-4150",
        "category": "음식점 > 일식",
        "distance": "416"
      },
      {
        "name": "마포갈비",
        "latitude": 37.4992780750384,
        "longitude": 126.928509958051,
        "address": "서울 동작구 대방동 406-6",
        "road_address": "서울 동작구 보라매로 112",
        "phone": "02-821-3330",
        "category": "음식점 > 한식 > 육류,고기 > 갈비",
        "distance": "508"
      },
      {
        "name": "한솥쌈밥시골보리밥",
        "latitude": 37.4993655639831,
        "longitude": 126.93171028322803,
        "address": "서울 동작구 상도동 315-22",
        "road_address": "서울 동작구 성대로2길 7",
        "phone": "02-6081-5551",
        "category": "음식점 > 한식 > 쌈밥",
        "distance": "289"
      },
      {
        "name": "기계우동",
        "latitude": 37.4989533612256,
        "longitude": 126.927931256954,
        "address": "서울 동작구 신대방동 347-31",
        "road_address": "서울 동작구 여의대방로24길 140",
        "phone": "02-821-9397",
        "category": "음식점 > 분식",
        "distance": "542"
      },
      {
        "name": "동대문곱창볶음전문",
        "latitude": 37.499051141681605,
        "longitude": 126.93021780573328,
        "address": "서울 동작구 상도동 324-43",
        "road_address": "서울 동작구 국사봉1길 31",
        "phone": "02-825-0858",
        "category": "음식점 > 한식 > 육류,고기 > 곱창,막창",
        "distance": "364"
      },
      {
        "name": "인생곱창 본점",
        "latitude": 37.499226671091186,
        "longitude": 126.92993605219203,
        "address": "서울 동작구 상도동 324-26",
        "road_address": "서울 동작구 상도로12길 5-4",
        "phone": "0503-7153-1274",
        "category": "음식점 > 한식 > 육류,고기 > 곱창,막창",
        "distance": "395"
      },
      {
        "name": "품미",
        "latitude": 37.49857920836,
        "longitude": 126.929030826603,
        "address": "서울 동작구 상도동 323-25",
        "road_address": "서울 동작구 국사봉길 13",
        "phone": "02-822-5379",
        "category": "음식점 > 중식 > 중국요리",
        "distance": "436"
      },
      {
        "name": "소림마라 동작점",
        "latitude": 37.49850171645452,
        "longitude": 126.93367313527294,
        "address": "서울 동작구 상도동 256-1",
        "road_address": "서울 동작구 성대로 52",
        "phone": "02-3280-3526",
        "category": "음식점 > 중식 > 중국요리 > 소림마라",
        "distance": "133"
      },
      {
        "name": "신정닭발 성대시장점",
        "latitude": 37.4987808893509,
        "longitude": 126.928790889683,
        "address": "서울 동작구 상도동 328-10",
        "road_address": "서울 동작구 국사봉1길 4",
        "phone": "02-3280-4646",
        "category": "음식점 > 한식 > 육류,고기 > 닭요리",
        "distance": "464"
      },
      {
        "name": "상도감자탕",
        "latitude": 37.49857989277784,
        "longitude": 126.92867120784243,
        "address": "서울 동작구 신대방동 347-2",
        "road_address": "서울 동작구 국사봉길 12",
        "phone": "02-815-2009",
        "category": "음식점 > 한식 > 감자탕",
        "distance": "466"
      },
      {
        "name": "모리식탁",
        "latitude": 37.4991186990608,
        "longitude": 126.930187209033,
        "address": "서울 동작구 상도동 324-43",
        "road_address": "서울 동작구 국사봉1길 31",
        "phone": "070-4792-1174",
        "category": "음식점 > 술집",
        "distance": "370"
      },
      {
        "name": "사나운치킨 신대방삼거리점",
        "latitude": 37.49903731951055,
        "longitude": 126.92969987488036,
        "address": "서울 동작구 상도동 324-57",
        "road_address": "서울 동작구 국사봉1길 21",
        "phone": "02-813-2232",
        "category": "음식점 > 치킨",
        "distance": "402"
      },
      {
        "name": "대패상회 상도동점",
        "latitude": 37.5002248255492,
        "longitude": 126.93276123714,
        "address": "서울 동작구 상도동 248-14",
        "road_address": "서울 동작구 성대로1길 4",
        "phone": "",
        "category": "음식점 > 한식 > 육류,고기 > 삼겹살",
        "distance": "335"
      },
      {
        "name": "투썸플레이스 신대방삼거리점",
        "latitude": 37.4988340834113,
        "longitude": 126.9303604984,
        "address": "서울 동작구 상도동 322-19",
        "road_address": "서울 동작구 국사봉1길 32",
        "phone": "02-6959-8888",
        "category": "음식점 > 카페 > 커피전문점 > 투썸플레이스",
        "distance": "341"
      }
    ]
  }
}