{
  "key": "6c992dbd86234524728531d5e47a57952aaa049f56608226a401a0236b7094de",
  "tool": "PlaceSearch_kakao",
  "created_at": "2025-12-15T14:36:52.721256",
  "input_params": {
    "keyword": "카페",
    "radius": 500,
    "size": 10,
    "sort": "accuracy",
    "x": 127.0286,
    "y": 37.4979
  },
  "raw_args": {
    "keyword": "카페",
    "x": 127.0286,
    "y": 37.4979,
    "radius": 500,
    "size": 10,
    "sort": "accuracy"
  },
  "data": {
    "keyword": "카페",
    "total_count": 251,
    "places": [
      {
        "name": "커피빈 강남역12번출구점",
        "latitude": 37.4988455657308,
        "longitude": 127.029316901779,
        "address": "서울 강남구 역삼동 822-5",
        "road_address": "서울 강남구 테헤란로 111",
        "phone": "02-569-5838",
        "category": "음식점 > 카페 > 커피전문점 > 커피빈",
        "distance": "122"
      },
      {
        "name": "스타벅스 몬테소리점",
        "latitude": 37.4983415831768,
        "longitude": 127.026874023027,
        "address": "서울 서초구 서초동 1318-8",
        "road_address": "서울 서초구 강남대로 399",
        "phone": "1522-3232",
        "category": "음식점 > 카페 > 커피전문점 > 스타벅스",
        "distance": "160"
      },
      {
        "name": "비트포비아 강남던전점",
        "latitude": 37.497583697643,
        "longitude": 127.031112213726,
        "address": "서울 강남구 역삼동 824-25",
        "road_address": "서울 강남구 강남대로84길 33",
        "phone": "02-555-4360",
        "category": "음식점 > 카페 > 테마카페",
        "distance": "224"
      },
      {
        "name": "쉼스토리",
        "latitude": 37.49454553431844,
        "longitude": 127.03099334872962,
        "address": "서울 강남구 역삼동 831-35",
        "road_address": "서울 강남구 역삼로3길 17",
        "phone": "070-7778-6441",
        "category": "음식점 > 카페 > 테마카페",
        "distance": "428"
      },
      {
        "name": "커피빈 강남역먹자골목점",
        "latitude": 37.500098449489826,
        "longitude": 127.02729195389342,
        "address": "서울 강남구 역삼동 816-6",
        "road_address": "서울 강남구 테헤란로1길 29",
        "phone": "02-552-6311",
        "category": "음식점 > 카페 > 커피전문점 > 커피빈",
        "distance": "270"
      },
      {
        "name": "셀렉티드닉스",
        "latitude": 37.4962223486255,
        "longitude": 127.030837985875,
        "address": "서울 강남구 역삼동 827-13",
        "road_address": "서울 강남구 테헤란로4길 37",
        "phone": "070-5176-7947",
        "category": "음식점 > 카페",
        "distance": "271"
      },
      {
        "name": "키이스케이프 강남 더오름",
        "latitude": 37.4966142182906,
        "longitude": 127.03109824138642,
        "address": "서울 강남구 역삼동 827-37",
        "road_address": "서울 강남구 테헤란로6길 30",
        "phone": "010-3776-6082",
        "category": "음식점 > 카페 > 테마카페",
        "distance": "262"
      },
      {
        "name": "투썸플레이스 강남역KR타워점",
        "latitude": 37.4968740984736,
        "longitude": 127.029578488051,
        "address": "서울 강남구 역삼동 825-26",
        "road_address": "서울 강남구 강남대로84길 13",
        "phone": "02-555-0517",
        "category": "음식점 > 카페 > 커피전문점 > 투썸플레이스",
        "distance": "143"
      },
      {
        "name": "스타벅스 강남비젼타워점",
        "latitude": 37.49649026006633,
        "longitude": 127.0296167853337,
        "address": "서울 강남구 역삼동 826-26",
        "road_address": "서울 강남구 테헤란로2길 27",
        "phone": "1522-3232",
        "category": "음식점 > 카페 > 커피전문점 > 스타벅스",
        "distance": "180"
      },
      {
        "name": "룸카페 바니",
        "latitude": 37.499734261007006,
        "longitude": 127.02806874426594,
        "address": "서울 강남구 역삼동 818-1",
        "road_address": "서울 강남구 강남대로96길 12",
        "phone": "",
        "category": "음식점 > 카페 > 테마카페",
        "distance": "208"
      }
    ]
  }
}