{
  "key": "2e2b38202988bd2873494e6729bc494f17b680798a601576d1d340917d9a4850",
  "tool": "PlaceSearch_kakao",
  "created_at": "2025-12-19T02:51:10.333608",
  "input_params": {
    "keyword": "주차장",
    "radius": 1000,
    "sort": "accuracy",
    "x": 127.106294,
    "y": 37.375283
  },
  "raw_args": {
    "x": 127.106294,
    "y": 37.375283,
    "sort": "accuracy",
    "radius": 1000,
    "keyword": "주차장"
  },
  "data": {
    "keyword": "주차장",
    "total_count": 86,
    "places": [
      {
        "name": "한국잡월드 주차장",
        "latitude": 37.3777118876171,
        "longitude": 127.105586055785,
        "address": "경기 성남시 분당구 정자동 4-6",
        "road_address": "",
        "phone": "",
        "category": "교통,수송 > 교통시설 > 주차장",
        "distance": "276"
      },
      {
        "name": "한국잡월드 제2주차장",
        "latitude": 37.3774707573617,
        "longitude": 127.106207826176,
        "address": "경기 성남시 분당구 정자동 4-6",
        "road_address": "경기 성남시 분당구 분당수서로 501",
        "phone": "",
        "category": "교통,수송 > 교통시설 > 주차장",
        "distance": "242"
      },
      {
        "name": "정자유스센터 주차장",
        "latitude": 37.372681498754595,
        "longitude": 127.10655444494053,
        "address": "경기 성남시 분당구 정자동 6-1",
        "road_address": "",
        "phone": "",
        "category": "교통,수송 > 교통시설 > 주차장 > 공영주차장",
        "distance": "289"
      },
      {
        "name": "두산위브파빌리온 주차장",
        "latitude": 37.371555177318946,
        "longitude": 127.10759375733267,
        "address": "경기 성남시 분당구 정자동 7",
        "road_address": "",
        "phone": "",
        "category": "교통,수송 > 교통시설 > 주차장",
        "distance": "429"
      },
      {
        "name": "한국잡월드 제1주차장",
        "latitude": 37.3784978629757,
        "longitude": 127.10627701865,
        "address": "경기 성남시 분당구 정자동 4-6",
        "road_address": "경기 성남시 분당구 분당수서로 501",
        "phone": "",
        "category": "교통,수송 > 교통시설 > 주차장",
        "distance": "356"
      },
      {
        "name": "정자아이파크오피스텔 주차장",
        "latitude": 37.37615858725,
        "longitude": 127.110446626521,
        "address": "경기 성남시 분당구 정자동 27",
        "road_address": "경기 성남시 분당구 백현로 100",
        "phone": "",
        "category": "교통,수송 > 교통시설 > 주차장",
        "distance": "380"
      },
      {
        "name": "후너스빌딩 주차장",
        "latitude": 37.3770698391666,
        "longitude": 127.111071196843,
        "address": "경기 성남시 분당구 수내동 22-2",
        "road_address": "경기 성남시 분당구 백현로 93",
        "phone": "",
        "category": "교통,수송 > 교통시설 > 주차장",
        "distance": "467"
      },
      {
        "name": "아이파크분당1단지아파트 주차장",
        "latitude": 37.3712686515055,
        "longitude": 127.105593959211,
        "address": "경기 성남시 분당구 정자동 9",
        "road_address": "경기 성남시 분당구 정자일로 239",
        "phone": "",
        "category": "교통,수송 > 교통시설 > 주차장",
        "distance": "449"
      },
      {
        "name": "큰집쭈꾸미 본점 주차장",
        "latitude": 37.3777814792822,
        "longitude": 127.102267851688,
        "address": "경기 성남시 분당구 백현동 472-74",
        "road_address": "",
        "phone": "",
        "category": "교통,수송 > 교통시설 > 주차장",
        "distance": "451"
      },
      {
        "name": "수내역환승공영주차장",
        "latitude": 37.3779817075995,
        "longitude": 127.114811991505,
        "address": "경기 성남시 분당구 수내동 15-1",
        "road_address": "",
        "phone": "031-716-9325",
        "category": "교통,수송 > 교통시설 > 주차장 > 공영주차장",
        "distance": "811"
      },
      {
        "name": "퍼스티플러스 주차장",
        "latitude": 37.3772745515363,
        "longitude": 127.110879560153,
        "address": "경기 성남시 분당구 수내동 22-1",
        "road_address": "경기 성남시 분당구 황새울로 196",
        "phone": "",
        "category": "교통,수송 > 교통시설 > 주차장",
        "distance": "462"
      },
      {
        "name": "다운타운빌딩 주차장",
        "latitude": 37.3769964930199,
        "longitude": 127.111457222494,
        "address": "경기 성남시 분당구 수내동 22-3",
        "road_address": "경기 성남시 분당구 백현로 97",
        "phone": "",
        "category": "교통,수송 > 교통시설 > 주차장",
        "distance": "495"
      },
      {
        "name": "정자동공영주차장",
        "latitude": 37.37142490708014,
        "longitude": 127.112038297572,
        "address": "경기 성남시 분당구 정자동 72",
        "road_address": "",
        "phone": "031-719-8950",
        "category": "교통,수송 > 교통시설 > 주차장 > 공영주차장",
        "distance": "664"
      },
      {
        "name": "로얄펠리스하우스빌 주차장",
        "latitude": 37.376207485147,
        "longitude": 127.112104120718,
        "address": "경기 성남시 분당구 수내동 23-1",
        "road_address": "경기 성남시 분당구 백현로 105",
        "phone": "",
        "category": "교통,수송 > 교통시설 > 주차장",
        "distance": "524"
      },
      {
        "name": "폴라리스II 주차장",
        "latitude": 37.3708524718426,
        "longitude": 127.107490018928,
        "address": "경기 성남시 분당구 정자동 15-1",
        "road_address": "경기 성남시 분당구 성남대로 389",
        "phone": "",
        "category": "교통,수송 > 교통시설 > 주차장",
        "distance": "502"
      }
    ]
  }
}