{
  "key": "2ec94963b10153204bc47ef7ddc0811b9f7b70bb5390c9c6b76e76f30236a5c2",
  "tool": "PlaceSearch_kakao",
  "created_at": "2025-10-26T10:36:25.300370",
  "input_params": {
    "keyword": "맛집",
    "radius": 1000,
    "sort": "accuracy",
    "x": 126.9232,
    "y": 37.5829
  },
  "raw_args": {
    "keyword": "맛집",
    "radius": 1000,
    "x": 126.9232,
    "y": 37.5829
  },
  "data": {
    "keyword": "맛집",
    "total_count": 862,
    "places": [
      {
        "name": "영이호프",
        "latitude": 37.5802074297777,
        "longitude": 126.925190291359,
        "address": "서울 서대문구 홍은동 409-47",
        "road_address": "서울 서대문구 거북골로 19-1",
        "phone": "02-302-2539",
        "category": "음식점 > 술집 > 호프,요리주점",
        "distance": "346"
      },
      {
        "name": "엄마손떡볶이 본점",
        "latitude": 37.5789417794517,
        "longitude": 126.924163620995,
        "address": "서울 서대문구 남가좌동 324-46",
        "road_address": "서울 서대문구 증가로10길 37",
        "phone": "02-305-7572",
        "category": "음식점 > 분식 > 떡볶이",
        "distance": "447"
      },
      {
        "name": "증가로커피공방",
        "latitude": 37.584298385508035,
        "longitude": 126.92308036160554,
        "address": "서울 서대문구 남가좌동 2-9",
        "road_address": "서울 서대문구 명지대길 97",
        "phone": "010-6334-6494",
        "category": "음식점 > 카페 > 커피전문점",
        "distance": "155"
      },
      {
        "name": "미소떡볶이",
        "latitude": 37.582203969413925,
        "longitude": 126.92368594617014,
        "address": "서울 서대문구 남가좌동 5-178",
        "road_address": "서울 서대문구 명지대3길 1",
        "phone": "02-373-7009",
        "category": "음식점 > 분식 > 떡볶이",
        "distance": "88"
      },
      {
        "name": "순이네고릴라떡볶이 본점",
        "latitude": 37.580495976590896,
        "longitude": 126.92555227861433,
        "address": "서울 서대문구 홍은동 409-33",
        "road_address": "서울 서대문구 거북골로 15-2",
        "phone": "02-308-8743",
        "category": "음식점 > 분식 > 떡볶이",
        "distance": "338"
      },
      {
        "name": "왕포수산&왕포차",
        "latitude": 37.58122795271239,
        "longitude": 126.92614025396256,
        "address": "서울 서대문구 홍은동 400-37",
        "road_address": "서울 서대문구 거북골로 8",
        "phone": "",
        "category": "음식점 > 한식 > 해물,생선 > 회",
        "distance": "319"
      },
      {
        "name": "미소그릴 남가좌점",
        "latitude": 37.5835496489568,
        "longitude": 126.923063017447,
        "address": "서울 서대문구 남가좌동 3-118",
        "road_address": "서울 서대문구 명지대길 83",
        "phone": "02-303-1355",
        "category": "음식점 > 한식 > 육류,고기 > 갈비",
        "distance": "73"
      },
      {
        "name": "가타쯔무리",
        "latitude": 37.5832228506648,
        "longitude": 126.923466400466,
        "address": "서울 서대문구 남가좌동 8-25",
        "road_address": "서울 서대문구 명지대길 72",
        "phone": "",
        "category": "음식점 > 일식 > 돈까스,우동",
        "distance": "43"
      },
      {
        "name": "활구팔구",
        "latitude": 37.580606637812,
        "longitude": 126.92529744276244,
        "address": "서울 서대문구 홍은동 401-46",
        "road_address": "서울 서대문구 거북골로 18",
        "phone": "02-304-8983",
        "category": "음식점 > 한식 > 해물,생선 > 회",
        "distance": "314"
      },
      {
        "name": "명지대박곱창",
        "latitude": 37.582820890372645,
        "longitude": 126.92328566834495,
        "address": "서울 서대문구 남가좌동 4-5",
        "road_address": "서울 서대문구 명지대길 65",
        "phone": "02-302-9292",
        "category": "음식점 > 한식 > 육류,고기 > 곱창,막창",
        "distance": "11"
      },
      {
        "name": "생선구이와돈까스 2호점",
        "latitude": 37.5815839831833,
        "longitude": 126.924930788618,
        "address": "서울 서대문구 홍은동 421-13",
        "road_address": "서울 서대문구 명지대2길 7",
        "phone": "02-304-0664",
        "category": "음식점 > 일식 > 돈까스,우동",
        "distance": "211"
      },
      {
        "name": "이정희떡볶이",
        "latitude": 37.5781087204764,
        "longitude": 126.923326729488,
        "address": "서울 서대문구 남가좌동 341-1",
        "road_address": "서울 서대문구 증가로10길 14",
        "phone": "02-303-4302",
        "category": "음식점 > 분식 > 떡볶이",
        "distance": "531"
      },
      {
        "name": "구떼",
        "latitude": 37.581912022992,
        "longitude": 126.925053861826,
        "address": "서울 서대문구 홍은동 421-11",
        "road_address": "서울 서대문구 명지대2길 13",
        "phone": "",
        "category": "음식점 > 간식 > 제과,베이커리",
        "distance": "196"
      },
      {
        "name": "마라왕 명지점",
        "latitude": 37.580883452116566,
        "longitude": 126.9256288768341,
        "address": "서울 서대문구 홍은동 401-16",
        "road_address": "서울 서대문구 거북골로 14",
        "phone": "02-303-0988",
        "category": "음식점 > 중식 > 중국요리",
        "distance": "309"
      },
      {
        "name": "그레이지",
        "latitude": 37.5809500256345,
        "longitude": 126.925470313916,
        "address": "서울 서대문구 홍은동 401-25",
        "road_address": "서울 서대문구 거북골로 12-15",
        "phone": "070-4204-2431",
        "category": "음식점 > 카페",
        "distance": "294"
      }
    ]
  }
}