{
  "key": "5628ebd6f24f5bfa1f7613ab47d160e69bac68ac0ed745577cf811db5dbfe95a",
  "tool": "PlaceSearch_kakao",
  "created_at": "2025-10-27T04:02:26.148428",
  "input_params": {
    "keyword": "대학교",
    "page": 1,
    "size": 5,
    "sort": "accuracy",
    "x": 123.0361,
    "y": 37.6087
  },
  "raw_args": {
    "keyword": "대학교",
    "x": 123.0361,
    "y": 37.6087,
    "page": 1,
    "size": 5
  },
  "data": {
    "keyword": "대학교",
    "total_count": 26288,
    "places": [
      {
        "name": "인하대학교 용현캠퍼스",
        "latitude": 37.44939909637399,
        "longitude": 126.65435131686084,
        "address": "인천 미추홀구 용현동 253",
        "road_address": "인천 미추홀구 인하로 100",
        "phone": "032-860-7114",
        "category": "교육,학문 > 학교 > 대학교",
        "distance": "320466"
      },
      {
        "name": "인천대학교 송도캠퍼스",
        "latitude": 37.37685895059928,
        "longitude": 126.63475694513664,
        "address": "인천 연수구 송도동 12-1",
        "road_address": "인천 연수구 아카데미로 119",
        "phone": "032-835-8114",
        "category": "교육,학문 > 학교 > 대학교",
        "distance": "319439"
      },
      {
        "name": "안양대학교 강화캠퍼스",
        "latitude": 37.71101670424466,
        "longitude": 126.44489428586483,
        "address": "인천 강화군 불은면 삼성리 809-170",
        "road_address": "인천 강화군 불은면 중앙로 602-14",
        "phone": "032-930-6000",
        "category": "교육,학문 > 학교 > 대학교",
        "distance": "301153"
      },
      {
        "name": "한국공학대학교",
        "latitude": 37.339967207647575,
        "longitude": 126.73394692429751,
        "address": "경기 시흥시 정왕동 2121-1",
        "road_address": "경기 시흥시 산기대학로 237",
        "phone": "031-8041-1000",
        "category": "교육,학문 > 학교 > 대학교",
        "distance": "328607"
      },
      {
        "name": "가천대학교 메디컬캠퍼스",
        "latitude": 37.4222864409138,
        "longitude": 126.687581340746,
        "address": "인천 연수구 연수동 534-2",
        "road_address": "인천 연수구 함박뫼로 191",
        "phone": "032-820-4000",
        "category": "교육,학문 > 학교 > 대학교",
        "distance": "323635"
      }
    ]
  }
}