{
  "key": "333b3dd0a7990561fa3a7bff709284d328d525824a89adda4fca9989e7b8f24e",
  "tool": "PlaceSearch_kakao",
  "created_at": "2025-10-27T15:51:06.323678",
  "input_params": {
    "keyword": "주차장",
    "radius": 1000,
    "sort": "distance",
    "x": 127.071537,
    "y": 37.498496
  },
  "raw_args": {
    "keyword": "주차장",
    "x": 127.071537,
    "y": 37.498496,
    "radius": 1000,
    "sort": "distance"
  },
  "data": {
    "keyword": "주차장",
    "total_count": 65,
    "places": [
      {
        "name": "학여울 공영주차장",
        "latitude": 37.49693578670486,
        "longitude": 127.07243093775922,
        "address": "서울 강남구 대치동 514-3",
        "road_address": "",
        "phone": "02-3405-4074",
        "category": "교통,수송 > 교통시설 > 주차장 > 공영주차장",
        "distance": "190"
      },
      {
        "name": "세텍전시장 전용주차장",
        "latitude": 37.4967172762469,
        "longitude": 127.071719424286,
        "address": "서울 강남구 대치동 514-3",
        "road_address": "서울 강남구 남부순환로 지하 3104",
        "phone": "",
        "category": "교통,수송 > 교통시설 > 주차장",
        "distance": "197"
      },
      {
        "name": "쏘카존 학여울역 환승공영주차장",
        "latitude": 37.49688165001953,
        "longitude": 127.07255527885776,
        "address": "서울 강남구 대치동 514",
        "road_address": "서울 강남구 남부순환로 3104",
        "phone": "",
        "category": "교통,수송 > 교통시설 > 카셰어링 > 쏘카존",
        "distance": "200"
      },
      {
        "name": "아마노 GN바디닥터빌딩 주차장",
        "latitude": 37.49826444015138,
        "longitude": 127.06845269015461,
        "address": "서울 강남구 대치동 994-9",
        "road_address": "서울 강남구 영동대로 217",
        "phone": "",
        "category": "교통,수송 > 교통시설 > 주차장",
        "distance": "274"
      },
      {
        "name": "GN바디닥터빌딩 주차장",
        "latitude": 37.4981653485169,
        "longitude": 127.068419804521,
        "address": "서울 강남구 대치동 994-9",
        "road_address": "서울 강남구 영동대로 217",
        "phone": "",
        "category": "교통,수송 > 교통시설 > 주차장",
        "distance": "278"
      },
      {
        "name": "학여울지하주차장",
        "latitude": 37.4957891940562,
        "longitude": 127.071794302536,
        "address": "서울 강남구 대치동 514",
        "road_address": "서울 강남구 남부순환로 3104",
        "phone": "",
        "category": "교통,수송 > 교통시설 > 주차장",
        "distance": "301"
      },
      {
        "name": "SETEC 주차장",
        "latitude": 37.49575408161336,
        "longitude": 127.07175016647709,
        "address": "서울 강남구 대치동 514",
        "road_address": "서울 강남구 남부순환로 3104",
        "phone": "",
        "category": "교통,수송 > 교통시설 > 주차장",
        "distance": "304"
      },
      {
        "name": "투루카 학여울역 지하공영주차장(지하3층)",
        "latitude": 37.4956782987726,
        "longitude": 127.071911802781,
        "address": "서울 강남구 대치동 514",
        "road_address": "서울 강남구 남부순환로 3104",
        "phone": "1600-6038",
        "category": "교통,수송 > 교통시설 > 카셰어링 > 투루카",
        "distance": "314"
      },
      {
        "name": "수안빌 주차장",
        "latitude": 37.49900006694988,
        "longitude": 127.06774882284238,
        "address": "서울 강남구 대치동 994-6",
        "road_address": "",
        "phone": "",
        "category": "교통,수송 > 교통시설 > 주차장",
        "distance": "339"
      },
      {
        "name": "SETEC 주차장1",
        "latitude": 37.4947260891952,
        "longitude": 127.071657586889,
        "address": "서울 강남구 대치동 514",
        "road_address": "서울 강남구 남부순환로 3104",
        "phone": "",
        "category": "교통,수송 > 교통시설 > 주차장",
        "distance": "418"
      },
      {
        "name": "투루카 극동교회 앞 공영주차장",
        "latitude": 37.4945067380958,
        "longitude": 127.070837537781,
        "address": "서울 강남구 대치동 513",
        "road_address": "",
        "phone": "1600-6038",
        "category": "교통,수송 > 교통시설 > 카셰어링 > 투루카",
        "distance": "447"
      },
      {
        "name": "삼성디지털프라자 강남본점 주차장",
        "latitude": 37.5004285594852,
        "longitude": 127.067051215736,
        "address": "서울 강남구 대치동 993-1",
        "road_address": "서울 강남구 영동대로 237",
        "phone": "",
        "category": "교통,수송 > 교통시설 > 주차장",
        "distance": "451"
      },
      {
        "name": "삼성디지털프라자 삼성대치점 주차장",
        "latitude": 37.5004663952942,
        "longitude": 127.067062558599,
        "address": "서울 강남구 대치동 993-2",
        "road_address": "서울 강남구 영동대로 237",
        "phone": "",
        "category": "교통,수송 > 교통시설 > 주차장",
        "distance": "452"
      },
      {
        "name": "오뚜기센터 주차장",
        "latitude": 37.50202645517873,
        "longitude": 127.06790649418812,
        "address": "서울 강남구 대치동 1009-1",
        "road_address": "서울 강남구 영동대로 308",
        "phone": "",
        "category": "교통,수송 > 교통시설 > 주차장",
        "distance": "506"
      },
      {
        "name": "새마을운동중앙회빌딩 주차장",
        "latitude": 37.502664776812495,
        "longitude": 127.06719005874598,
        "address": "서울 강남구 대치동 1008-4",
        "road_address": "서울 강남구 영동대로 316",
        "phone": "",
        "category": "교통,수송 > 교통시설 > 주차장",
        "distance": "601"
      }
    ]
  }
}