{
  "key": "358b04a79e7a8ce14815e83437512bc1cd05c826f36a5c24cf53178ba6b9481e",
  "tool": "PlaceSearch_kakao",
  "created_at": "2025-10-27T09:04:10.677664",
  "input_params": {
    "keyword": "맛집",
    "radius": 1000,
    "sort": "accuracy",
    "x": 126.9372,
    "y": 37.4891
  },
  "raw_args": {
    "keyword": "맛집",
    "radius": 1000,
    "x": 126.9372,
    "y": 37.4891
  },
  "data": {
    "keyword": "맛집",
    "total_count": 1238,
    "places": [
      {
        "name": "신풍루곱창구이",
        "latitude": 37.4858150122932,
        "longitude": 126.937676791569,
        "address": "서울 관악구 봉천동 957-18",
        "road_address": "서울 관악구 은천로2길 18",
        "phone": "02-877-6681",
        "category": "음식점 > 한식 > 육류,고기 > 곱창,막창",
        "distance": "367"
      },
      {
        "name": "상도스시",
        "latitude": 37.48691602648182,
        "longitude": 126.93431770158557,
        "address": "서울 관악구 봉천동 967-15",
        "road_address": "서울 관악구 봉천로 299",
        "phone": "02-3285-9997",
        "category": "음식점 > 일식 > 초밥,롤",
        "distance": "351"
      },
      {
        "name": "서울갈비 신림점",
        "latitude": 37.4849874642852,
        "longitude": 126.933593500042,
        "address": "서울 관악구 신림동 1410-17",
        "road_address": "서울 관악구 남부순환로 1645",
        "phone": "02-885-7610",
        "category": "음식점 > 한식 > 육류,고기 > 갈비",
        "distance": "556"
      },
      {
        "name": "강강술래 신림점",
        "latitude": 37.4845810083297,
        "longitude": 126.935032063852,
        "address": "서울 관악구 신림동 10-518",
        "road_address": "서울 관악구 남부순환로 1660",
        "phone": "02-886-9233",
        "category": "음식점 > 한식 > 육류,고기 > 갈비",
        "distance": "537"
      },
      {
        "name": "도미노피자 보라매점",
        "latitude": 37.487560306716674,
        "longitude": 126.93282121020303,
        "address": "서울 관악구 봉천동 968-29",
        "road_address": "서울 관악구 봉천로 283-1",
        "phone": "02-883-3085",
        "category": "음식점 > 양식 > 피자 > 도미노피자",
        "distance": "423"
      },
      {
        "name": "옛골 생고기",
        "latitude": 37.4858554507984,
        "longitude": 126.939200918388,
        "address": "서울 관악구 봉천동 951-8",
        "road_address": "서울 관악구 은천로6길 8",
        "phone": "",
        "category": "음식점 > 한식 > 육류,고기",
        "distance": "401"
      },
      {
        "name": "용국이네숯불갈비",
        "latitude": 37.4863280156494,
        "longitude": 126.940055337006,
        "address": "서울 관악구 봉천동 940-8",
        "road_address": "서울 관악구 은천로 41-1",
        "phone": "02-887-0953",
        "category": "음식점 > 한식 > 육류,고기 > 갈비",
        "distance": "398"
      },
      {
        "name": "정담은보쌈 신림점",
        "latitude": 37.48520831314562,
        "longitude": 126.93540238140316,
        "address": "서울 관악구 봉천동 959-4",
        "road_address": "서울 관악구 남부순환로 1661",
        "phone": "02-888-8401",
        "category": "음식점 > 한식 > 육류,고기 > 족발,보쌈",
        "distance": "460"
      },
      {
        "name": "우곱창",
        "latitude": 37.48602432521382,
        "longitude": 126.93820803980105,
        "address": "서울 관악구 봉천동 951-25",
        "road_address": "서울 관악구 은천로 28",
        "phone": "",
        "category": "음식점 > 한식 > 육류,고기 > 곱창,막창",
        "distance": "353"
      },
      {
        "name": "중화요리팔공",
        "latitude": 37.48405234129973,
        "longitude": 126.9371129279526,
        "address": "서울 관악구 신림동 10-621",
        "road_address": "서울 관악구 남부순환로 1680",
        "phone": "02-877-9815",
        "category": "음식점 > 중식 > 중국요리",
        "distance": "560"
      },
      {
        "name": "족족이 숯불구이불족발보쌈 본점",
        "latitude": 37.485895552587515,
        "longitude": 126.93834495855278,
        "address": "서울 관악구 봉천동 951-25",
        "road_address": "서울 관악구 은천로 28",
        "phone": "02-871-8077",
        "category": "음식점 > 한식 > 육류,고기 > 족발,보쌈",
        "distance": "370"
      },
      {
        "name": "골든디쉬아메리칸차이니즈 신림점",
        "latitude": 37.4874470803187,
        "longitude": 126.940080449088,
        "address": "서울 관악구 봉천동 634-15",
        "road_address": "서울 관악구 국회단지길 30",
        "phone": "",
        "category": "음식점 > 중식",
        "distance": "314"
      },
      {
        "name": "큰집닭강정 봉천점",
        "latitude": 37.48601255489677,
        "longitude": 126.93984302024917,
        "address": "서울 관악구 봉천동 941-18",
        "road_address": "서울 관악구 은천로 40-1",
        "phone": "02-888-6901",
        "category": "음식점 > 간식 > 닭강정",
        "distance": "414"
      },
      {
        "name": "도우맨션",
        "latitude": 37.4886930583466,
        "longitude": 126.93641138014605,
        "address": "서울 관악구 봉천동 647-43",
        "road_address": "서울 관악구 봉천로23바길 2",
        "phone": "",
        "category": "음식점 > 카페",
        "distance": "82"
      },
      {
        "name": "아리차이 신림점",
        "latitude": 37.4876152971167,
        "longitude": 126.928272317548,
        "address": "서울 관악구 신림동 1430-11",
        "road_address": "서울 관악구 신림동길 4",
        "phone": "02-877-1272",
        "category": "음식점 > 중식 > 중국요리",
        "distance": "806"
      }
    ]
  }
}