{
  "key": "35d7353f74d0c98900ad24ba50c42b8054ccce4a81fddb83ec1329141409703e",
  "tool": "PlaceSearch_kakao",
  "created_at": "2025-10-27T16:51:06.853943",
  "input_params": {
    "keyword": "맛집",
    "page": 1,
    "radius": 1000,
    "size": 10,
    "sort": "distance",
    "x": 127.2389,
    "y": 37.9194
  },
  "raw_args": {
    "size": 10,
    "x": 127.2389,
    "y": 37.9194,
    "page": 1,
    "sort": "distance",
    "keyword": "맛집",
    "radius": 1000
  },
  "data": {
    "keyword": "맛집",
    "total_count": 7,
    "places": [
      {
        "name": "프롬스톤",
        "latitude": 37.9224485789192,
        "longitude": 127.240066132223,
        "address": "경기 포천시 신북면 기지리 282",
        "road_address": "경기 포천시 신북면 아트밸리로 234",
        "phone": "0507-1426-1339",
        "category": "음식점 > 카페",
        "distance": "353"
      },
      {
        "name": "예하",
        "latitude": 37.92231063520286,
        "longitude": 127.23700399141794,
        "address": "경기 포천시 신북면 기지리 282-14",
        "road_address": "경기 포천시 신북면 아트밸리로 218",
        "phone": "",
        "category": "음식점 > 간식 > 제과,베이커리",
        "distance": "363"
      },
      {
        "name": "육칼순포천버섯육개장 신북점",
        "latitude": 37.92315263007018,
        "longitude": 127.23719435530462,
        "address": "경기 포천시 신북면 기지리 282",
        "road_address": "경기 포천시 신북면 아트밸리로 234",
        "phone": "",
        "category": "음식점 > 한식 > 국밥",
        "distance": "442"
      },
      {
        "name": "내가키운쌈밥",
        "latitude": 37.92330581365449,
        "longitude": 127.23538760552373,
        "address": "경기 포천시 신북면 기지리 294",
        "road_address": "경기 포천시 신북면 아트밸리로 200",
        "phone": "031-534-9539",
        "category": "음식점 > 한식 > 쌈밥",
        "distance": "532"
      },
      {
        "name": "달사랑 카페",
        "latitude": 37.923541307104,
        "longitude": 127.234310149289,
        "address": "경기 포천시 신북면 기지리 283",
        "road_address": "경기 포천시 신북면 아트밸리로 196",
        "phone": "010-7250-9560",
        "category": "음식점 > 카페",
        "distance": "611"
      },
      {
        "name": "빵명장 본사직영점",
        "latitude": 37.9243910833393,
        "longitude": 127.235118098061,
        "address": "경기 포천시 신북면 기지리 278-2",
        "road_address": "경기 포천시 신북면 아트밸리로 189-2",
        "phone": "",
        "category": "음식점 > 간식 > 제과,베이커리",
        "distance": "646"
      },
      {
        "name": "화목칼국수 포천아트밸리점",
        "latitude": 37.9244100143042,
        "longitude": 127.235112471526,
        "address": "경기 포천시 신북면 기지리 278-2",
        "road_address": "경기 포천시 신북면 아트밸리로 189-2",
        "phone": "031-531-9555",
        "category": "음식점 > 한식 > 국수 > 칼국수",
        "distance": "648"
      }
    ]
  }
}