{
  "key": "8437704a1fc6dbb927fa678fd3730dab03b7d0e3f36f5d46b4e8f2652886afdb",
  "tool": "PlaceSearch_kakao",
  "created_at": "2025-10-27T12:25:58.071205",
  "input_params": {
    "keyword": "맛집",
    "radius": 1000,
    "sort": "accuracy",
    "x": 127.216475764948,
    "y": 37.6360236390492
  },
  "raw_args": {
    "keyword": "맛집",
    "x": 127.216475764948,
    "y": 37.6360236390492,
    "radius": 1000,
    "sort": "accuracy"
  },
  "data": {
    "keyword": "맛집",
    "total_count": 114,
    "places": [
      {
        "name": "태능배갈비",
        "latitude": 37.6353160633072,
        "longitude": 127.215164031511,
        "address": "경기 남양주시 금곡동 185-18",
        "road_address": "경기 남양주시 경춘로 1023",
        "phone": "031-559-8588",
        "category": "음식점 > 한식 > 육류,고기 > 갈비",
        "distance": "139"
      },
      {
        "name": "어랑손만두국",
        "latitude": 37.63628665040511,
        "longitude": 127.22423501355276,
        "address": "경기 남양주시 금곡동 14",
        "road_address": "경기 남양주시 경춘로 1084-25",
        "phone": "031-592-2959",
        "category": "음식점 > 한식",
        "distance": "685"
      },
      {
        "name": "자매의정부부대찌개",
        "latitude": 37.63600420652304,
        "longitude": 127.21379174473508,
        "address": "경기 남양주시 금곡동 158-1",
        "road_address": "경기 남양주시 사릉로34번길 48",
        "phone": "031-593-1195",
        "category": "음식점 > 한식 > 찌개,전골",
        "distance": "236"
      },
      {
        "name": "목우촌생삼겹살",
        "latitude": 37.6353572418023,
        "longitude": 127.212327262392,
        "address": "경기 남양주시 금곡동 158-92",
        "road_address": "경기 남양주시 경춘로995번길 6-7",
        "phone": "031-595-8896",
        "category": "음식점 > 한식",
        "distance": "373"
      },
      {
        "name": "청담김밥 금곡본점",
        "latitude": 37.6349397415836,
        "longitude": 127.212017915786,
        "address": "경기 남양주시 금곡동 158-14",
        "road_address": "경기 남양주시 경춘로 997",
        "phone": "",
        "category": "음식점 > 분식",
        "distance": "411"
      },
      {
        "name": "오가네아구찜",
        "latitude": 37.6359886906951,
        "longitude": 127.213901596625,
        "address": "경기 남양주시 금곡동 158-1",
        "road_address": "경기 남양주시 사릉로34번길 48",
        "phone": "031-591-5501",
        "category": "음식점 > 한식 > 해물,생선 > 아구",
        "distance": "227"
      },
      {
        "name": "승희네집밥",
        "latitude": 37.6362547144146,
        "longitude": 127.21426943699,
        "address": "경기 남양주시 금곡동 166-1",
        "road_address": "경기 남양주시 경춘로1015번길 13",
        "phone": "",
        "category": "음식점 > 한식",
        "distance": "196"
      },
      {
        "name": "간단한끼",
        "latitude": 37.6356333550921,
        "longitude": 127.212098059902,
        "address": "경기 남양주시 금곡동 158-6",
        "road_address": "경기 남양주시 경춘로995번길 12",
        "phone": "",
        "category": "음식점 > 분식",
        "distance": "388"
      },
      {
        "name": "원조공릉동멸치국수 금곡점",
        "latitude": 37.6355299650025,
        "longitude": 127.214466754158,
        "address": "경기 남양주시 금곡동 185-69",
        "road_address": "경기 남양주시 경춘로1015번길 8",
        "phone": "031-594-2901",
        "category": "음식점 > 한식 > 국수",
        "distance": "185"
      },
      {
        "name": "청기와곱창",
        "latitude": 37.6353146141004,
        "longitude": 127.211982726783,
        "address": "경기 남양주시 금곡동 158-89",
        "road_address": "경기 남양주시 경춘로995번길 6-3",
        "phone": "031-591-4585",
        "category": "음식점 > 한식 > 육류,고기 > 곱창,막창",
        "distance": "404"
      },
      {
        "name": "본죽&비빔밥cafe 남양주금곡점",
        "latitude": 37.634477200183916,
        "longitude": 127.21120089261825,
        "address": "경기 남양주시 금곡동 153-1",
        "road_address": "경기 남양주시 금곡로 72",
        "phone": "031-593-7357",
        "category": "음식점 > 퓨전요리 > 퓨전한식 > 본죽&비빔밥cafe",
        "distance": "496"
      },
      {
        "name": "배스킨라빈스 남양주금곡점",
        "latitude": 37.634851806713534,
        "longitude": 127.2123178936564,
        "address": "경기 남양주시 금곡동 158-14",
        "road_address": "경기 남양주시 경춘로 997",
        "phone": "031-592-1131",
        "category": "음식점 > 간식 > 아이스크림 > 배스킨라빈스",
        "distance": "389"
      },
      {
        "name": "맛있는해장국",
        "latitude": 37.63439850196885,
        "longitude": 127.21237891491245,
        "address": "경기 남양주시 금곡동 154-20",
        "road_address": "경기 남양주시 경춘로 998",
        "phone": "031-595-3440",
        "category": "음식점 > 한식 > 해장국",
        "distance": "404"
      },
      {
        "name": "초막집",
        "latitude": 37.635798585143306,
        "longitude": 127.20836206309232,
        "address": "경기 남양주시 금곡동 406-1",
        "road_address": "경기 남양주시 사릉로 32",
        "phone": "031-559-3495",
        "category": "음식점 > 한식 > 육류,고기 > 곱창,막창",
        "distance": "716"
      },
      {
        "name": "나능이 금곡점",
        "latitude": 37.6353181485961,
        "longitude": 127.214017500397,
        "address": "경기 남양주시 금곡동 158-66",
        "road_address": "경기 남양주시 경춘로1015번길 3",
        "phone": "031-593-2881",
        "category": "음식점 > 한식 > 육류,고기 > 닭요리",
        "distance": "230"
      }
    ]
  }
}