{
  "key": "b50b959d524f6ae687eacd92dd08f136cfaa34ee3fd2c271236bdb3daff6ba90",
  "tool": "PlaceSearch_kakao",
  "created_at": "2025-10-15T15:38:04.488319",
  "input_params": {
    "keyword": "카페 시흥시청",
    "sort": "accuracy"
  },
  "raw_args": {
    "keyword": "카페 시흥시청"
  },
  "data": {
    "keyword": "카페 시흥시청",
    "total_count": 201,
    "places": [
      {
        "name": "일리카페 시흥시청점",
        "latitude": 37.3780408354557,
        "longitude": 126.802389336574,
        "address": "경기 시흥시 장현동 677",
        "road_address": "경기 시흥시 시청전원마을길 21",
        "phone": "0503-7150-4570",
        "category": "음식점 > 카페 > 커피전문점 > 일리카페",
        "distance": ""
      },
      {
        "name": "커피와케이크",
        "latitude": 37.3820583096863,
        "longitude": 126.801202251008,
        "address": "경기 시흥시 장현동 532-4",
        "road_address": "경기 시흥시 시청로72번길 21",
        "phone": "010-4040-4259",
        "category": "음식점 > 카페",
        "distance": ""
      },
      {
        "name": "비긴어게인",
        "latitude": 37.3820651304127,
        "longitude": 126.800971892324,
        "address": "경기 시흥시 장현동 532-6",
        "road_address": "경기 시흥시 새재로17번길 18",
        "phone": "010-5839-5326",
        "category": "음식점 > 카페 > 커피전문점",
        "distance": ""
      },
      {
        "name": "섬김",
        "latitude": 37.3823038116638,
        "longitude": 126.80145452682262,
        "address": "경기 시흥시 장현동 531-3",
        "road_address": "경기 시흥시 시청로72번길 25-1",
        "phone": "031-317-3805",
        "category": "음식점 > 카페",
        "distance": ""
      },
      {
        "name": "더낭",
        "latitude": 37.38198987378454,
        "longitude": 126.80230219440723,
        "address": "경기 시흥시 장현동 548-3",
        "road_address": "경기 시흥시 시청로68번길 30",
        "phone": "",
        "category": "음식점 > 카페 > 테마카페 > 갤러리카페",
        "distance": ""
      },
      {
        "name": "가온누리 시흥점",
        "latitude": 37.38012619968995,
        "longitude": 126.803167454769,
        "address": "경기 시흥시 장현동 300",
        "road_address": "경기 시흥시 시청로 20",
        "phone": "",
        "category": "음식점 > 카페",
        "distance": ""
      },
      {
        "name": "라스베이글 시흥시청지점",
        "latitude": 37.3789489796679,
        "longitude": 126.802876972082,
        "address": "경기 시흥시 장현동 671-2",
        "road_address": "경기 시흥시 시청로 37",
        "phone": "",
        "category": "음식점 > 카페",
        "distance": ""
      },
      {
        "name": "이엘리웃 에스프레소바",
        "latitude": 37.3816207061113,
        "longitude": 126.799773947492,
        "address": "경기 시흥시 장현동 536-10",
        "road_address": "경기 시흥시 새재로7번길 22",
        "phone": "0503-7152-4505",
        "category": "음식점 > 카페",
        "distance": ""
      },
      {
        "name": "메가MGC커피 시흥시청점",
        "latitude": 37.3812589141061,
        "longitude": 126.801626647954,
        "address": "경기 시흥시 장현동 544-1",
        "road_address": "경기 시흥시 새재로17번길 7",
        "phone": "031-315-0930",
        "category": "음식점 > 카페 > 커피전문점 > 메가MGC커피",
        "distance": ""
      },
      {
        "name": "투썸플레이스 시흥시청점",
        "latitude": 37.3815340677286,
        "longitude": 126.802368879535,
        "address": "경기 시흥시 장현동 547-1",
        "road_address": "경기 시흥시 새재로 23-2",
        "phone": "031-315-8811",
        "category": "음식점 > 카페 > 커피전문점 > 투썸플레이스",
        "distance": ""
      },
      {
        "name": "빽다방 시흥시청점",
        "latitude": 37.37902764329338,
        "longitude": 126.80358356744095,
        "address": "경기 시흥시 장현동 671-4",
        "road_address": "경기 시흥시 시청로 33",
        "phone": "070-8770-4793",
        "category": "음식점 > 카페 > 커피전문점 > 빽다방",
        "distance": ""
      },
      {
        "name": "하삼동커피 시흥시청점",
        "latitude": 37.3789129445512,
        "longitude": 126.802880453616,
        "address": "경기 시흥시 장현동 671-2",
        "road_address": "경기 시흥시 시청로 37",
        "phone": "031-311-1116",
        "category": "음식점 > 카페 > 커피전문점 > 하삼동커피",
        "distance": ""
      },
      {
        "name": "컴포즈커피 시흥시청점",
        "latitude": 37.3815358716531,
        "longitude": 126.802370003914,
        "address": "경기 시흥시 장현동 547-1",
        "road_address": "경기 시흥시 새재로 23-2",
        "phone": "031-315-8080",
        "category": "음식점 > 카페 > 커피전문점 > 컴포즈커피",
        "distance": ""
      },
      {
        "name": "커피에반하다 시흥시청점",
        "latitude": 37.3806661875741,
        "longitude": 126.80171402084,
        "address": "경기 시흥시 장현동 543-4",
        "road_address": "경기 시흥시 새재로 11",
        "phone": "031-315-0550",
        "category": "음식점 > 카페 > 커피전문점 > 커피에반하다",
        "distance": ""
      },
      {
        "name": "구구까까베이커리",
        "latitude": 37.3812232555286,
        "longitude": 126.79971516146,
        "address": "경기 시흥시 장현동 537-8",
        "road_address": "경기 시흥시 시청로72번길 3-6",
        "phone": "031-311-6071",
        "category": "음식점 > 카페 > 테마카페 > 디저트카페",
        "distance": ""
      }
    ]
  }
}