{
  "key": "52a43e1a784798ef1d04b1af39d6d7af3154d0b4b80ff10a75b63b083ee5d77e",
  "tool": "PlaceSearch_kakao",
  "created_at": "2025-10-26T10:31:19.393191",
  "input_params": {
    "keyword": "대학교",
    "radius": 1000,
    "sort": "accuracy",
    "x": 126.97842,
    "y": 37.57726
  },
  "raw_args": {
    "keyword": "대학교",
    "x": 126.97842,
    "y": 37.57726,
    "radius": 1000,
    "sort": "accuracy"
  },
  "data": {
    "keyword": "대학교",
    "total_count": 30,
    "places": [
      {
        "name": "덕성여자대학교 종로운현캠퍼스",
        "latitude": 37.57558768471253,
        "longitude": 126.98783624824469,
        "address": "서울 종로구 운니동 114-7",
        "road_address": "서울 종로구 삼일대로 460",
        "phone": "02-901-8000",
        "category": "교육,학문 > 학교 > 대학교",
        "distance": "852"
      },
      {
        "name": "숭실사이버대학교 종로캠퍼스",
        "latitude": 37.5744065878306,
        "longitude": 126.988924311995,
        "address": "서울 종로구 익선동 34",
        "road_address": "서울 종로구 삼일대로30길 23",
        "phone": "02-708-7700",
        "category": "교육,학문 > 학교 > 사이버대학",
        "distance": "980"
      },
      {
        "name": "조계사불교대학",
        "latitude": 37.5729965355341,
        "longitude": 126.981715950611,
        "address": "서울 종로구 수송동 46-22",
        "road_address": "서울 종로구 우정국로 45-19",
        "phone": "02-768-8580",
        "category": "교육,학문 > 학교 > 종교학교",
        "distance": "555"
      },
      {
        "name": "동산불교대학",
        "latitude": 37.572920928052,
        "longitude": 126.982214048189,
        "address": "서울 종로구 수송동 46-20",
        "road_address": "서울 종로구 우정국로 45-11",
        "phone": "02-732-1206",
        "category": "교육,학문 > 학교 > 종교학교",
        "distance": "586"
      },
      {
        "name": "동방불교대학",
        "latitude": 37.5773030759307,
        "longitude": 126.980383590053,
        "address": "서울 종로구 사간동 112",
        "road_address": "서울 종로구 율곡로1길 31",
        "phone": "02-745-2030",
        "category": "교육,학문 > 학교 > 종교학교",
        "distance": "173"
      },
      {
        "name": "국민대학교 동문회관",
        "latitude": 37.5793466880338,
        "longitude": 126.97219574138,
        "address": "서울 종로구 통의동 91-26",
        "road_address": "서울 종로구 자하문로10길 14",
        "phone": "",
        "category": "부동산 > 빌딩",
        "distance": "596"
      },
      {
        "name": "덕성여자대학교 평생교육원",
        "latitude": 37.57551296368622,
        "longitude": 126.98844869251592,
        "address": "서울 종로구 운니동 114-7",
        "road_address": "서울 종로구 삼일대로 460",
        "phone": "02-765-1846",
        "category": "교육,학문 > 교육단체 > 평생교육원,사회교육원",
        "distance": "906"
      },
      {
        "name": "동국대학교석림회",
        "latitude": 37.5750581409892,
        "longitude": 126.982571261468,
        "address": "서울 종로구 견지동 13",
        "road_address": "서울 종로구 우정국로 67",
        "phone": "02-733-8985",
        "category": "가정,생활 > 친목 > 동창회,동문회",
        "distance": "440"
      },
      {
        "name": "덕성여자대학교 교육대학원",
        "latitude": 37.5753398647769,
        "longitude": 126.98739366304,
        "address": "서울 종로구 운니동 114-7",
        "road_address": "서울 종로구 삼일대로 460",
        "phone": "02-741-5813",
        "category": "교육,학문 > 학교 > 대학원",
        "distance": "820"
      },
      {
        "name": "배화여자대학교 부속 배화유치원",
        "latitude": 37.57902581652171,
        "longitude": 126.96816335492834,
        "address": "서울 종로구 필운동 12",
        "road_address": "서울 종로구 필운대로1길 34",
        "phone": "02-737-1433",
        "category": "교육,학문 > 유아교육 > 유치원",
        "distance": "926"
      },
      {
        "name": "배화여자대학교 운동장",
        "latitude": 37.5784536185584,
        "longitude": 126.967916804755,
        "address": "서울 종로구 누하동 149",
        "road_address": "서울 종로구 필운대로1길 34",
        "phone": "",
        "category": "스포츠,레저 > 스포츠시설 > 운동장",
        "distance": "937"
      },
      {
        "name": "한국원격대학협의회",
        "latitude": 37.5725640253393,
        "longitude": 126.981506637729,
        "address": "서울 종로구 수송동 58",
        "road_address": "서울 종로구 삼봉로 81",
        "phone": "02-723-6574",
        "category": "사회,공공기관 > 단체,협회",
        "distance": "588"
      },
      {
        "name": "국립세무대학 총동문회",
        "latitude": 37.574436582449,
        "longitude": 126.973560520152,
        "address": "서울 종로구 적선동 156",
        "road_address": "서울 종로구 새문안로5가길 28",
        "phone": "02-734-8732",
        "category": "가정,생활 > 친목 > 동창회,동문회",
        "distance": "531"
      },
      {
        "name": "덕성여자대학교 문화산업대학원",
        "latitude": 37.575357885152,
        "longitude": 126.987398188141,
        "address": "서울 종로구 운니동 114-7",
        "road_address": "서울 종로구 삼일대로 460",
        "phone": "02-741-5831",
        "category": "교육,학문 > 학교 > 대학원",
        "distance": "820"
      },
      {
        "name": "덕성여자대학교 상담산업대학원",
        "latitude": 37.5766671128482,
        "longitude": 126.988198330152,
        "address": "서울 종로구 운니동 114-7",
        "road_address": "서울 종로구 삼일대로 460",
        "phone": "02-901-8000",
        "category": "교육,학문 > 학교 > 대학원",
        "distance": "866"
      }
    ]
  }
}