{
  "key": "071ec7156b11cb2979e32d91611d42ceaa3b4cef34d1cd08e14f456f1319f558",
  "tool": "PlaceSearch_kakao",
  "created_at": "2025-12-15T14:52:54.197038",
  "input_params": {
    "keyword": "애플 매장",
    "radius": 5000,
    "size": 5,
    "sort": "accuracy",
    "x": 127.0456,
    "y": 37.5177
  },
  "raw_args": {
    "keyword": "애플 매장",
    "size": 5,
    "x": 127.0456,
    "y": 37.5177,
    "radius": 5000
  },
  "data": {
    "keyword": "애플 매장",
    "total_count": 159,
    "places": [
      {
        "name": "애플공인서비스센터 유베이스 코엑스센터",
        "latitude": 37.51217452148478,
        "longitude": 127.05946086642447,
        "address": "서울 강남구 삼성동 159",
        "road_address": "서울 강남구 영동대로 513",
        "phone": "1566-8514",
        "category": "가정,생활 > 전자제품 > 전자제품서비스센터 > 통신기기수리 > Apple 공인서비스센터",
        "distance": "1370"
      },
      {
        "name": "Apple 가로수길",
        "latitude": 37.520819816124934,
        "longitude": 127.02272940977892,
        "address": "서울 강남구 신사동 534-19",
        "road_address": "서울 강남구 가로수길 43",
        "phone": "080-500-0029",
        "category": "가정,생활 > 전자제품 > 전자제품서비스센터 > 통신기기수리 > Apple 공인서비스센터",
        "distance": "2051"
      },
      {
        "name": "Apple 강남",
        "latitude": 37.5036902997713,
        "longitude": 127.025310702725,
        "address": "서울 강남구 역삼동 809",
        "road_address": "서울 강남구 강남대로 464",
        "phone": "080-500-0456",
        "category": "가정,생활 > 전자제품 > 전자제품서비스센터 > 통신기기수리 > Apple 공인서비스센터",
        "distance": "2373"
      },
      {
        "name": "a#shop 현대백화점무역센터점",
        "latitude": 37.50840101038459,
        "longitude": 127.05966824338046,
        "address": "서울 강남구 삼성동 159-7",
        "road_address": "서울 강남구 테헤란로 517",
        "phone": "02-3467-8373",
        "category": "가정,생활 > 전자제품 > 전자제품판매 > a#shop",
        "distance": "1616"
      },
      {
        "name": "a#shop 현대백화점압구정점",
        "latitude": 37.52733395706555,
        "longitude": 127.02747043826793,
        "address": "서울 강남구 압구정동 429",
        "road_address": "서울 강남구 압구정로 165",
        "phone": "02-3449-5474",
        "category": "가정,생활 > 전자제품 > 전자제품판매 > a#shop",
        "distance": "1926"
      }
    ]
  }
}