{
  "key": "07e9de6df6c36569b5d51af2e828ba2674cabd9971f779252817c5b31c7f13bd",
  "tool": "PlaceSearch_kakao",
  "created_at": "2025-11-04T05:13:44.152083",
  "input_params": {
    "keyword": "시흥시청 맛집",
    "sort": "accuracy"
  },
  "raw_args": {
    "keyword": "시흥시청 맛집"
  },
  "data": {
    "keyword": "시흥시청 맛집",
    "total_count": 816,
    "places": [
      {
        "name": "김가네낙지",
        "latitude": 37.3808977443241,
        "longitude": 126.80117369971,
        "address": "경기 시흥시 장현동 544-5",
        "road_address": "경기 시흥시 새재로7번길 6-1",
        "phone": "031-317-0688",
        "category": "음식점 > 한식 > 해물,생선",
        "distance": ""
      },
      {
        "name": "선도아구찜탕",
        "latitude": 37.3817464892232,
        "longitude": 126.802237344597,
        "address": "경기 시흥시 장현동 546-1",
        "road_address": "경기 시흥시 시청로68번길 26",
        "phone": "",
        "category": "음식점 > 한식 > 해물,생선 > 아구",
        "distance": ""
      },
      {
        "name": "배스킨라빈스 시흥시청점",
        "latitude": 37.38093992042698,
        "longitude": 126.79947089939841,
        "address": "경기 시흥시 장현동 538-3",
        "road_address": "경기 시흥시 시청로 74",
        "phone": "031-312-9945",
        "category": "음식점 > 간식 > 아이스크림 > 배스킨라빈스",
        "distance": ""
      },
      {
        "name": "오 왕서방짬뽕",
        "latitude": 37.3811410423075,
        "longitude": 126.802261516649,
        "address": "경기 시흥시 장현동 547-5",
        "road_address": "경기 시흥시 새재로 19",
        "phone": "031-404-3700",
        "category": "음식점 > 중식 > 중국요리",
        "distance": ""
      },
      {
        "name": "시흥감자탕 시흥장현점",
        "latitude": 37.3808400259597,
        "longitude": 126.801142237219,
        "address": "경기 시흥시 장현동 544-5",
        "road_address": "경기 시흥시 새재로7번길 6-1",
        "phone": "031-318-5237",
        "category": "음식점 > 한식 > 감자탕",
        "distance": ""
      },
      {
        "name": "이루다제면소 시흥시청직영점",
        "latitude": 37.3785597641041,
        "longitude": 126.802352973934,
        "address": "경기 시흥시 장현동 673-2",
        "road_address": "경기 시흥시 시청전원마을길 3-1",
        "phone": "",
        "category": "음식점 > 일식 > 돈까스,우동",
        "distance": ""
      },
      {
        "name": "브라보",
        "latitude": 37.3807004679395,
        "longitude": 126.801738770794,
        "address": "경기 시흥시 장현동 543-4",
        "road_address": "경기 시흥시 새재로 11",
        "phone": "",
        "category": "음식점",
        "distance": ""
      },
      {
        "name": "마주생태탕",
        "latitude": 37.3820033134277,
        "longitude": 126.800646869127,
        "address": "경기 시흥시 장현동 533-2",
        "road_address": "경기 시흥시 새재로17번길 19",
        "phone": "031-317-1500",
        "category": "음식점 > 한식 > 해물,생선 > 매운탕,해물탕",
        "distance": ""
      },
      {
        "name": "뜨는청국장시대 장현2호점",
        "latitude": 37.3816076788188,
        "longitude": 126.801131177277,
        "address": "경기 시흥시 장현동 534-1",
        "road_address": "경기 시흥시 시청로72번길 16",
        "phone": "031-503-5257",
        "category": "음식점 > 한식 > 찌개,전골",
        "distance": ""
      },
      {
        "name": "만랩커피 시흥시청점",
        "latitude": 37.3820317422762,
        "longitude": 126.800407420333,
        "address": "경기 시흥시 장현동 533-8",
        "road_address": "경기 시흥시 시청로80번길 16",
        "phone": "031-317-0715",
        "category": "음식점 > 카페",
        "distance": ""
      },
      {
        "name": "장현족발",
        "latitude": 37.38091144937925,
        "longitude": 126.80128657389537,
        "address": "경기 시흥시 장현동 544-5",
        "road_address": "경기 시흥시 새재로7번길 6-1",
        "phone": "031-317-8989",
        "category": "음식점 > 한식 > 육류,고기 > 족발,보쌈",
        "distance": ""
      },
      {
        "name": "삼형제시골순대",
        "latitude": 37.3814206995292,
        "longitude": 126.801389108415,
        "address": "경기 시흥시 장현동 545-1",
        "road_address": "경기 시흥시 새재로17번길 9",
        "phone": "031-317-1542",
        "category": "음식점 > 한식 > 순대",
        "distance": ""
      },
      {
        "name": "가마솥한식뷔페",
        "latitude": 37.3810530762545,
        "longitude": 126.801385561509,
        "address": "경기 시흥시 장현동 544-3",
        "road_address": "경기 시흥시 새재로7번길 6-2",
        "phone": "031-311-6978",
        "category": "음식점 > 뷔페 > 한식뷔페",
        "distance": ""
      },
      {
        "name": "케이크로버",
        "latitude": 37.3816858832745,
        "longitude": 126.799953303529,
        "address": "경기 시흥시 장현동 536-1",
        "road_address": "경기 시흥시 시청로72번길 11-7",
        "phone": "010-6216-0563",
        "category": "음식점 > 간식 > 제과,베이커리",
        "distance": ""
      },
      {
        "name": "메가MGC커피 시흥시청점",
        "latitude": 37.3812589141061,
        "longitude": 126.801626647954,
        "address": "경기 시흥시 장현동 544-1",
        "road_address": "경기 시흥시 새재로17번길 7",
        "phone": "031-315-0930",
        "category": "음식점 > 카페 > 커피전문점 > 메가MGC커피",
        "distance": ""
      }
    ]
  }
}