{
  "key": "07fc9bacef9a7f2347920bbd532abdaf456fb07a229ebdcb497806647b8fa2e4",
  "tool": "PlaceSearch_kakao",
  "created_at": "2025-12-16T02:58:11.187177",
  "input_params": {
    "keyword": "병원",
    "radius": 1000,
    "sort": "distance",
    "x": 127.057733,
    "y": 37.584828
  },
  "raw_args": {
    "keyword": "병원",
    "x": 127.057733,
    "y": 37.584828,
    "radius": 1000,
    "sort": "distance"
  },
  "data": {
    "keyword": "병원",
    "total_count": 131,
    "places": [
      {
        "name": "성요한의원",
        "latitude": 37.58810629883476,
        "longitude": 127.05546557759854,
        "address": "서울 동대문구 휘경동 312-35",
        "road_address": "서울 동대문구 망우로 19",
        "phone": "02-928-6660",
        "category": "의료,건강 > 병원 > 일반의원",
        "distance": "415"
      },
      {
        "name": "서울인치과의원",
        "latitude": 37.583049914877776,
        "longitude": 127.05353943331397,
        "address": "서울 동대문구 전농동 124-66",
        "road_address": "서울 동대문구 전농로 211",
        "phone": "02-933-7528",
        "category": "의료,건강 > 병원 > 치과",
        "distance": "419"
      },
      {
        "name": "루트재활의학과의원",
        "latitude": 37.588624831309424,
        "longitude": 127.05824786524548,
        "address": "서울 동대문구 휘경동 380",
        "road_address": "서울 동대문구 망우로 46",
        "phone": "02-2246-7744",
        "category": "의료,건강 > 병원 > 재활의학과",
        "distance": "424"
      },
      {
        "name": "서울저스트치과의원",
        "latitude": 37.5887597135072,
        "longitude": 127.058785783234,
        "address": "서울 동대문구 휘경동 380",
        "road_address": "서울 동대문구 망우로 46",
        "phone": "02-2213-8222",
        "category": "의료,건강 > 병원 > 치과",
        "distance": "446"
      },
      {
        "name": "체감한의원",
        "latitude": 37.5890937075223,
        "longitude": 127.057513405126,
        "address": "서울 동대문구 휘경동 369",
        "road_address": "서울 동대문구 망우로 35",
        "phone": "02-964-7510",
        "category": "의료,건강 > 병원 > 한의원",
        "distance": "474"
      },
      {
        "name": "도연정신건강의학과의원",
        "latitude": 37.58899554699927,
        "longitude": 127.05923886519524,
        "address": "서울 동대문구 휘경동 281-57",
        "road_address": "서울 동대문구 망우로12길 1",
        "phone": "02-2242-8992",
        "category": "의료,건강 > 병원 > 정신건강의학과",
        "distance": "481"
      },
      {
        "name": "경남한의원",
        "latitude": 37.58885175134132,
        "longitude": 127.05475508464667,
        "address": "서울 동대문구 휘경동 336-4",
        "road_address": "서울 동대문구 이문로 12",
        "phone": "02-967-4815",
        "category": "의료,건강 > 병원 > 한의원",
        "distance": "518"
      },
      {
        "name": "서울 앤플란트치과의원",
        "latitude": 37.589775195254,
        "longitude": 127.056816461656,
        "address": "서울 동대문구 휘경동 319-13",
        "road_address": "서울 동대문구 회기로 188",
        "phone": "02-964-7528",
        "category": "의료,건강 > 병원 > 치과",
        "distance": "555"
      },
      {
        "name": "서울프라임치과의원",
        "latitude": 37.5898129161971,
        "longitude": 127.057066718374,
        "address": "서울 동대문구 휘경동 319-37",
        "road_address": "서울 동대문구 회기로 190-1",
        "phone": "02-960-2857",
        "category": "의료,건강 > 병원 > 치과",
        "distance": "556"
      },
      {
        "name": "삼육치과병원 개방화장실",
        "latitude": 37.587501424508,
        "longitude": 127.063245734773,
        "address": "서울 동대문구 휘경동 20",
        "road_address": "서울 동대문구 망우로 82",
        "phone": "",
        "category": "가정,생활 > 화장실",
        "distance": "570"
      },
      {
        "name": "삼육치과병원",
        "latitude": 37.58749331133146,
        "longitude": 127.06325365343766,
        "address": "서울 동대문구 휘경동 29-1",
        "road_address": "서울 동대문구 망우로 82",
        "phone": "02-3407-2875",
        "category": "의료,건강 > 병원 > 치과",
        "distance": "570"
      },
      {
        "name": "최묘경의원",
        "latitude": 37.5891566474931,
        "longitude": 127.061349495017,
        "address": "서울 동대문구 휘경동 276-40",
        "road_address": "서울 동대문구 망우로16길 21",
        "phone": "02-2213-5197",
        "category": "의료,건강 > 병원 > 가정의학과",
        "distance": "577"
      },
      {
        "name": "보스톤클래식치과",
        "latitude": 37.5841970401883,
        "longitude": 127.051144586177,
        "address": "서울 동대문구 전농동 591-92",
        "road_address": "서울 동대문구 왕산로 214",
        "phone": "",
        "category": "의료,건강 > 병원",
        "distance": "585"
      },
      {
        "name": "고려척척마취통증의학과의원",
        "latitude": 37.5900727613455,
        "longitude": 127.056318494541,
        "address": "서울 동대문구 휘경동 320-7",
        "road_address": "서울 동대문구 이문로 30",
        "phone": "02-960-7599",
        "category": "의료,건강 > 병원 > 정형외과",
        "distance": "595"
      },
      {
        "name": "미몽피부과의원",
        "latitude": 37.5900890008007,
        "longitude": 127.056273216466,
        "address": "서울 동대문구 휘경동 320-7",
        "road_address": "서울 동대문구 이문로 30",
        "phone": "02-957-7537",
        "category": "의료,건강 > 병원 > 피부과",
        "distance": "598"
      }
    ]
  }
}