{
  "key": "a0ae61b61a79483a192a9b8d6f1bbae482d02e383aad2bf620de0dbc64dff55d",
  "tool": "POISearch_tmap",
  "created_at": "2025-10-27T16:47:14.450001",
  "input_params": {
    "count": 50,
    "page": 1,
    "searchKeyword": "서울 이마트"
  },
  "raw_args": {
    "searchKeyword": "서울 이마트",
    "count": 50
  },
  "data": {
    "searchPoiInfo": {
      "totalCount": "2890",
      "count": "50",
      "page": "1",
      "pois": {
        "poi": [
          {
            "id": "1528834",
            "pkey": "152883400",
            "navSeq": "0",
            "collectionType": "poi",
            "name": "이마트 신도림점",
            "telNo": "02-6715-1234",
            "frontLat": "37.50751504",
            "frontLon": "126.89072513",
            "noorLat": "37.50673734",
            "noorLon": "126.89033630",
            "pnsLat": "37.50651515",
            "pnsLon": "126.89066961",
            "upperAddrName": "서울",
            "middleAddrName": "구로구",
            "lowerAddrName": "구로동",
            "detailAddrName": "",
            "mlClass": "1",
            "firstNo": "3",
            "secondNo": "25",
            "roadName": "새말로",
            "firstBuildNo": "97",
            "secondBuildNo": "0",
            "radius": "0.0",
            "bizName": "",
            "upperBizName": "쇼핑",
            "middleBizName": "슈퍼\\/마트",
            "lowerBizName": "대형마트",
            "detailBizName": "이마트",
            "rpFlag": "8",
            "parkFlag": "1",
            "detailInfoFlag": "1",
            "desc": "이마트는 국내 최초의 할인점으로서 대한민국 1등 할인점입니다.",
            "dataKind": "",
            "zipCode": "08288",
            "adminDongCode": "1153056000",
            "legalDongCode": "1153010200",
            "newAddressList": {
              "newAddress": [
                {
                  "centerLat": "37.50673734",
                  "centerLon": "126.89033630",
                  "frontLat": "37.50751504",
                  "frontLon": "126.89072513",
                  "roadName": "새말로",
                  "bldNo1": "97",
                  "bldNo2": "0",
                  "roadId": "00378",
                  "fullAddressRoad": "서울 구로구 새말로 97"
                }
              ]
            },
            "evChargers": {
              "evCharger": []
            }
          },
          {
            "id": "1528834",
            "pkey": "152883401",
            "navSeq": "1",
            "collectionType": "poi",
            "name": "이마트 신도림점 주차장",
            "telNo": "02-6715-1234",
            "frontLat": "37.50751504",
            "frontLon": "126.89072513",
            "noorLat": "37.50751504",
            "noorLon": "126.89072513",
            "pnsLat": "37.50751504",
            "pnsLon": "126.89072513",
            "upperAddrName": "서울",
            "middleAddrName": "구로구",
            "lowerAddrName": "구로동",
            "detailAddrName": "",
            "mlClass": "1",
            "firstNo": "3",
            "secondNo": "25",
            "roadName": "새말로",
            "firstBuildNo": "97",
            "secondBuildNo": "0",
            "radius": "0.0",
            "bizName": "",
            "upperBizName": "쇼핑",
            "middleBizName": "슈퍼\\/마트",
            "lowerBizName": "대형마트",
            "detailBizName": "이마트",
            "rpFlag": "8",
            "parkFlag": "0",
            "detailInfoFlag": "1",
            "desc": "이마트는 국내 최초의 할인점으로서 대한민국 1등 할인점입니다.",
            "dataKind": "",
            "zipCode": "08288",
            "adminDongCode": "1153056000",
            "legalDongCode": "1153010200",
            "newAddressList": {
              "newAddress": [
                {
                  "centerLat": "37.50751504",
                  "centerLon": "126.89072513",
                  "frontLat": "37.50751504",
                  "frontLon": "126.89072513",
                  "roadName": "새말로",
                  "bldNo1": "97",
                  "bldNo2": "0",
                  "roadId": "00378",
                  "fullAddressRoad": "서울 구로구 새말로 97"
                }
              ]
            },
            "evChargers": {
              "evCharger": []
            }
          },
          {
            "id": "1528834",
            "pkey": "152883402",
            "navSeq": "2",
            "collectionType": "poi",
            "name": "이마트 신도림점 정문",
            "telNo": "02-6715-1234",
            "frontLat": "37.50618186",
            "frontLon": "126.89103070",
            "noorLat": "37.50618186",
            "noorLon": "126.89103070",
            "pnsLat": "37.50651515",
            "pnsLon": "126.89066961",
            "upperAddrName": "서울",
            "middleAddrName": "구로구",
            "lowerAddrName": "구로동",
            "detailAddrName": "",
            "mlClass": "1",
            "firstNo": "3",
            "secondNo": "25",
            "roadName": "새말로",
            "firstBuildNo": "97",
            "secondBuildNo": "0",
            "radius": "0.0",
            "bizName": "",
            "upperBizName": "쇼핑",
            "middleBizName": "슈퍼\\/마트",
            "lowerBizName": "대형마트",
            "detailBizName": "이마트",
            "rpFlag": "8",
            "parkFlag": "0",
            "detailInfoFlag": "1",
            "desc": "이마트는 국내 최초의 할인점으로서 대한민국 1등 할인점입니다.",
            "dataKind": "",
            "zipCode": "08288",
            "adminDongCode": "1153056000",
            "legalDongCode": "1153010200",
            "newAddressList": {
              "newAddress": [
                {
                  "centerLat": "37.50618186",
                  "centerLon": "126.89103070",
                  "frontLat": "37.50618186",
                  "frontLon": "126.89103070",
                  "roadName": "새말로",
                  "bldNo1": "97",
                  "bldNo2": "0",
                  "roadId": "00378",
                  "fullAddressRoad": "서울 구로구 새말로 97"
                }
              ]
            },
            "evChargers": {
              "evCharger": []
            }
          },
          {
            "id": "209600",
            "pkey": "20960000",
            "navSeq": "0",
            "collectionType": "poi",
            "name": "이마트 구로점",
            "telNo": "02-2009-1212",
            "frontLat": "37.48412898",
            "frontLon": "126.89741962",
            "noorLat": "37.48443451",
            "noorLon": "126.89791957",
            "pnsLat": "37.48412898",
            "pnsLon": "126.89741962",
            "upperAddrName": "서울",
            "middleAddrName": "구로구",
            "lowerAddrName": "구로동",
            "detailAddrName": "",
            "mlClass": "1",
            "firstNo": "188",
            "secondNo": "26",
            "roadName": "디지털로32길",
            "firstBuildNo": "43",
            "secondBuildNo": "0",
            "radius": "0.0",
            "bizName": "",
            "upperBizName": "쇼핑",
            "middleBizName": "슈퍼\\/마트",
            "lowerBizName": "대형마트",
            "detailBizName": "이마트",
            "rpFlag": "16",
            "parkFlag": "1",
            "detailInfoFlag": "1",
            "desc": "이마트는 국내 최초의 할인점으로서 대한민국 1등 할인점입니다.",
            "dataKind": "",
            "zipCode": "08379",
            "adminDongCode": "1153054000",
            "legalDongCode": "1153010200",
            "newAddressList": {
              "newAddress": [
                {
                  "centerLat": "37.48443451",
                  "centerLon": "126.89791957",
                  "frontLat": "37.48412898",
                  "frontLon": "126.89741962",
                  "roadName": "디지털로32길",
                  "bldNo1": "43",
                  "bldNo2": "0",
                  "roadId": "00348",
                  "fullAddressRoad": "서울 구로구 디지털로32길 43"
                }
              ]
            },
            "evChargers": {
              "evCharger": []
            }
          },
          {
            "id": "209600",
            "pkey": "20960002",
            "navSeq": "2",
            "collectionType": "poi",
            "name": "이마트 구로점 정문",
            "telNo": "02-2009-1212",
            "frontLat": "37.48387902",
            "frontLon": "126.89764183",
            "noorLat": "37.48387902",
            "noorLon": "126.89764183",
            "pnsLat": "37.48399012",
            "pnsLon": "126.89769738",
            "upperAddrName": "서울",
            "middleAddrName": "구로구",
            "lowerAddrName": "구로동",
            "detailAddrName": "",
            "mlClass": "1",
            "firstNo": "188",
            "secondNo": "26",
            "roadName": "디지털로32길",
            "firstBuildNo": "43",
            "secondBuildNo": "0",
            "radius": "0.0",
            "bizName": "",
            "upperBizName": "쇼핑",
            "middleBizName": "슈퍼\\/마트",
            "lowerBizName": "대형마트",
            "detailBizName": "이마트",
            "rpFlag": "8",
            "parkFlag": "0",
            "detailInfoFlag": "1",
            "desc": "이마트는 국내 최초의 할인점으로서 대한민국 1등 할인점입니다.",
            "dataKind": "",
            "zipCode": "08379",
            "adminDongCode": "1153054000",
            "legalDongCode": "1153010200",
            "newAddressList": {
              "newAddress": [
                {
                  "centerLat": "37.48387902",
                  "centerLon": "126.89764183",
                  "frontLat": "37.48387902",
                  "frontLon": "126.89764183",
                  "roadName": "디지털로32길",
                  "bldNo1": "43",
                  "bldNo2": "0",
                  "roadId": "00348",
                  "fullAddressRoad": "서울 구로구 디지털로32길 43"
                }
              ]
            },
            "evChargers": {
              "evCharger": []
            }
          },
          {
            "id": "2788728",
            "pkey": "278872800",
            "navSeq": "0",
            "collectionType": "poi",
            "name": "이마트 마포점",
            "telNo": "02-2197-1234",
            "frontLat": "37.54245653",
            "frontLon": "126.95280182",
            "noorLat": "37.54237322",
            "noorLon": "126.95335733",
            "pnsLat": "37.54256764",
            "pnsLon": "126.95327400",
            "upperAddrName": "서울",
            "middleAddrName": "마포구",
            "lowerAddrName": "신공덕동",
            "detailAddrName": "",
            "mlClass": "1",
            "firstNo": "173",
            "secondNo": "0",
            "roadName": "백범로",
            "firstBuildNo": "212",
            "secondBuildNo": "0",
            "radius": "0.0",
            "bizName": "",
            "upperBizName": "쇼핑",
            "middleBizName": "슈퍼\\/마트",
            "lowerBizName": "대형마트",
            "detailBizName": "이마트",
            "rpFlag": "8",
            "parkFlag": "1",
            "detailInfoFlag": "1",
            "desc": "이마트는 국내 최초의 할인점으로서 대한민국 1등 할인점입니다.",
            "dataKind": "",
            "zipCode": "04196",
            "adminDongCode": "1144056500",
            "legalDongCode": "1144010300",
            "newAddressList": {
              "newAddress": [
                {
                  "centerLat": "37.54237322",
                  "centerLon": "126.95335733",
                  "frontLat": "37.54245653",
                  "frontLon": "126.95280182",
                  "roadName": "백범로",
                  "bldNo1": "212",
                  "bldNo2": "0",
                  "roadId": "00232",
                  "fullAddressRoad": "서울 마포구 백범로 212"
                }
              ]
            },
            "evChargers": {
              "evCharger": []
            }
          },
          {
            "id": "2788728",
            "pkey": "278872801",
            "navSeq": "1",
            "collectionType": "poi",
            "name": "이마트 마포점 주차장",
            "telNo": "02-2197-1234",
            "frontLat": "37.54245653",
            "frontLon": "126.95280182",
            "noorLat": "37.54245653",
            "noorLon": "126.95280182",
            "pnsLat": "37.54245653",
            "pnsLon": "126.95280182",
            "upperAddrName": "서울",
            "middleAddrName": "마포구",
            "lowerAddrName": "신공덕동",
            "detailAddrName": "",
            "mlClass": "1",
            "firstNo": "173",
            "secondNo": "0",
            "roadName": "백범로",
            "firstBuildNo": "212",
            "secondBuildNo": "0",
            "radius": "0.0",
            "bizName": "",
            "upperBizName": "쇼핑",
            "middleBizName": "슈퍼\\/마트",
            "lowerBizName": "대형마트",
            "detailBizName": "이마트",
            "rpFlag": "8",
            "parkFlag": "0",
            "detailInfoFlag": "1",
            "desc": "이마트는 국내 최초의 할인점으로서 대한민국 1등 할인점입니다.",
            "dataKind": "",
            "zipCode": "04196",
            "adminDongCode": "1144056500",
            "legalDongCode": "1144010300",
            "newAddressList": {
              "newAddress": [
                {
                  "centerLat": "37.54245653",
                  "centerLon": "126.95280182",
                  "frontLat": "37.54245653",
                  "frontLon": "126.95280182",
                  "roadName": "백범로",
                  "bldNo1": "212",
                  "bldNo2": "0",
                  "roadId": "00232",
                  "fullAddressRoad": "서울 마포구 백범로 212"
                }
              ]
            },
            "evChargers": {
              "evCharger": []
            }
          },
          {
            "id": "2788728",
            "pkey": "278872802",
            "navSeq": "2",
            "collectionType": "poi",
            "name": "이마트 마포점 정문",
            "telNo": "02-2197-1234",
            "frontLat": "37.54273429",
            "frontLon": "126.95335732",
            "noorLat": "37.54273429",
            "noorLon": "126.95335732",
            "pnsLat": "37.54256764",
            "pnsLon": "126.95327400",
            "upperAddrName": "서울",
            "middleAddrName": "마포구",
            "lowerAddrName": "신공덕동",
            "detailAddrName": "",
            "mlClass": "1",
            "firstNo": "173",
            "secondNo": "0",
            "roadName": "백범로",
            "firstBuildNo": "212",
            "secondBuildNo": "0",
            "radius": "0.0",
            "bizName": "",
            "upperBizName": "쇼핑",
            "middleBizName": "슈퍼\\/마트",
            "lowerBizName": "대형마트",
            "detailBizName": "이마트",
            "rpFlag": "8",
            "parkFlag": "0",
            "detailInfoFlag": "1",
            "desc": "이마트는 국내 최초의 할인점으로서 대한민국 1등 할인점입니다.",
            "dataKind": "",
            "zipCode": "04196",
            "adminDongCode": "1144056500",
            "legalDongCode": "1144010300",
            "newAddressList": {
              "newAddress": [
                {
                  "centerLat": "37.54273429",
                  "centerLon": "126.95335732",
                  "frontLat": "37.54273429",
                  "frontLon": "126.95335732",
                  "roadName": "백범로",
                  "bldNo1": "212",
                  "bldNo2": "0",
                  "roadId": "00232",
                  "fullAddressRoad": "서울 마포구 백범로 212"
                }
              ]
            },
            "evChargers": {
              "evCharger": []
            }
          },
          {
            "id": "10123263",
            "pkey": "1012326301",
            "navSeq": "1",
            "collectionType": "poi",
            "name": "이마트 신촌점",
            "telNo": "02-6288-1234",
            "frontLat": "37.55492700",
            "frontLon": "126.93574747",
            "noorLat": "37.55498255",
            "noorLon": "126.93599744",
            "pnsLat": "37.55517698",
            "pnsLon": "126.93624742",
            "upperAddrName": "서울",
            "middleAddrName": "마포구",
            "lowerAddrName": "노고산동",
            "detailAddrName": "",
            "mlClass": "1",
            "firstNo": "57",
            "secondNo": "1",
            "roadName": "신촌로",
            "firstBuildNo": "94",
            "secondBuildNo": "0",
            "radius": "0.0",
            "bizName": "",
            "upperBizName": "쇼핑",
            "middleBizName": "슈퍼\\/마트",
            "lowerBizName": "대형마트",
            "detailBizName": "이마트",
            "rpFlag": "16",
            "parkFlag": "1",
            "detailInfoFlag": "1",
            "desc": "이마트는 국내 최초의 할인점으로서 대한민국 1등 할인점입니다.",
            "dataKind": "",
            "zipCode": "04058",
            "adminDongCode": "1144066000",
            "legalDongCode": "1144011000",
            "newAddressList": {
              "newAddress": [
                {
                  "centerLat": "37.55498255",
                  "centerLon": "126.93599744",
                  "frontLat": "37.55492700",
                  "frontLon": "126.93574747",
                  "roadName": "신촌로",
                  "bldNo1": "94",
                  "bldNo2": "0",
                  "roadId": "00401",
                  "fullAddressRoad": "서울 마포구 신촌로 94"
                }
              ]
            },
            "evChargers": {
              "evCharger": []
            }
          },
          {
            "id": "10123263",
            "pkey": "1012326302",
            "navSeq": "2",
            "collectionType": "poi",
            "name": "이마트 신촌점 주차장",
            "telNo": "02-6288-1234",
            "frontLat": "37.55492700",
            "frontLon": "126.93574747",
            "noorLat": "37.55492700",
            "noorLon": "126.93574747",
            "pnsLat": "37.55492700",
            "pnsLon": "126.93574747",
            "upperAddrName": "서울",
            "middleAddrName": "마포구",
            "lowerAddrName": "노고산동",
            "detailAddrName": "",
            "mlClass": "1",
            "firstNo": "57",
            "secondNo": "1",
            "roadName": "신촌로",
            "firstBuildNo": "94",
            "secondBuildNo": "0",
            "radius": "0.0",
            "bizName": "",
            "upperBizName": "쇼핑",
            "middleBizName": "슈퍼\\/마트",
            "lowerBizName": "대형마트",
            "detailBizName": "이마트",
            "rpFlag": "16",
            "parkFlag": "0",
            "detailInfoFlag": "1",
            "desc": "이마트는 국내 최초의 할인점으로서 대한민국 1등 할인점입니다.",
            "dataKind": "",
            "zipCode": "04058",
            "adminDongCode": "1144066000",
            "legalDongCode": "1144011000",
            "newAddressList": {
              "newAddress": [
                {
                  "centerLat": "37.55492700",
                  "centerLon": "126.93574747",
                  "frontLat": "37.55492700",
                  "frontLon": "126.93574747",
                  "roadName": "신촌로",
                  "bldNo1": "94",
                  "bldNo2": "0",
                  "roadId": "00401",
                  "fullAddressRoad": "서울 마포구 신촌로 94"
                }
              ]
            },
            "evChargers": {
              "evCharger": []
            }
          },
          {
            "id": "10123263",
            "pkey": "1012326303",
            "navSeq": "3",
            "collectionType": "poi",
            "name": "이마트 신촌점 정문",
            "telNo": "02-6288-1234",
            "frontLat": "37.55517698",
            "frontLon": "126.93624742",
            "noorLat": "37.55517698",
            "noorLon": "126.93624742",
            "pnsLat": "37.55517698",
            "pnsLon": "126.93624742",
            "upperAddrName": "서울",
            "middleAddrName": "마포구",
            "lowerAddrName": "노고산동",
            "detailAddrName": "",
            "mlClass": "1",
            "firstNo": "57",
            "secondNo": "1",
            "roadName": "신촌로",
            "firstBuildNo": "94",
            "secondBuildNo": "0",
            "radius": "0.0",
            "bizName": "",
            "upperBizName": "쇼핑",
            "middleBizName": "슈퍼\\/마트",
            "lowerBizName": "대형마트",
            "detailBizName": "이마트",
            "rpFlag": "16",
            "parkFlag": "0",
            "detailInfoFlag": "1",
            "desc": "이마트는 국내 최초의 할인점으로서 대한민국 1등 할인점입니다.",
            "dataKind": "",
            "zipCode": "04058",
            "adminDongCode": "1144066000",
            "legalDongCode": "1144011000",
            "newAddressList": {
              "newAddress": [
                {
                  "centerLat": "37.55517698",
                  "centerLon": "126.93624742",
                  "frontLat": "37.55517698",
                  "frontLon": "126.93624742",
                  "roadName": "신촌로",
                  "bldNo1": "94",
                  "bldNo2": "0",
                  "roadId": "00401",
                  "fullAddressRoad": "서울 마포구 신촌로 94"
                }
              ]
            },
            "evChargers": {
              "evCharger": []
            }
          },
          {
            "id": "1540325",
            "pkey": "154032500",
            "navSeq": "0",
            "collectionType": "poi",
            "name": "이마트 청계천점",
            "telNo": "02-2290-1234",
            "frontLat": "37.57070451",
            "frontLon": "127.02310017",
            "noorLat": "37.57084338",
            "noorLon": "127.02282242",
            "pnsLat": "37.57098226",
            "pnsLon": "127.02310016",
            "upperAddrName": "서울",
            "middleAddrName": "중구",
            "lowerAddrName": "황학동",
            "detailAddrName": "",
            "mlClass": "1",
            "firstNo": "2545",
            "secondNo": "0",
            "roadName": "청계천로",
            "firstBuildNo": "400",
            "secondBuildNo": "0",
            "radius": "0.0",
            "bizName": "",
            "upperBizName": "쇼핑",
            "middleBizName": "슈퍼\\/마트",
            "lowerBizName": "대형마트",
            "detailBizName": "이마트",
            "rpFlag": "8",
            "parkFlag": "1",
            "detailInfoFlag": "1",
            "desc": "이마트는 국내 최초의 할인점으로서 대한민국 1등 할인점입니다.",
            "dataKind": "",
            "zipCode": "04572",
            "adminDongCode": "1114067000",
            "legalDongCode": "1114016500",
            "newAddressList": {
              "newAddress": [
                {
                  "centerLat": "37.57084338",
                  "centerLon": "127.02282242",
                  "frontLat": "37.57070451",
                  "frontLon": "127.02310017",
                  "roadName": "청계천로",
                  "bldNo1": "400",
                  "bldNo2": "0",
                  "roadId": "00315",
                  "fullAddressRoad": "서울 중구 청계천로 400"
                }
              ]
            },
            "evChargers": {
              "evCharger": []
            }
          },
          {
            "id": "1540325",
            "pkey": "154032501",
            "navSeq": "1",
            "collectionType": "poi",
            "name": "이마트 청계천점 주차장1(청계8가사거리\\/롯데캐슬105동방향)",
            "telNo": "02-2290-1234",
            "frontLat": "37.57070451",
            "frontLon": "127.02310017",
            "noorLat": "37.57070451",
            "noorLon": "127.02310017",
            "pnsLat": "37.57070451",
            "pnsLon": "127.02310017",
            "upperAddrName": "서울",
            "middleAddrName": "중구",
            "lowerAddrName": "황학동",
            "detailAddrName": "",
            "mlClass": "1",
            "firstNo": "2545",
            "secondNo": "0",
            "roadName": "청계천로",
            "firstBuildNo": "400",
            "secondBuildNo": "0",
            "radius": "0.0",
            "bizName": "",
            "upperBizName": "쇼핑",
            "middleBizName": "슈퍼\\/마트",
            "lowerBizName": "대형마트",
            "detailBizName": "이마트",
            "rpFlag": "8",
            "parkFlag": "0",
            "detailInfoFlag": "1",
            "desc": "이마트는 국내 최초의 할인점으로서 대한민국 1등 할인점입니다.",
            "dataKind": "",
            "zipCode": "04572",
            "adminDongCode": "1114067000",
            "legalDongCode": "1114016500",
            "newAddressList": {
              "newAddress": [
                {
                  "centerLat": "37.57070451",
                  "centerLon": "127.02310017",
                  "frontLat": "37.57070451",
                  "frontLon": "127.02310017",
                  "roadName": "청계천로",
                  "bldNo1": "400",
                  "bldNo2": "0",
                  "roadId": "00315",
                  "fullAddressRoad": "서울 중구 청계천로 400"
                }
              ]
            },
            "evChargers": {
              "evCharger": []
            }
          },
          {
            "id": "1540325",
            "pkey": "154032502",
            "navSeq": "2",
            "collectionType": "poi",
            "name": "이마트 청계천점 주차장2(롯데캐슬101동방향)",
            "telNo": "02-2290-1234",
            "frontLat": "37.57045449",
            "frontLon": "127.02010045",
            "noorLat": "37.57045449",
            "noorLon": "127.02010045",
            "pnsLat": "37.57045449",
            "pnsLon": "127.02010045",
            "upperAddrName": "서울",
            "middleAddrName": "중구",
            "lowerAddrName": "황학동",
            "detailAddrName": "",
            "mlClass": "1",
            "firstNo": "2545",
            "secondNo": "0",
            "roadName": "청계천로",
            "firstBuildNo": "400",
            "secondBuildNo": "0",
            "radius": "0.0",
            "bizName": "",
            "upperBizName": "쇼핑",
            "middleBizName": "슈퍼\\/마트",
            "lowerBizName": "대형마트",
            "detailBizName": "이마트",
            "rpFlag": "8",
            "parkFlag": "0",
            "detailInfoFlag": "1",
            "desc": "이마트는 국내 최초의 할인점으로서 대한민국 1등 할인점입니다.",
            "dataKind": "",
            "zipCode": "04572",
            "adminDongCode": "1114067000",
            "legalDongCode": "1114016500",
            "newAddressList": {
              "newAddress": [
                {
                  "centerLat": "37.57045449",
                  "centerLon": "127.02010045",
                  "frontLat": "37.57045449",
                  "frontLon": "127.02010045",
                  "roadName": "청계천로",
                  "bldNo1": "400",
                  "bldNo2": "0",
                  "roadId": "00315",
                  "fullAddressRoad": "서울 중구 청계천로 400"
                }
              ]
            },
            "evChargers": {
              "evCharger": []
            }
          },
          {
            "id": "1540325",
            "pkey": "154032503",
            "navSeq": "3",
            "collectionType": "poi",
            "name": "이마트 청계천점 정문",
            "telNo": "02-2290-1234",
            "frontLat": "37.57101004",
            "frontLon": "127.02332237",
            "noorLat": "37.57101004",
            "noorLon": "127.02332237",
            "pnsLat": "37.57098226",
            "pnsLon": "127.02310016",
            "upperAddrName": "서울",
            "middleAddrName": "중구",
            "lowerAddrName": "황학동",
            "detailAddrName": "",
            "mlClass": "1",
            "firstNo": "2545",
            "secondNo": "0",
            "roadName": "청계천로",
            "firstBuildNo": "400",
            "secondBuildNo": "0",
            "radius": "0.0",
            "bizName": "",
            "upperBizName": "쇼핑",
            "middleBizName": "슈퍼\\/마트",
            "lowerBizName": "대형마트",
            "detailBizName": "이마트",
            "rpFlag": "8",
            "parkFlag": "0",
            "detailInfoFlag": "1",
            "desc": "이마트는 국내 최초의 할인점으로서 대한민국 1등 할인점입니다.",
            "dataKind": "",
            "zipCode": "04572",
            "adminDongCode": "1114067000",
            "legalDongCode": "1114016500",
            "newAddressList": {
              "newAddress": [
                {
                  "centerLat": "37.57101004",
                  "centerLon": "127.02332237",
                  "frontLat": "37.57101004",
                  "frontLon": "127.02332237",
                  "roadName": "청계천로",
                  "bldNo1": "400",
                  "bldNo2": "0",
                  "roadId": "00315",
                  "fullAddressRoad": "서울 중구 청계천로 400"
                }
              ]
            },
            "evChargers": {
              "evCharger": []
            }
          },
          {
            "id": "1126199",
            "pkey": "112619900",
            "navSeq": "0",
            "collectionType": "poi",
            "name": "이마트 용산점",
            "telNo": "02-6363-2200",
            "frontLat": "37.53006933",
            "frontLon": "126.96666202",
            "noorLat": "37.52948604",
            "noorLon": "126.96552325",
            "pnsLat": "37.52909720",
            "pnsLon": "126.96546771",
            "upperAddrName": "서울",
            "middleAddrName": "용산구",
            "lowerAddrName": "한강로3가",
            "detailAddrName": "",
            "mlClass": "1",
            "firstNo": "40",
            "secondNo": "999",
            "roadName": "한강대로21나길",
            "firstBuildNo": "17",
            "secondBuildNo": "0",
            "radius": "0.0",
            "bizName": "",
            "upperBizName": "쇼핑",
            "middleBizName": "슈퍼\\/마트",
            "lowerBizName": "대형마트",
            "detailBizName": "이마트",
            "rpFlag": "8",
            "parkFlag": "1",
            "detailInfoFlag": "1",
            "desc": "이마트는 국내 최초의 할인점으로서 대한민국 1등 할인점입니다.",
            "dataKind": "",
            "zipCode": "04377",
            "adminDongCode": "1117062500",
            "legalDongCode": "1117012800",
            "newAddressList": {
              "newAddress": [
                {
                  "centerLat": "37.52948604",
                  "centerLon": "126.96552325",
                  "frontLat": "37.53006933",
                  "frontLon": "126.96666202",
                  "roadName": "한강대로21나길",
                  "bldNo1": "17",
                  "bldNo2": "0",
                  "roadId": "00425",
                  "fullAddressRoad": "서울 용산구 한강대로21나길 17"
                }
              ]
            },
            "evChargers": {
              "evCharger": []
            }
          },
          {
            "id": "1126199",
            "pkey": "112619901",
            "navSeq": "1",
            "collectionType": "poi",
            "name": "이마트 용산점 별주차장(북측)",
            "telNo": "02-6363-2200",
            "frontLat": "37.53006933",
            "frontLon": "126.96666202",
            "noorLat": "37.53006933",
            "noorLon": "126.96666202",
            "pnsLat": "37.53006933",
            "pnsLon": "126.96666202",
            "upperAddrName": "서울",
            "middleAddrName": "용산구",
            "lowerAddrName": "한강로3가",
            "detailAddrName": "",
            "mlClass": "1",
            "firstNo": "40",
            "secondNo": "999",
            "roadName": "한강대로21나길",
            "firstBuildNo": "17",
            "secondBuildNo": "0",
            "radius": "0.0",
            "bizName": "",
            "upperBizName": "쇼핑",
            "middleBizName": "슈퍼\\/마트",
            "lowerBizName": "대형마트",
            "detailBizName": "이마트",
            "rpFlag": "8",
            "parkFlag": "0",
            "detailInfoFlag": "1",
            "desc": "이마트는 국내 최초의 할인점으로서 대한민국 1등 할인점입니다.",
            "dataKind": "",
            "zipCode": "04377",
            "adminDongCode": "1117062500",
            "legalDongCode": "1117012800",
            "newAddressList": {
              "newAddress": [
                {
                  "centerLat": "37.53006933",
                  "centerLon": "126.96666202",
                  "frontLat": "37.53006933",
                  "frontLon": "126.96666202",
                  "roadName": "한강대로21나길",
                  "bldNo1": "17",
                  "bldNo2": "0",
                  "roadId": "00425",
                  "fullAddressRoad": "서울 용산구 한강대로21나길 17"
                }
              ]
            },
            "evChargers": {
              "evCharger": []
            }
          },
          {
            "id": "1126199",
            "pkey": "112619902",
            "navSeq": "2",
            "collectionType": "poi",
            "name": "이마트 용산점 별주차장(남측)",
            "telNo": "02-6363-2200",
            "frontLat": "37.52881943",
            "frontLon": "126.96430116",
            "noorLat": "37.52881943",
            "noorLon": "126.96430116",
            "pnsLat": "37.52881943",
            "pnsLon": "126.96430116",
            "upperAddrName": "서울",
            "middleAddrName": "용산구",
            "lowerAddrName": "한강로3가",
            "detailAddrName": "",
            "mlClass": "1",
            "firstNo": "40",
            "secondNo": "999",
            "roadName": "한강대로21나길",
            "firstBuildNo": "17",
            "secondBuildNo": "0",
            "radius": "0.0",
            "bizName": "",
            "upperBizName": "쇼핑",
            "middleBizName": "슈퍼\\/마트",
            "lowerBizName": "대형마트",
            "detailBizName": "이마트",
            "rpFlag": "16",
            "parkFlag": "0",
            "detailInfoFlag": "1",
            "desc": "이마트는 국내 최초의 할인점으로서 대한민국 1등 할인점입니다.",
            "dataKind": "",
            "zipCode": "04377",
            "adminDongCode": "1117062500",
            "legalDongCode": "1117012800",
            "newAddressList": {
              "newAddress": [
                {
                  "centerLat": "37.52881943",
                  "centerLon": "126.96430116",
                  "frontLat": "37.52881943",
                  "frontLon": "126.96430116",
                  "roadName": "한강대로21나길",
                  "bldNo1": "17",
                  "bldNo2": "0",
                  "roadId": "00425",
                  "fullAddressRoad": "서울 용산구 한강대로21나길 17"
                }
              ]
            },
            "evChargers": {
              "evCharger": []
            }
          },
          {
            "id": "1126199",
            "pkey": "112619903",
            "navSeq": "3",
            "collectionType": "poi",
            "name": "이마트 용산점 해주차장",
            "telNo": "02-6363-2200",
            "frontLat": "37.52845837",
            "frontLon": "126.96441227",
            "noorLat": "37.52845837",
            "noorLon": "126.96441227",
            "pnsLat": "37.52845837",
            "pnsLon": "126.96441227",
            "upperAddrName": "서울",
            "middleAddrName": "용산구",
            "lowerAddrName": "한강로3가",
            "detailAddrName": "",
            "mlClass": "1",
            "firstNo": "40",
            "secondNo": "999",
            "roadName": "한강대로21나길",
            "firstBuildNo": "17",
            "secondBuildNo": "0",
            "radius": "0.0",
            "bizName": "",
            "upperBizName": "쇼핑",
            "middleBizName": "슈퍼\\/마트",
            "lowerBizName": "대형마트",
            "detailBizName": "이마트",
            "rpFlag": "8",
            "parkFlag": "0",
            "detailInfoFlag": "1",
            "desc": "이마트는 국내 최초의 할인점으로서 대한민국 1등 할인점입니다.",
            "dataKind": "",
            "zipCode": "04377",
            "adminDongCode": "1117062500",
            "legalDongCode": "1117012800",
            "newAddressList": {
              "newAddress": [
                {
                  "centerLat": "37.52845837",
                  "centerLon": "126.96441227",
                  "frontLat": "37.52845837",
                  "frontLon": "126.96441227",
                  "roadName": "한강대로21나길",
                  "bldNo1": "17",
                  "bldNo2": "0",
                  "roadId": "00425",
                  "fullAddressRoad": "서울 용산구 한강대로21나길 17"
                }
              ]
            },
            "evChargers": {
              "evCharger": []
            }
          },
          {
            "id": "1126199",
            "pkey": "112619904",
            "navSeq": "4",
            "collectionType": "poi",
            "name": "이마트 용산점 달주차장",
            "telNo": "02-6363-2200",
            "frontLat": "37.53084699",
            "frontLon": "126.96493993",
            "noorLat": "37.53084699",
            "noorLon": "126.96493993",
            "pnsLat": "37.53084699",
            "pnsLon": "126.96493993",
            "upperAddrName": "서울",
            "middleAddrName": "용산구",
            "lowerAddrName": "한강로3가",
            "detailAddrName": "",
            "mlClass": "1",
            "firstNo": "40",
            "secondNo": "999",
            "roadName": "한강대로21나길",
            "firstBuildNo": "17",
            "secondBuildNo": "0",
            "radius": "0.0",
            "bizName": "",
            "upperBizName": "쇼핑",
            "middleBizName": "슈퍼\\/마트",
            "lowerBizName": "대형마트",
            "detailBizName": "이마트",
            "rpFlag": "8",
            "parkFlag": "0",
            "detailInfoFlag": "1",
            "desc": "이마트는 국내 최초의 할인점으로서 대한민국 1등 할인점입니다.",
            "dataKind": "",
            "zipCode": "04377",
            "adminDongCode": "1117062500",
            "legalDongCode": "1117012800",
            "newAddressList": {
              "newAddress": [
                {
                  "centerLat": "37.53084699",
                  "centerLon": "126.96493993",
                  "frontLat": "37.53084699",
                  "frontLon": "126.96493993",
                  "roadName": "한강대로21나길",
                  "bldNo1": "17",
                  "bldNo2": "0",
                  "roadId": "00425",
                  "fullAddressRoad": "서울 용산구 한강대로21나길 17"
                }
              ]
            },
            "evChargers": {
              "evCharger": []
            }
          },
          {
            "id": "1126199",
            "pkey": "112619905",
            "navSeq": "5",
            "collectionType": "poi",
            "name": "이마트 용산점 정문",
            "telNo": "02-6363-2200",
            "frontLat": "37.52895833",
            "frontLon": "126.96566214",
            "noorLat": "37.52895833",
            "noorLon": "126.96566214",
            "pnsLat": "37.52909720",
            "pnsLon": "126.96546771",
            "upperAddrName": "서울",
            "middleAddrName": "용산구",
            "lowerAddrName": "한강로3가",
            "detailAddrName": "",
            "mlClass": "1",
            "firstNo": "40",
            "secondNo": "999",
            "roadName": "한강대로21나길",
            "firstBuildNo": "17",
            "secondBuildNo": "0",
            "radius": "0.0",
            "bizName": "",
            "upperBizName": "쇼핑",
            "middleBizName": "슈퍼\\/마트",
            "lowerBizName": "대형마트",
            "detailBizName": "이마트",
            "rpFlag": "8",
            "parkFlag": "0",
            "detailInfoFlag": "1",
            "desc": "이마트는 국내 최초의 할인점으로서 대한민국 1등 할인점입니다.",
            "dataKind": "",
            "zipCode": "04377",
            "adminDongCode": "1117062500",
            "legalDongCode": "1117012800",
            "newAddressList": {
              "newAddress": [
                {
                  "centerLat": "37.52895833",
                  "centerLon": "126.96566214",
                  "frontLat": "37.52895833",
                  "frontLon": "126.96566214",
                  "roadName": "한강대로21나길",
                  "bldNo1": "17",
                  "bldNo2": "0",
                  "roadId": "00425",
                  "fullAddressRoad": "서울 용산구 한강대로21나길 17"
                }
              ]
            },
            "evChargers": {
              "evCharger": []
            }
          },
          {
            "id": "1551025",
            "pkey": "155102500",
            "navSeq": "0",
            "collectionType": "poi",
            "name": "이마트 왕십리점",
            "telNo": "02-2200-1234",
            "frontLat": "37.56006714",
            "frontLon": "127.03859906",
            "noorLat": "37.56167806",
            "noorLon": "127.03837681",
            "pnsLat": "37.56126143",
            "pnsLon": "127.03796020",
            "upperAddrName": "서울",
            "middleAddrName": "성동구",
            "lowerAddrName": "행당동",
            "detailAddrName": "",
            "mlClass": "1",
            "firstNo": "168",
            "secondNo": "151",
            "roadName": "왕십리광장로",
            "firstBuildNo": "17",
            "secondBuildNo": "0",
            "radius": "0.0",
            "bizName": "",
            "upperBizName": "쇼핑",
            "middleBizName": "슈퍼\\/마트",
            "lowerBizName": "대형마트",
            "detailBizName": "이마트",
            "rpFlag": "8",
            "parkFlag": "1",
            "detailInfoFlag": "1",
            "desc": "이마트는 국내 최초의 할인점으로서 대한민국 1등 할인점입니다.",
            "dataKind": "",
            "zipCode": "04750",
            "adminDongCode": "1120056000",
            "legalDongCode": "1120010700",
            "newAddressList": {
              "newAddress": [
                {
                  "centerLat": "37.56167806",
                  "centerLon": "127.03837681",
                  "frontLat": "37.56006714",
                  "frontLon": "127.03859906",
                  "roadName": "왕십리광장로",
                  "bldNo1": "17",
                  "bldNo2": "0",
                  "roadId": "00414",
                  "fullAddressRoad": "서울 성동구 왕십리광장로 17"
                }
              ]
            },
            "evChargers": {
              "evCharger": []
            }
          },
          {
            "id": "1551025",
            "pkey": "155102501",
            "navSeq": "1",
            "collectionType": "poi",
            "name": "이마트 왕십리점 남측주차장",
            "telNo": "02-2200-1234",
            "frontLat": "37.56006714",
            "frontLon": "127.03859906",
            "noorLat": "37.56006714",
            "noorLon": "127.03859906",
            "pnsLat": "37.56006714",
            "pnsLon": "127.03859906",
            "upperAddrName": "서울",
            "middleAddrName": "성동구",
            "lowerAddrName": "행당동",
            "detailAddrName": "",
            "mlClass": "1",
            "firstNo": "168",
            "secondNo": "151",
            "roadName": "왕십리광장로",
            "firstBuildNo": "17",
            "secondBuildNo": "0",
            "radius": "0.0",
            "bizName": "",
            "upperBizName": "쇼핑",
            "middleBizName": "슈퍼\\/마트",
            "lowerBizName": "대형마트",
            "detailBizName": "이마트",
            "rpFlag": "8",
            "parkFlag": "0",
            "detailInfoFlag": "1",
            "desc": "이마트는 국내 최초의 할인점으로서 대한민국 1등 할인점입니다.",
            "dataKind": "",
            "zipCode": "04750",
            "adminDongCode": "1120056000",
            "legalDongCode": "1120010700",
            "newAddressList": {
              "newAddress": [
                {
                  "centerLat": "37.56006714",
                  "centerLon": "127.03859906",
                  "frontLat": "37.56006714",
                  "frontLon": "127.03859906",
                  "roadName": "왕십리광장로",
                  "bldNo1": "17",
                  "bldNo2": "0",
                  "roadId": "00414",
                  "fullAddressRoad": "서울 성동구 왕십리광장로 17"
                }
              ]
            },
            "evChargers": {
              "evCharger": []
            }
          },
          {
            "id": "1551025",
            "pkey": "155102502",
            "navSeq": "2",
            "collectionType": "poi",
            "name": "이마트 왕십리점 북측주차장",
            "telNo": "02-2200-1234",
            "frontLat": "37.56220578",
            "frontLon": "127.03871010",
            "noorLat": "37.56220578",
            "noorLon": "127.03871010",
            "pnsLat": "37.56220578",
            "pnsLon": "127.03871010",
            "upperAddrName": "서울",
            "middleAddrName": "성동구",
            "lowerAddrName": "행당동",
            "detailAddrName": "",
            "mlClass": "1",
            "firstNo": "168",
            "secondNo": "151",
            "roadName": "왕십리광장로",
            "firstBuildNo": "17",
            "secondBuildNo": "0",
            "radius": "0.0",
            "bizName": "",
            "upperBizName": "쇼핑",
            "middleBizName": "슈퍼\\/마트",
            "lowerBizName": "대형마트",
            "detailBizName": "이마트",
            "rpFlag": "8",
            "parkFlag": "0",
            "detailInfoFlag": "1",
            "desc": "이마트는 국내 최초의 할인점으로서 대한민국 1등 할인점입니다.",
            "dataKind": "",
            "zipCode": "04750",
            "adminDongCode": "1120056000",
            "legalDongCode": "1120010700",
            "newAddressList": {
              "newAddress": [
                {
                  "centerLat": "37.56220578",
                  "centerLon": "127.03871010",
                  "frontLat": "37.56220578",
                  "frontLon": "127.03871010",
                  "roadName": "왕십리광장로",
                  "bldNo1": "17",
                  "bldNo2": "0",
                  "roadId": "00414",
                  "fullAddressRoad": "서울 성동구 왕십리광장로 17"
                }
              ]
            },
            "evChargers": {
              "evCharger": []
            }
          },
          {
            "id": "1551025",
            "pkey": "155102503",
            "navSeq": "3",
            "collectionType": "poi",
            "name": "이마트 왕십리점 정문",
            "telNo": "02-2200-1234",
            "frontLat": "37.56126143",
            "frontLon": "127.03787687",
            "noorLat": "37.56126143",
            "noorLon": "127.03787687",
            "pnsLat": "37.56126143",
            "pnsLon": "127.03796020",
            "upperAddrName": "서울",
            "middleAddrName": "성동구",
            "lowerAddrName": "행당동",
            "detailAddrName": "",
            "mlClass": "1",
            "firstNo": "168",
            "secondNo": "151",
            "roadName": "왕십리광장로",
            "firstBuildNo": "17",
            "secondBuildNo": "0",
            "radius": "0.0",
            "bizName": "",
            "upperBizName": "쇼핑",
            "middleBizName": "슈퍼\\/마트",
            "lowerBizName": "대형마트",
            "detailBizName": "이마트",
            "rpFlag": "8",
            "parkFlag": "0",
            "detailInfoFlag": "1",
            "desc": "이마트는 국내 최초의 할인점으로서 대한민국 1등 할인점입니다.",
            "dataKind": "",
            "zipCode": "04750",
            "adminDongCode": "1120056000",
            "legalDongCode": "1120010700",
            "newAddressList": {
              "newAddress": [
                {
                  "centerLat": "37.56126143",
                  "centerLon": "127.03787687",
                  "frontLat": "37.56126143",
                  "frontLon": "127.03787687",
                  "roadName": "왕십리광장로",
                  "bldNo1": "17",
                  "bldNo2": "0",
                  "roadId": "00414",
                  "fullAddressRoad": "서울 성동구 왕십리광장로 17"
                }
              ]
            },
            "evChargers": {
              "evCharger": []
            }
          },
          {
            "id": "522860",
            "pkey": "52286000",
            "navSeq": "0",
            "collectionType": "poi",
            "name": "이마트 은평점",
            "telNo": "02-380-1234",
            "frontLat": "37.60017145",
            "frontLon": "126.91977542",
            "noorLat": "37.60033811",
            "noorLon": "126.92013650",
            "pnsLat": "37.60067141",
            "pnsLon": "126.92052534",
            "upperAddrName": "서울",
            "middleAddrName": "은평구",
            "lowerAddrName": "응암동",
            "detailAddrName": "",
            "mlClass": "1",
            "firstNo": "90",
            "secondNo": "1",
            "roadName": "은평로",
            "firstBuildNo": "111",
            "secondBuildNo": "0",
            "radius": "0.0",
            "bizName": "",
            "upperBizName": "쇼핑",
            "middleBizName": "슈퍼\\/마트",
            "lowerBizName": "대형마트",
            "detailBizName": "이마트",
            "rpFlag": "8",
            "parkFlag": "1",
            "detailInfoFlag": "1",
            "desc": "이마트는 국내 최초의 할인점으로서 대한민국 1등 할인점입니다.",
            "dataKind": "",
            "zipCode": "03461",
            "adminDongCode": "1138058000",
            "legalDongCode": "1138010700",
            "newAddressList": {
              "newAddress": [
                {
                  "centerLat": "37.60033811",
                  "centerLon": "126.92013650",
                  "frontLat": "37.60017145",
                  "frontLon": "126.91977542",
                  "roadName": "은평로",
                  "bldNo1": "111",
                  "bldNo2": "0",
                  "roadId": "00197",
                  "fullAddressRoad": "서울 은평구 은평로 111"
                }
              ]
            },
            "evChargers": {
              "evCharger": []
            }
          },
          {
            "id": "522860",
            "pkey": "52286001",
            "navSeq": "1",
            "collectionType": "poi",
            "name": "이마트 은평점 지하주차장",
            "telNo": "02-380-1234",
            "frontLat": "37.60017145",
            "frontLon": "126.91977542",
            "noorLat": "37.60017145",
            "noorLon": "126.91977542",
            "pnsLat": "37.60017145",
            "pnsLon": "126.91977542",
            "upperAddrName": "서울",
            "middleAddrName": "은평구",
            "lowerAddrName": "응암동",
            "detailAddrName": "",
            "mlClass": "1",
            "firstNo": "90",
            "secondNo": "1",
            "roadName": "은평로",
            "firstBuildNo": "111",
            "secondBuildNo": "0",
            "radius": "0.0",
            "bizName": "",
            "upperBizName": "쇼핑",
            "middleBizName": "슈퍼\\/마트",
            "lowerBizName": "대형마트",
            "detailBizName": "이마트",
            "rpFlag": "8",
            "parkFlag": "0",
            "detailInfoFlag": "1",
            "desc": "이마트는 국내 최초의 할인점으로서 대한민국 1등 할인점입니다.",
            "dataKind": "",
            "zipCode": "03461",
            "adminDongCode": "1138058000",
            "legalDongCode": "1138010700",
            "newAddressList": {
              "newAddress": [
                {
                  "centerLat": "37.60017145",
                  "centerLon": "126.91977542",
                  "frontLat": "37.60017145",
                  "frontLon": "126.91977542",
                  "roadName": "은평로",
                  "bldNo1": "111",
                  "bldNo2": "0",
                  "roadId": "00197",
                  "fullAddressRoad": "서울 은평구 은평로 111"
                }
              ]
            },
            "evChargers": {
              "evCharger": []
            }
          },
          {
            "id": "522860",
            "pkey": "52286002",
            "navSeq": "2",
            "collectionType": "poi",
            "name": "이마트 은평점 정문",
            "telNo": "02-380-1234",
            "frontLat": "37.60072695",
            "frontLon": "126.92019204",
            "noorLat": "37.60072695",
            "noorLon": "126.92019204",
            "pnsLat": "37.60058808",
            "pnsLon": "126.92019204",
            "upperAddrName": "서울",
            "middleAddrName": "은평구",
            "lowerAddrName": "응암동",
            "detailAddrName": "",
            "mlClass": "1",
            "firstNo": "90",
            "secondNo": "1",
            "roadName": "은평로",
            "firstBuildNo": "111",
            "secondBuildNo": "0",
            "radius": "0.0",
            "bizName": "",
            "upperBizName": "쇼핑",
            "middleBizName": "슈퍼\\/마트",
            "lowerBizName": "대형마트",
            "detailBizName": "이마트",
            "rpFlag": "8",
            "parkFlag": "0",
            "detailInfoFlag": "1",
            "desc": "이마트는 국내 최초의 할인점으로서 대한민국 1등 할인점입니다.",
            "dataKind": "",
            "zipCode": "03461",
            "adminDongCode": "1138058000",
            "legalDongCode": "1138010700",
            "newAddressList": {
              "newAddress": [
                {
                  "centerLat": "37.60072695",
                  "centerLon": "126.92019204",
                  "frontLat": "37.60072695",
                  "frontLon": "126.92019204",
                  "roadName": "은평로",
                  "bldNo1": "111",
                  "bldNo2": "0",
                  "roadId": "00197",
                  "fullAddressRoad": "서울 은평구 은평로 111"
                }
              ]
            },
            "evChargers": {
              "evCharger": []
            }
          },
          {
            "id": "2872790",
            "pkey": "287279000",
            "navSeq": "0",
            "collectionType": "poi",
            "name": "이마트 하월곡점",
            "telNo": "02-6936-1234",
            "frontLat": "37.60458960",
            "frontLon": "127.03065408",
            "noorLat": "37.60470070",
            "noorLon": "127.03109848",
            "pnsLat": "37.60481180",
            "pnsLon": "127.03123735",
            "upperAddrName": "서울",
            "middleAddrName": "성북구",
            "lowerAddrName": "하월곡동",
            "detailAddrName": "",
            "mlClass": "1",
            "firstNo": "230",
            "secondNo": "0",
            "roadName": "종암로",
            "firstBuildNo": "167",
            "secondBuildNo": "0",
            "radius": "0.0",
            "bizName": "",
            "upperBizName": "쇼핑",
            "middleBizName": "슈퍼\\/마트",
            "lowerBizName": "대형마트",
            "detailBizName": "이마트",
            "rpFlag": "16",
            "parkFlag": "1",
            "detailInfoFlag": "1",
            "desc": "이마트는 국내 최초의 할인점으로서 대한민국 1등 할인점입니다.",
            "dataKind": "",
            "zipCode": "02734",
            "adminDongCode": "1129068500",
            "legalDongCode": "1129013600",
            "newAddressList": {
              "newAddress": [
                {
                  "centerLat": "37.60470070",
                  "centerLon": "127.03109848",
                  "frontLat": "37.60458960",
                  "frontLon": "127.03065408",
                  "roadName": "종암로",
                  "bldNo1": "167",
                  "bldNo2": "0",
                  "roadId": "00672",
                  "fullAddressRoad": "서울 성북구 종암로 167"
                }
              ]
            },
            "evChargers": {
              "evCharger": []
            }
          },
          {
            "id": "2872790",
            "pkey": "287279001",
            "navSeq": "1",
            "collectionType": "poi",
            "name": "이마트 하월곡점 주차장",
            "telNo": "02-6936-1234",
            "frontLat": "37.60458960",
            "frontLon": "127.03065408",
            "noorLat": "37.60458960",
            "noorLon": "127.03065408",
            "pnsLat": "37.60458960",
            "pnsLon": "127.03065408",
            "upperAddrName": "서울",
            "middleAddrName": "성북구",
            "lowerAddrName": "하월곡동",
            "detailAddrName": "",
            "mlClass": "1",
            "firstNo": "230",
            "secondNo": "0",
            "roadName": "종암로",
            "firstBuildNo": "167",
            "secondBuildNo": "0",
            "radius": "0.0",
            "bizName": "",
            "upperBizName": "쇼핑",
            "middleBizName": "슈퍼\\/마트",
            "lowerBizName": "대형마트",
            "detailBizName": "이마트",
            "rpFlag": "16",
            "parkFlag": "0",
            "detailInfoFlag": "1",
            "desc": "이마트는 국내 최초의 할인점으로서 대한민국 1등 할인점입니다.",
            "dataKind": "",
            "zipCode": "02734",
            "adminDongCode": "1129068500",
            "legalDongCode": "1129013600",
            "newAddressList": {
              "newAddress": [
                {
                  "centerLat": "37.60458960",
                  "centerLon": "127.03065408",
                  "frontLat": "37.60458960",
                  "frontLon": "127.03065408",
                  "roadName": "종암로",
                  "bldNo1": "167",
                  "bldNo2": "0",
                  "roadId": "00672",
                  "fullAddressRoad": "서울 성북구 종암로 167"
                }
              ]
            },
            "evChargers": {
              "evCharger": []
            }
          },
          {
            "id": "2872790",
            "pkey": "287279002",
            "navSeq": "2",
            "collectionType": "poi",
            "name": "이마트 하월곡점 정문",
            "telNo": "02-6936-1234",
            "frontLat": "37.60486736",
            "frontLon": "127.03148733",
            "noorLat": "37.60486736",
            "noorLon": "127.03148733",
            "pnsLat": "37.60481180",
            "pnsLon": "127.03123735",
            "upperAddrName": "서울",
            "middleAddrName": "성북구",
            "lowerAddrName": "하월곡동",
            "detailAddrName": "",
            "mlClass": "1",
            "firstNo": "230",
            "secondNo": "0",
            "roadName": "종암로",
            "firstBuildNo": "167",
            "secondBuildNo": "0",
            "radius": "0.0",
            "bizName": "",
            "upperBizName": "쇼핑",
            "middleBizName": "슈퍼\\/마트",
            "lowerBizName": "대형마트",
            "detailBizName": "이마트",
            "rpFlag": "16",
            "parkFlag": "0",
            "detailInfoFlag": "1",
            "desc": "이마트는 국내 최초의 할인점으로서 대한민국 1등 할인점입니다.",
            "dataKind": "",
            "zipCode": "02734",
            "adminDongCode": "1129068500",
            "legalDongCode": "1129013600",
            "newAddressList": {
              "newAddress": [
                {
                  "centerLat": "37.60486736",
                  "centerLon": "127.03148733",
                  "frontLat": "37.60486736",
                  "frontLon": "127.03148733",
                  "roadName": "종암로",
                  "bldNo1": "167",
                  "bldNo2": "0",
                  "roadId": "00672",
                  "fullAddressRoad": "서울 성북구 종암로 167"
                }
              ]
            },
            "evChargers": {
              "evCharger": []
            }
          },
          {
            "id": "1555067",
            "pkey": "155506700",
            "navSeq": "0",
            "collectionType": "poi",
            "name": "이마트 미아점",
            "telNo": "02-944-1234",
            "frontLat": "37.61058888",
            "frontLon": "127.02951512",
            "noorLat": "37.61083886",
            "noorLon": "127.02984842",
            "pnsLat": "37.61058888",
            "pnsLon": "127.02951512",
            "upperAddrName": "서울",
            "middleAddrName": "성북구",
            "lowerAddrName": "길음동",
            "detailAddrName": "",
            "mlClass": "1",
            "firstNo": "25",
            "secondNo": "2",
            "roadName": "도봉로",
            "firstBuildNo": "17",
            "secondBuildNo": "0",
            "radius": "0.0",
            "bizName": "",
            "upperBizName": "쇼핑",
            "middleBizName": "슈퍼\\/마트",
            "lowerBizName": "대형마트",
            "detailBizName": "이마트",
            "rpFlag": "16",
            "parkFlag": "1",
            "detailInfoFlag": "1",
            "desc": "이마트는 국내 최초의 할인점으로서 대한민국 1등 할인점입니다.",
            "dataKind": "",
            "zipCode": "02729",
            "adminDongCode": "1129068500",
            "legalDongCode": "1129013400",
            "newAddressList": {
              "newAddress": [
                {
                  "centerLat": "37.61083886",
                  "centerLon": "127.02984842",
                  "frontLat": "37.61058888",
                  "frontLon": "127.02951512",
                  "roadName": "도봉로",
                  "bldNo1": "17",
                  "bldNo2": "0",
                  "roadId": "00025",
                  "fullAddressRoad": "서울 성북구 도봉로 17"
                }
              ]
            },
            "evChargers": {
              "evCharger": []
            }
          },
          {
            "id": "1555067",
            "pkey": "155506703",
            "navSeq": "3",
            "collectionType": "poi",
            "name": "이마트 미아점 정문",
            "telNo": "02-944-1234",
            "frontLat": "37.61114438",
            "frontLon": "127.03018171",
            "noorLat": "37.61114438",
            "noorLon": "127.03018171",
            "pnsLat": "37.61114438",
            "pnsLon": "127.03001506",
            "upperAddrName": "서울",
            "middleAddrName": "성북구",
            "lowerAddrName": "길음동",
            "detailAddrName": "",
            "mlClass": "1",
            "firstNo": "25",
            "secondNo": "2",
            "roadName": "도봉로",
            "firstBuildNo": "17",
            "secondBuildNo": "0",
            "radius": "0.0",
            "bizName": "",
            "upperBizName": "쇼핑",
            "middleBizName": "슈퍼\\/마트",
            "lowerBizName": "대형마트",
            "detailBizName": "이마트",
            "rpFlag": "8",
            "parkFlag": "0",
            "detailInfoFlag": "1",
            "desc": "이마트는 국내 최초의 할인점으로서 대한민국 1등 할인점입니다.",
            "dataKind": "",
            "zipCode": "02729",
            "adminDongCode": "1129068500",
            "legalDongCode": "1129013400",
            "newAddressList": {
              "newAddress": [
                {
                  "centerLat": "37.61114438",
                  "centerLon": "127.03018171",
                  "frontLat": "37.61114438",
                  "frontLon": "127.03018171",
                  "roadName": "도봉로",
                  "bldNo1": "17",
                  "bldNo2": "0",
                  "roadId": "00025",
                  "fullAddressRoad": "서울 성북구 도봉로 17"
                }
              ]
            },
            "evChargers": {
              "evCharger": []
            }
          },
          {
            "id": "1526182",
            "pkey": "152618200",
            "navSeq": "0",
            "collectionType": "poi",
            "name": "이마트 여의도점",
            "telNo": "02-2280-1234",
            "frontLat": "37.51820889",
            "frontLon": "126.92702708",
            "noorLat": "37.51851440",
            "noorLon": "126.92655489",
            "pnsLat": "37.51901434",
            "pnsLon": "126.92641600",
            "upperAddrName": "서울",
            "middleAddrName": "영등포구",
            "lowerAddrName": "여의도동",
            "detailAddrName": "",
            "mlClass": "1",
            "firstNo": "47",
            "secondNo": "0",
            "roadName": "여의동로3길",
            "firstBuildNo": "10",
            "secondBuildNo": "0",
            "radius": "0.0",
            "bizName": "",
            "upperBizName": "쇼핑",
            "middleBizName": "슈퍼\\/마트",
            "lowerBizName": "대형마트",
            "detailBizName": "이마트",
            "rpFlag": "16",
            "parkFlag": "1",
            "detailInfoFlag": "1",
            "desc": "이마트는 국내 최초의 할인점으로서 대한민국 1등 할인점입니다.",
            "dataKind": "",
            "zipCode": "07324",
            "adminDongCode": "1156054000",
            "legalDongCode": "1156011000",
            "newAddressList": {
              "newAddress": [
                {
                  "centerLat": "37.51851440",
                  "centerLon": "126.92655489",
                  "frontLat": "37.51820889",
                  "frontLon": "126.92702708",
                  "roadName": "여의동로3길",
                  "bldNo1": "10",
                  "bldNo2": "0",
                  "roadId": "00715",
                  "fullAddressRoad": "서울 영등포구 여의동로3길 10"
                }
              ]
            },
            "evChargers": {
              "evCharger": []
            }
          },
          {
            "id": "1526182",
            "pkey": "152618201",
            "navSeq": "1",
            "collectionType": "poi",
            "name": "이마트 여의도점 주차장",
            "telNo": "02-2280-1234",
            "frontLat": "37.51820889",
            "frontLon": "126.92702708",
            "noorLat": "37.51820889",
            "noorLon": "126.92702708",
            "pnsLat": "37.51820889",
            "pnsLon": "126.92702708",
            "upperAddrName": "서울",
            "middleAddrName": "영등포구",
            "lowerAddrName": "여의도동",
            "detailAddrName": "",
            "mlClass": "1",
            "firstNo": "47",
            "secondNo": "0",
            "roadName": "여의동로3길",
            "firstBuildNo": "10",
            "secondBuildNo": "0",
            "radius": "0.0",
            "bizName": "",
            "upperBizName": "쇼핑",
            "middleBizName": "슈퍼\\/마트",
            "lowerBizName": "대형마트",
            "detailBizName": "이마트",
            "rpFlag": "16",
            "parkFlag": "0",
            "detailInfoFlag": "1",
            "desc": "이마트는 국내 최초의 할인점으로서 대한민국 1등 할인점입니다.",
            "dataKind": "",
            "zipCode": "07324",
            "adminDongCode": "1156054000",
            "legalDongCode": "1156011000",
            "newAddressList": {
              "newAddress": [
                {
                  "centerLat": "37.51820889",
                  "centerLon": "126.92702708",
                  "frontLat": "37.51820889",
                  "frontLon": "126.92702708",
                  "roadName": "여의동로3길",
                  "bldNo1": "10",
                  "bldNo2": "0",
                  "roadId": "00715",
                  "fullAddressRoad": "서울 영등포구 여의동로3길 10"
                }
              ]
            },
            "evChargers": {
              "evCharger": []
            }
          },
          {
            "id": "1526182",
            "pkey": "152618202",
            "navSeq": "2",
            "collectionType": "poi",
            "name": "이마트 여의도점 정문",
            "telNo": "02-2280-1234",
            "frontLat": "37.51901434",
            "frontLon": "126.92641600",
            "noorLat": "37.51901434",
            "noorLon": "126.92641600",
            "pnsLat": "37.51901434",
            "pnsLon": "126.92641600",
            "upperAddrName": "서울",
            "middleAddrName": "영등포구",
            "lowerAddrName": "여의도동",
            "detailAddrName": "",
            "mlClass": "1",
            "firstNo": "47",
            "secondNo": "0",
            "roadName": "여의동로3길",
            "firstBuildNo": "10",
            "secondBuildNo": "0",
            "radius": "0.0",
            "bizName": "",
            "upperBizName": "쇼핑",
            "middleBizName": "슈퍼\\/마트",
            "lowerBizName": "대형마트",
            "detailBizName": "이마트",
            "rpFlag": "8",
            "parkFlag": "0",
            "detailInfoFlag": "1",
            "desc": "이마트는 국내 최초의 할인점으로서 대한민국 1등 할인점입니다.",
            "dataKind": "",
            "zipCode": "07324",
            "adminDongCode": "1156054000",
            "legalDongCode": "1156011000",
            "newAddressList": {
              "newAddress": [
                {
                  "centerLat": "37.51901434",
                  "centerLon": "126.92641600",
                  "frontLat": "37.51901434",
                  "frontLon": "126.92641600",
                  "roadName": "여의동로3길",
                  "bldNo1": "10",
                  "bldNo2": "0",
                  "roadId": "00715",
                  "fullAddressRoad": "서울 영등포구 여의동로3길 10"
                }
              ]
            },
            "evChargers": {
              "evCharger": []
            }
          },
          {
            "id": "1789714",
            "pkey": "178971400",
            "navSeq": "0",
            "collectionType": "poi",
            "name": "이마트 수색점",
            "telNo": "02-6943-1234",
            "frontLat": "37.57920130",
            "frontLon": "126.89902791",
            "noorLat": "37.57975679",
            "noorLon": "126.89883347",
            "pnsLat": "37.58009008",
            "pnsLon": "126.89855570",
            "upperAddrName": "서울",
            "middleAddrName": "은평구",
            "lowerAddrName": "수색동",
            "detailAddrName": "",
            "mlClass": "1",
            "firstNo": "75",
            "secondNo": "0",
            "roadName": "수색로",
            "firstBuildNo": "217",
            "secondBuildNo": "0",
            "radius": "0.0",
            "bizName": "",
            "upperBizName": "쇼핑",
            "middleBizName": "슈퍼\\/마트",
            "lowerBizName": "대형마트",
            "detailBizName": "이마트",
            "rpFlag": "8",
            "parkFlag": "1",
            "detailInfoFlag": "1",
            "desc": "이마트는 국내 최초의 할인점으로서 대한민국 1등 할인점입니다.",
            "dataKind": "",
            "zipCode": "03504",
            "adminDongCode": "1138065000",
            "legalDongCode": "1138010100",
            "newAddressList": {
              "newAddress": [
                {
                  "centerLat": "37.57975679",
                  "centerLon": "126.89883347",
                  "frontLat": "37.57920130",
                  "frontLon": "126.89902791",
                  "roadName": "수색로",
                  "bldNo1": "217",
                  "bldNo2": "0",
                  "roadId": "00124",
                  "fullAddressRoad": "서울 은평구 수색로 217"
                }
              ]
            },
            "evChargers": {
              "evCharger": []
            }
          },
          {
            "id": "1789714",
            "pkey": "178971401",
            "navSeq": "1",
            "collectionType": "poi",
            "name": "이마트 수색점 주차장",
            "telNo": "02-6943-1234",
            "frontLat": "37.57920130",
            "frontLon": "126.89902791",
            "noorLat": "37.57920130",
            "noorLon": "126.89902791",
            "pnsLat": "37.57920130",
            "pnsLon": "126.89902791",
            "upperAddrName": "서울",
            "middleAddrName": "은평구",
            "lowerAddrName": "수색동",
            "detailAddrName": "",
            "mlClass": "1",
            "firstNo": "75",
            "secondNo": "0",
            "roadName": "수색로",
            "firstBuildNo": "217",
            "secondBuildNo": "0",
            "radius": "0.0",
            "bizName": "",
            "upperBizName": "쇼핑",
            "middleBizName": "슈퍼\\/마트",
            "lowerBizName": "대형마트",
            "detailBizName": "이마트",
            "rpFlag": "8",
            "parkFlag": "0",
            "detailInfoFlag": "1",
            "desc": "이마트는 국내 최초의 할인점으로서 대한민국 1등 할인점입니다.",
            "dataKind": "",
            "zipCode": "03504",
            "adminDongCode": "1138065000",
            "legalDongCode": "1138010100",
            "newAddressList": {
              "newAddress": [
                {
                  "centerLat": "37.57920130",
                  "centerLon": "126.89902791",
                  "frontLat": "37.57920130",
                  "frontLon": "126.89902791",
                  "roadName": "수색로",
                  "bldNo1": "217",
                  "bldNo2": "0",
                  "roadId": "00124",
                  "fullAddressRoad": "서울 은평구 수색로 217"
                }
              ]
            },
            "evChargers": {
              "evCharger": []
            }
          },
          {
            "id": "1789714",
            "pkey": "178971402",
            "navSeq": "2",
            "collectionType": "poi",
            "name": "이마트 수색점 정문",
            "telNo": "02-6943-1234",
            "frontLat": "37.58009008",
            "frontLon": "126.89855570",
            "noorLat": "37.58009008",
            "noorLon": "126.89855570",
            "pnsLat": "37.58009008",
            "pnsLon": "126.89855570",
            "upperAddrName": "서울",
            "middleAddrName": "은평구",
            "lowerAddrName": "수색동",
            "detailAddrName": "",
            "mlClass": "1",
            "firstNo": "75",
            "secondNo": "0",
            "roadName": "수색로",
            "firstBuildNo": "217",
            "secondBuildNo": "0",
            "radius": "0.0",
            "bizName": "",
            "upperBizName": "쇼핑",
            "middleBizName": "슈퍼\\/마트",
            "lowerBizName": "대형마트",
            "detailBizName": "이마트",
            "rpFlag": "8",
            "parkFlag": "0",
            "detailInfoFlag": "1",
            "desc": "이마트는 국내 최초의 할인점으로서 대한민국 1등 할인점입니다.",
            "dataKind": "",
            "zipCode": "03504",
            "adminDongCode": "1138065000",
            "legalDongCode": "1138010100",
            "newAddressList": {
              "newAddress": [
                {
                  "centerLat": "37.58009008",
                  "centerLon": "126.89855570",
                  "frontLat": "37.58009008",
                  "frontLon": "126.89855570",
                  "roadName": "수색로",
                  "bldNo1": "217",
                  "bldNo2": "0",
                  "roadId": "00124",
                  "fullAddressRoad": "서울 은평구 수색로 217"
                }
              ]
            },
            "evChargers": {
              "evCharger": []
            }
          },
          {
            "id": "1606226",
            "pkey": "160622600",
            "navSeq": "0",
            "collectionType": "poi",
            "name": "이마트 영등포점",
            "telNo": "02-3468-1234",
            "frontLat": "37.51790296",
            "frontLon": "126.90391808",
            "noorLat": "37.51662531",
            "noorLon": "126.90325151",
            "pnsLat": "37.51748633",
            "pnsLon": "126.90350146",
            "upperAddrName": "서울",
            "middleAddrName": "영등포구",
            "lowerAddrName": "영등포동4가",
            "detailAddrName": "",
            "mlClass": "1",
            "firstNo": "442",
            "secondNo": "0",
            "roadName": "영중로",
            "firstBuildNo": "15",
            "secondBuildNo": "0",
            "radius": "0.0",
            "bizName": "",
            "upperBizName": "쇼핑",
            "middleBizName": "슈퍼\\/마트",
            "lowerBizName": "대형마트",
            "detailBizName": "이마트",
            "rpFlag": "16",
            "parkFlag": "1",
            "detailInfoFlag": "1",
            "desc": "이마트는 국내 최초의 할인점으로서 대한민국 1등 할인점입니다.",
            "dataKind": "",
            "zipCode": "07305",
            "adminDongCode": "1156053500",
            "legalDongCode": "1156010500",
            "newAddressList": {
              "newAddress": [
                {
                  "centerLat": "37.51662531",
                  "centerLon": "126.90325151",
                  "frontLat": "37.51790296",
                  "frontLon": "126.90391808",
                  "roadName": "영중로",
                  "bldNo1": "15",
                  "bldNo2": "0",
                  "roadId": "00817",
                  "fullAddressRoad": "서울 영등포구 영중로 15"
                }
              ]
            },
            "evChargers": {
              "evCharger": []
            }
          },
          {
            "id": "1606226",
            "pkey": "160622601",
            "navSeq": "1",
            "collectionType": "poi",
            "name": "이마트 영등포점 1주차장(영등포소방서방향)",
            "telNo": "02-3468-1234",
            "frontLat": "37.51790296",
            "frontLon": "126.90391808",
            "noorLat": "37.51790296",
            "noorLon": "126.90391808",
            "pnsLat": "37.51790296",
            "pnsLon": "126.90391808",
            "upperAddrName": "서울",
            "middleAddrName": "영등포구",
            "lowerAddrName": "영등포동4가",
            "detailAddrName": "",
            "mlClass": "1",
            "firstNo": "442",
            "secondNo": "0",
            "roadName": "영중로",
            "firstBuildNo": "15",
            "secondBuildNo": "0",
            "radius": "0.0",
            "bizName": "",
            "upperBizName": "쇼핑",
            "middleBizName": "슈퍼\\/마트",
            "lowerBizName": "대형마트",
            "detailBizName": "이마트",
            "rpFlag": "16",
            "parkFlag": "0",
            "detailInfoFlag": "1",
            "desc": "이마트는 국내 최초의 할인점으로서 대한민국 1등 할인점입니다.",
            "dataKind": "",
            "zipCode": "07305",
            "adminDongCode": "1156053500",
            "legalDongCode": "1156010500",
            "newAddressList": {
              "newAddress": [
                {
                  "centerLat": "37.51790296",
                  "centerLon": "126.90391808",
                  "frontLat": "37.51790296",
                  "frontLon": "126.90391808",
                  "roadName": "영중로",
                  "bldNo1": "15",
                  "bldNo2": "0",
                  "roadId": "00817",
                  "fullAddressRoad": "서울 영등포구 영중로 15"
                }
              ]
            },
            "evChargers": {
              "evCharger": []
            }
          },
          {
            "id": "1606226",
            "pkey": "160622602",
            "navSeq": "2",
            "collectionType": "poi",
            "name": "이마트 영등포점 2주차장(센트럴푸르지오방향)",
            "telNo": "02-3468-1234",
            "frontLat": "37.51740298",
            "frontLon": "126.90205715",
            "noorLat": "37.51740298",
            "noorLon": "126.90205715",
            "pnsLat": "37.51740298",
            "pnsLon": "126.90205715",
            "upperAddrName": "서울",
            "middleAddrName": "영등포구",
            "lowerAddrName": "영등포동4가",
            "detailAddrName": "",
            "mlClass": "1",
            "firstNo": "442",
            "secondNo": "0",
            "roadName": "영중로",
            "firstBuildNo": "15",
            "secondBuildNo": "0",
            "radius": "0.0",
            "bizName": "",
            "upperBizName": "쇼핑",
            "middleBizName": "슈퍼\\/마트",
            "lowerBizName": "대형마트",
            "detailBizName": "이마트",
            "rpFlag": "16",
            "parkFlag": "0",
            "detailInfoFlag": "1",
            "desc": "이마트는 국내 최초의 할인점으로서 대한민국 1등 할인점입니다.",
            "dataKind": "",
            "zipCode": "07305",
            "adminDongCode": "1156053500",
            "legalDongCode": "1156010500",
            "newAddressList": {
              "newAddress": [
                {
                  "centerLat": "37.51740298",
                  "centerLon": "126.90205715",
                  "frontLat": "37.51740298",
                  "frontLon": "126.90205715",
                  "roadName": "영중로",
                  "bldNo1": "15",
                  "bldNo2": "0",
                  "roadId": "00817",
                  "fullAddressRoad": "서울 영등포구 영중로 15"
                }
              ]
            },
            "evChargers": {
              "evCharger": []
            }
          },
          {
            "id": "1606226",
            "pkey": "160622603",
            "navSeq": "3",
            "collectionType": "poi",
            "name": "이마트 영등포점 3주차장",
            "telNo": "02-3468-1234",
            "frontLat": "37.51643088",
            "frontLon": "126.90233493",
            "noorLat": "37.51643088",
            "noorLon": "126.90233493",
            "pnsLat": "37.51643088",
            "pnsLon": "126.90233493",
            "upperAddrName": "서울",
            "middleAddrName": "영등포구",
            "lowerAddrName": "영등포동4가",
            "detailAddrName": "",
            "mlClass": "1",
            "firstNo": "442",
            "secondNo": "0",
            "roadName": "영중로",
            "firstBuildNo": "15",
            "secondBuildNo": "0",
            "radius": "0.0",
            "bizName": "",
            "upperBizName": "쇼핑",
            "middleBizName": "슈퍼\\/마트",
            "lowerBizName": "대형마트",
            "detailBizName": "이마트",
            "rpFlag": "16",
            "parkFlag": "0",
            "detailInfoFlag": "1",
            "desc": "이마트는 국내 최초의 할인점으로서 대한민국 1등 할인점입니다.",
            "dataKind": "",
            "zipCode": "07305",
            "adminDongCode": "1156053500",
            "legalDongCode": "1156010500",
            "newAddressList": {
              "newAddress": [
                {
                  "centerLat": "37.51643088",
                  "centerLon": "126.90233493",
                  "frontLat": "37.51643088",
                  "frontLon": "126.90233493",
                  "roadName": "영중로",
                  "bldNo1": "15",
                  "bldNo2": "0",
                  "roadId": "00817",
                  "fullAddressRoad": "서울 영등포구 영중로 15"
                }
              ]
            },
            "evChargers": {
              "evCharger": []
            }
          },
          {
            "id": "1606226",
            "pkey": "160622604",
            "navSeq": "4",
            "collectionType": "poi",
            "name": "이마트 영등포점 4주차장(화물)",
            "telNo": "02-3468-1234",
            "frontLat": "37.51656978",
            "frontLon": "126.90386257",
            "noorLat": "37.51656978",
            "noorLon": "126.90386257",
            "pnsLat": "37.51656978",
            "pnsLon": "126.90386257",
            "upperAddrName": "서울",
            "middleAddrName": "영등포구",
            "lowerAddrName": "영등포동4가",
            "detailAddrName": "",
            "mlClass": "1",
            "firstNo": "442",
            "secondNo": "0",
            "roadName": "영중로",
            "firstBuildNo": "15",
            "secondBuildNo": "0",
            "radius": "0.0",
            "bizName": "",
            "upperBizName": "쇼핑",
            "middleBizName": "슈퍼\\/마트",
            "lowerBizName": "대형마트",
            "detailBizName": "이마트",
            "rpFlag": "16",
            "parkFlag": "0",
            "detailInfoFlag": "1",
            "desc": "이마트는 국내 최초의 할인점으로서 대한민국 1등 할인점입니다.",
            "dataKind": "",
            "zipCode": "07305",
            "adminDongCode": "1156053500",
            "legalDongCode": "1156010500",
            "newAddressList": {
              "newAddress": [
                {
                  "centerLat": "37.51656978",
                  "centerLon": "126.90386257",
                  "frontLat": "37.51656978",
                  "frontLon": "126.90386257",
                  "roadName": "영중로",
                  "bldNo1": "15",
                  "bldNo2": "0",
                  "roadId": "00817",
                  "fullAddressRoad": "서울 영등포구 영중로 15"
                }
              ]
            },
            "evChargers": {
              "evCharger": []
            }
          },
          {
            "id": "1606226",
            "pkey": "160622605",
            "navSeq": "5",
            "collectionType": "poi",
            "name": "이마트 영등포점 정문",
            "telNo": "02-3468-1234",
            "frontLat": "37.51812514",
            "frontLon": "126.90344589",
            "noorLat": "37.51812514",
            "noorLon": "126.90344589",
            "pnsLat": "37.51748633",
            "pnsLon": "126.90350146",
            "upperAddrName": "서울",
            "middleAddrName": "영등포구",
            "lowerAddrName": "영등포동4가",
            "detailAddrName": "",
            "mlClass": "1",
            "firstNo": "442",
            "secondNo": "0",
            "roadName": "영중로",
            "firstBuildNo": "15",
            "secondBuildNo": "0",
            "radius": "0.0",
            "bizName": "",
            "upperBizName": "쇼핑",
            "middleBizName": "슈퍼\\/마트",
            "lowerBizName": "대형마트",
            "detailBizName": "이마트",
            "rpFlag": "8",
            "parkFlag": "0",
            "detailInfoFlag": "1",
            "desc": "이마트는 국내 최초의 할인점으로서 대한민국 1등 할인점입니다.",
            "dataKind": "",
            "zipCode": "07305",
            "adminDongCode": "1156053500",
            "legalDongCode": "1156010500",
            "newAddressList": {
              "newAddress": [
                {
                  "centerLat": "37.51812514",
                  "centerLon": "126.90344589",
                  "frontLat": "37.51812514",
                  "frontLon": "126.90344589",
                  "roadName": "영중로",
                  "bldNo1": "15",
                  "bldNo2": "0",
                  "roadId": "00817",
                  "fullAddressRoad": "서울 영등포구 영중로 15"
                }
              ]
            },
            "evChargers": {
              "evCharger": []
            }
          },
          {
            "id": "1392334",
            "pkey": "139233400",
            "navSeq": "0",
            "collectionType": "poi",
            "name": "이마트 자양점",
            "telNo": "02-2024-1234",
            "frontLat": "37.53829251",
            "frontLon": "127.07323542",
            "noorLat": "37.53865358",
            "noorLon": "127.07309653",
            "pnsLat": "37.53895910",
            "pnsLon": "127.07298542",
            "upperAddrName": "서울",
            "middleAddrName": "광진구",
            "lowerAddrName": "자양동",
            "detailAddrName": "",
            "mlClass": "1",
            "firstNo": "227",
            "secondNo": "7",
            "roadName": "아차산로",
            "firstBuildNo": "272",
            "secondBuildNo": "0",
            "radius": "0.0",
            "bizName": "",
            "upperBizName": "쇼핑",
            "middleBizName": "슈퍼\\/마트",
            "lowerBizName": "대형마트",
            "detailBizName": "이마트",
            "rpFlag": "8",
            "parkFlag": "1",
            "detailInfoFlag": "1",
            "desc": "이마트는 국내 최초의 할인점으로서 대한민국 1등 할인점입니다.",
            "dataKind": "",
            "zipCode": "05065",
            "adminDongCode": "1121584000",
            "legalDongCode": "1121510500",
            "newAddressList": {
              "newAddress": [
                {
                  "centerLat": "37.53865358",
                  "centerLon": "127.07309653",
                  "frontLat": "37.53829251",
                  "frontLon": "127.07323542",
                  "roadName": "아차산로",
                  "bldNo1": "272",
                  "bldNo2": "0",
                  "roadId": "00320",
                  "fullAddressRoad": "서울 광진구 아차산로 272"
                }
              ]
            },
            "evChargers": {
              "evCharger": []
            }
          },
          {
            "id": "1392334",
            "pkey": "139233401",
            "navSeq": "1",
            "collectionType": "poi",
            "name": "이마트 자양점 주차장",
            "telNo": "02-2024-1234",
            "frontLat": "37.53829251",
            "frontLon": "127.07323542",
            "noorLat": "37.53829251",
            "noorLon": "127.07323542",
            "pnsLat": "37.53829251",
            "pnsLon": "127.07323542",
            "upperAddrName": "서울",
            "middleAddrName": "광진구",
            "lowerAddrName": "자양동",
            "detailAddrName": "",
            "mlClass": "1",
            "firstNo": "227",
            "secondNo": "7",
            "roadName": "아차산로",
            "firstBuildNo": "272",
            "secondBuildNo": "0",
            "radius": "0.0",
            "bizName": "",
            "upperBizName": "쇼핑",
            "middleBizName": "슈퍼\\/마트",
            "lowerBizName": "대형마트",
            "detailBizName": "이마트",
            "rpFlag": "8",
            "parkFlag": "0",
            "detailInfoFlag": "1",
            "desc": "이마트는 국내 최초의 할인점으로서 대한민국 1등 할인점입니다.",
            "dataKind": "",
            "zipCode": "05065",
            "adminDongCode": "1121584000",
            "legalDongCode": "1121510500",
            "newAddressList": {
              "newAddress": [
                {
                  "centerLat": "37.53829251",
                  "centerLon": "127.07323542",
                  "frontLat": "37.53829251",
                  "frontLon": "127.07323542",
                  "roadName": "아차산로",
                  "bldNo1": "272",
                  "bldNo2": "0",
                  "roadId": "00320",
                  "fullAddressRoad": "서울 광진구 아차산로 272"
                }
              ]
            },
            "evChargers": {
              "evCharger": []
            }
          },
          {
            "id": "1392334",
            "pkey": "139233402",
            "navSeq": "2",
            "collectionType": "poi",
            "name": "이마트 자양점 정문",
            "telNo": "02-2024-1234",
            "frontLat": "37.53895910",
            "frontLon": "127.07298542",
            "noorLat": "37.53895910",
            "noorLon": "127.07298542",
            "pnsLat": "37.53895910",
            "pnsLon": "127.07298542",
            "upperAddrName": "서울",
            "middleAddrName": "광진구",
            "lowerAddrName": "자양동",
            "detailAddrName": "",
            "mlClass": "1",
            "firstNo": "227",
            "secondNo": "7",
            "roadName": "아차산로",
            "firstBuildNo": "272",
            "secondBuildNo": "0",
            "radius": "0.0",
            "bizName": "",
            "upperBizName": "쇼핑",
            "middleBizName": "슈퍼\\/마트",
            "lowerBizName": "대형마트",
            "detailBizName": "이마트",
            "rpFlag": "8",
            "parkFlag": "0",
            "detailInfoFlag": "1",
            "desc": "이마트는 국내 최초의 할인점으로서 대한민국 1등 할인점입니다.",
            "dataKind": "",
            "zipCode": "05065",
            "adminDongCode": "1121584000",
            "legalDongCode": "1121510500",
            "newAddressList": {
              "newAddress": [
                {
                  "centerLat": "37.53895910",
                  "centerLon": "127.07298542",
                  "frontLat": "37.53895910",
                  "frontLon": "127.07298542",
                  "roadName": "아차산로",
                  "bldNo1": "272",
                  "bldNo2": "0",
                  "roadId": "00320",
                  "fullAddressRoad": "서울 광진구 아차산로 272"
                }
              ]
            },
            "evChargers": {
              "evCharger": []
            }
          },
          {
            "id": "186827",
            "pkey": "18682700",
            "navSeq": "0",
            "collectionType": "poi",
            "name": "이마트 역삼점",
            "telNo": "02-6908-1234",
            "frontLat": "37.49921328",
            "frontLon": "127.04884985",
            "noorLat": "37.49935214",
            "noorLon": "127.04837767",
            "pnsLat": "37.49968544",
            "pnsLon": "127.04859986",
            "upperAddrName": "서울",
            "middleAddrName": "강남구",
            "lowerAddrName": "역삼동",
            "detailAddrName": "",
            "mlClass": "1",
            "firstNo": "755",
            "secondNo": "0",
            "roadName": "역삼로",
            "firstBuildNo": "310",
            "secondBuildNo": "0",
            "radius": "0.0",
            "bizName": "",
            "upperBizName": "쇼핑",
            "middleBizName": "슈퍼\\/마트",
            "lowerBizName": "대형마트",
            "detailBizName": "이마트",
            "rpFlag": "8",
            "parkFlag": "1",
            "detailInfoFlag": "1",
            "desc": "이마트는 국내 최초의 할인점으로서 대한민국 1등 할인점입니다.",
            "dataKind": "",
            "zipCode": "06217",
            "adminDongCode": "1168065000",
            "legalDongCode": "1168010100",
            "newAddressList": {
              "newAddress": [
                {
                  "centerLat": "37.49935214",
                  "centerLon": "127.04837767",
                  "frontLat": "37.49921328",
                  "frontLon": "127.04884985",
                  "roadName": "역삼로",
                  "bldNo1": "310",
                  "bldNo2": "0",
                  "roadId": "00620",
                  "fullAddressRoad": "서울 강남구 역삼로 310"
                }
              ]
            },
            "evChargers": {
              "evCharger": []
            }
          },
          {
            "id": "186827",
            "pkey": "18682701",
            "navSeq": "1",
            "collectionType": "poi",
            "name": "이마트 역삼점 주차장",
            "telNo": "02-6908-1234",
            "frontLat": "37.49921328",
            "frontLon": "127.04884985",
            "noorLat": "37.49921328",
            "noorLon": "127.04884985",
            "pnsLat": "37.49921328",
            "pnsLon": "127.04884985",
            "upperAddrName": "서울",
            "middleAddrName": "강남구",
            "lowerAddrName": "역삼동",
            "detailAddrName": "",
            "mlClass": "1",
            "firstNo": "755",
            "secondNo": "0",
            "roadName": "역삼로",
            "firstBuildNo": "310",
            "secondBuildNo": "0",
            "radius": "0.0",
            "bizName": "",
            "upperBizName": "쇼핑",
            "middleBizName": "슈퍼\\/마트",
            "lowerBizName": "대형마트",
            "detailBizName": "이마트",
            "rpFlag": "8",
            "parkFlag": "0",
            "detailInfoFlag": "1",
            "desc": "이마트는 국내 최초의 할인점으로서 대한민국 1등 할인점입니다.",
            "dataKind": "",
            "zipCode": "06217",
            "adminDongCode": "1168065000",
            "legalDongCode": "1168010100",
            "newAddressList": {
              "newAddress": [
                {
                  "centerLat": "37.49921328",
                  "centerLon": "127.04884985",
                  "frontLat": "37.49921328",
                  "frontLon": "127.04884985",
                  "roadName": "역삼로",
                  "bldNo1": "310",
                  "bldNo2": "0",
                  "roadId": "00620",
                  "fullAddressRoad": "서울 강남구 역삼로 310"
                }
              ]
            },
            "evChargers": {
              "evCharger": []
            }
          }
        ]
      }
    }
  }
}