{
  "key": "fc2d63e6cc3d213daec347f7d226d2717780c6525289e8faa3db35fbf9d2de14",
  "tool": "PlaceSearch_kakao",
  "created_at": "2025-12-14T13:34:51.841996",
  "input_params": {
    "keyword": "대학교",
    "page": 1,
    "radius": 2000,
    "size": 5,
    "sort": "distance",
    "x": 126.9844386,
    "y": 37.5735225
  },
  "raw_args": {
    "keyword": "대학교",
    "x": 126.9844386,
    "y": 37.5735225,
    "size": 5,
    "page": 1,
    "sort": "distance",
    "radius": 2000
  },
  "data": {
    "keyword": "대학교",
    "total_count": 508,
    "places": [
      {
        "name": "갤러리H",
        "latitude": 37.5737141247144,
        "longitude": 126.984491463568,
        "address": "서울 종로구 관훈동 192-46",
        "road_address": "서울 종로구 인사동9길 10",
        "phone": "02-735-3367",
        "category": "문화,예술 > 미술,공예 > 화랑",
        "distance": "21"
      },
      {
        "name": "한국불교법사대학",
        "latitude": 37.5729696477984,
        "longitude": 126.982657780085,
        "address": "서울 종로구 견지동 110-39",
        "road_address": "서울 종로구 우정국로 45-3",
        "phone": "02-733-1959",
        "category": "문화,예술 > 종교 > 불교",
        "distance": "168"
      },
      {
        "name": "건국빌딩 관리사무실",
        "latitude": 37.5740027111255,
        "longitude": 126.986687511506,
        "address": "서울 종로구 경운동 47-1",
        "road_address": "서울 종로구 인사동4길 17",
        "phone": "02-734-2701",
        "category": "서비스,산업 > 관리,운영 > 건물관리사무소",
        "distance": "205"
      },
      {
        "name": "동산불교대학",
        "latitude": 37.572920928052,
        "longitude": 126.982214048189,
        "address": "서울 종로구 수송동 46-20",
        "road_address": "서울 종로구 우정국로 45-11",
        "phone": "02-732-1206",
        "category": "교육,학문 > 학교 > 종교학교",
        "distance": "207"
      },
      {
        "name": "동국대학교석림회",
        "latitude": 37.5750581409892,
        "longitude": 126.982571261468,
        "address": "서울 종로구 견지동 13",
        "road_address": "서울 종로구 우정국로 67",
        "phone": "02-733-8985",
        "category": "가정,생활 > 친목 > 동창회,동문회",
        "distance": "237"
      }
    ]
  }
}