{
  "key": "fc873974eb871d3ce4ddff52d6fcc58d193b0e8f7f4dc0d1a3403eee6404f44f",
  "tool": "PlaceSearch_kakao",
  "created_at": "2025-12-16T03:44:23.008740",
  "input_params": {
    "keyword": "디저트 카페",
    "radius": 1000,
    "sort": "distance",
    "x": 127.02682596950105,
    "y": 37.503107014775864
  },
  "raw_args": {
    "keyword": "디저트 카페",
    "x": 127.02682596950105,
    "y": 37.503107014775864,
    "radius": 1000,
    "sort": "distance"
  },
  "data": {
    "keyword": "디저트 카페",
    "total_count": 98,
    "places": [
      {
        "name": "까치화방 강남역점",
        "latitude": 37.503303460371576,
        "longitude": 127.02670955234811,
        "address": "서울 강남구 역삼동 811-13",
        "road_address": "서울 강남구 봉은사로4길 23",
        "phone": "02-558-5533",
        "category": "음식점 > 카페 > 테마카페 > 디저트카페",
        "distance": "24"
      },
      {
        "name": "본부케",
        "latitude": 37.5030692402211,
        "longitude": 127.02652625623,
        "address": "서울 강남구 역삼동 810-10",
        "road_address": "서울 강남구 강남대로106길 11",
        "phone": "02-567-3365",
        "category": "음식점 > 카페",
        "distance": "26"
      },
      {
        "name": "아란로빈",
        "latitude": 37.5028961296973,
        "longitude": 127.027044165443,
        "address": "서울 강남구 역삼동 812-7",
        "road_address": "서울 강남구 봉은사로4길 31-3",
        "phone": "0507-1352-9306",
        "category": "음식점 > 카페",
        "distance": "30"
      },
      {
        "name": "한과와락",
        "latitude": 37.50292854125962,
        "longitude": 127.02715161646698,
        "address": "서울 강남구 역삼동 812-6",
        "road_address": "서울 강남구 봉은사로4길 31-5",
        "phone": "010-9744-6204",
        "category": "음식점 > 간식 > 떡,한과",
        "distance": "34"
      },
      {
        "name": "스크렘",
        "latitude": 37.50372608718901,
        "longitude": 127.02646428623794,
        "address": "서울 강남구 역삼동 811",
        "road_address": "서울 강남구 봉은사로4길 17",
        "phone": "",
        "category": "음식점 > 카페",
        "distance": "75"
      },
      {
        "name": "벙커616",
        "latitude": 37.50350058759365,
        "longitude": 127.02754991766388,
        "address": "서울 강남구 역삼동 616-16",
        "road_address": "서울 강남구 강남대로106길 25-1",
        "phone": "",
        "category": "음식점 > 카페",
        "distance": "77"
      },
      {
        "name": "어퍼앤언더",
        "latitude": 37.5027373946275,
        "longitude": 127.027726063481,
        "address": "서울 강남구 역삼동 618-17",
        "road_address": "서울 강남구 강남대로102길 28",
        "phone": "",
        "category": "음식점 > 카페 > 테마카페 > 디저트카페",
        "distance": "89"
      },
      {
        "name": "강남커피",
        "latitude": 37.5022952333225,
        "longitude": 127.026717109706,
        "address": "서울 강남구 역삼동 813-15",
        "road_address": "서울 강남구 강남대로102길 13-5",
        "phone": "02-552-8522",
        "category": "음식점 > 카페 > 커피전문점",
        "distance": "90"
      },
      {
        "name": "썸띵어바웃커피",
        "latitude": 37.502824775159816,
        "longitude": 127.02779847587531,
        "address": "서울 강남구 역삼동 618-16",
        "road_address": "서울 강남구 강남대로102길 30",
        "phone": "",
        "category": "음식점 > 카페 > 테마카페 > 디저트카페",
        "distance": "91"
      },
      {
        "name": "그레이스케일커피",
        "latitude": 37.5032535497272,
        "longitude": 127.028237441604,
        "address": "서울 강남구 역삼동 618-8",
        "road_address": "서울 강남구 강남대로102길 38",
        "phone": "",
        "category": "음식점 > 카페",
        "distance": "125"
      },
      {
        "name": "더달달",
        "latitude": 37.503192221615,
        "longitude": 127.028486226258,
        "address": "서울 강남구 역삼동 618-7",
        "road_address": "서울 강남구 강남대로102길 38-6",
        "phone": "02-562-3737",
        "category": "음식점 > 카페",
        "distance": "147"
      },
      {
        "name": "마이블루투모로우 강남대로점",
        "latitude": 37.502927272626,
        "longitude": 127.02472235617,
        "address": "서울 서초구 서초동 1303-35",
        "road_address": "서울 서초구 강남대로 455",
        "phone": "",
        "category": "음식점 > 카페 > 테마카페 > 디저트카페",
        "distance": "187"
      },
      {
        "name": "015COFFEE",
        "latitude": 37.5012120305836,
        "longitude": 127.027560385932,
        "address": "서울 강남구 역삼동 619-25",
        "road_address": "서울 강남구 봉은사로18길 84",
        "phone": "",
        "category": "음식점 > 카페",
        "distance": "219"
      },
      {
        "name": "설빙 강남역점",
        "latitude": 37.50113103589973,
        "longitude": 127.02714644191718,
        "address": "서울 강남구 역삼동 619-18",
        "road_address": "서울 강남구 테헤란로1길 42",
        "phone": "02-558-7708",
        "category": "음식점 > 카페 > 테마카페 > 디저트카페 > 설빙",
        "distance": "221"
      },
      {
        "name": "카페프라미스",
        "latitude": 37.5052687406096,
        "longitude": 127.025867675625,
        "address": "서울 강남구 논현동 201-4",
        "road_address": "서울 강남구 봉은사로 113",
        "phone": "",
        "category": "음식점 > 카페 > 테마카페 > 디저트카페",
        "distance": "254"
      }
    ]
  }
}