{
  "key": "8f13118c412132f72c893c1df7772cef5f1b14bebae3647d3e1fd759ae97f82b",
  "tool": "PlaceSearch_kakao",
  "created_at": "2025-12-16T02:59:40.832719",
  "input_params": {
    "keyword": "Apple Store",
    "sort": "distance",
    "x": 127.02800140627488,
    "y": 37.49808633653005
  },
  "raw_args": {
    "keyword": "Apple Store",
    "x": 127.02800140627488,
    "y": 37.49808633653005,
    "sort": "distance"
  },
  "data": {
    "keyword": "Apple Store",
    "total_count": 25,
    "places": [
      {
        "name": "Apple 강남",
        "latitude": 37.5036902997713,
        "longitude": 127.025310702725,
        "address": "서울 강남구 역삼동 809",
        "road_address": "서울 강남구 강남대로 464",
        "phone": "080-500-0456",
        "category": "가정,생활 > 전자제품 > 전자제품서비스센터 > 통신기기수리 > Apple 공인서비스센터",
        "distance": "665"
      },
      {
        "name": "Apple 가로수길",
        "latitude": 37.520819816124934,
        "longitude": 127.02272940977892,
        "address": "서울 강남구 신사동 534-19",
        "road_address": "서울 강남구 가로수길 43",
        "phone": "080-500-0029",
        "category": "가정,생활 > 전자제품 > 전자제품서비스센터 > 통신기기수리 > Apple 공인서비스센터",
        "distance": "2566"
      },
      {
        "name": "a#shop 현대백화점무역센터점",
        "latitude": 37.50840101038459,
        "longitude": 127.05966824338046,
        "address": "서울 강남구 삼성동 159-7",
        "road_address": "서울 강남구 테헤란로 517",
        "phone": "02-3467-8373",
        "category": "가정,생활 > 전자제품 > 전자제품판매 > a#shop",
        "distance": "3025"
      },
      {
        "name": "a#shop 현대백화점압구정점",
        "latitude": 37.52733395706555,
        "longitude": 127.02747043826793,
        "address": "서울 강남구 압구정동 429",
        "road_address": "서울 강남구 압구정로 165",
        "phone": "02-3449-5474",
        "category": "가정,생활 > 전자제품 > 전자제품판매 > a#shop",
        "distance": "3246"
      },
      {
        "name": "Apple 잠실",
        "latitude": 37.5139978977813,
        "longitude": 127.10408109426407,
        "address": "서울 송파구 신천동 29",
        "road_address": "서울 송파구 올림픽로 300",
        "phone": "080-500-0098",
        "category": "가정,생활 > 전자제품 > 전자제품서비스센터 > 통신기기수리 > Apple 공인서비스센터",
        "distance": "6954"
      },
      {
        "name": "애플 에이스토어 왕십리점",
        "latitude": 37.5614409428574,
        "longitude": 127.038391477602,
        "address": "서울 성동구 행당동 168-151",
        "road_address": "서울 성동구 왕십리광장로 17",
        "phone": "0507-1492-1573",
        "category": "가정,생활 > 전자제품 > 전자제품판매 > 에이스토어",
        "distance": "7091"
      },
      {
        "name": "Apple 명동",
        "latitude": 37.56468141612801,
        "longitude": 126.98284080132754,
        "address": "서울 중구 남대문로2가 9-1",
        "road_address": "서울 중구 남대문로 84",
        "phone": "080-500-1007",
        "category": "가정,생활 > 전자제품 > 전자제품서비스센터 > 통신기기수리 > Apple 공인서비스센터",
        "distance": "8400"
      },
      {
        "name": "a#shop 현대백화점여의도점",
        "latitude": 37.52532437573652,
        "longitude": 126.92863443939514,
        "address": "서울 영등포구 여의도동 22",
        "road_address": "서울 영등포구 여의대로 108",
        "phone": "02-3277-0576",
        "category": "가정,생활 > 전자제품 > 전자제품판매 > a#shop",
        "distance": "9290"
      },
      {
        "name": "Apple 여의도",
        "latitude": 37.52490014770034,
        "longitude": 126.92594128549898,
        "address": "서울 영등포구 여의도동 23",
        "road_address": "서울 영등포구 국제금융로 10",
        "phone": "080-500-0013",
        "category": "가정,생활 > 전자제품 > 전자제품서비스센터 > 통신기기수리 > Apple 공인서비스센터",
        "distance": "9501"
      },
      {
        "name": "a#shop 현대백화점천호점",
        "latitude": 37.53920650319215,
        "longitude": 127.12419550070103,
        "address": "서울 강동구 천호동 572",
        "road_address": "서울 강동구 천호대로 1005",
        "phone": "02-2225-8920",
        "category": "가정,생활 > 전자제품 > 전자제품판매 > a#shop",
        "distance": "9651"
      },
      {
        "name": "a#shop 현대백화점신촌점",
        "latitude": 37.556031047903375,
        "longitude": 126.93596941274329,
        "address": "서울 서대문구 창천동 30-33",
        "road_address": "서울 서대문구 신촌로 83",
        "phone": "02-3145-2943",
        "category": "가정,생활 > 전자제품 > 전자제품판매 > a#shop",
        "distance": "10369"
      },
      {
        "name": "Apple 홍대",
        "latitude": 37.55511260345064,
        "longitude": 126.92194695320684,
        "address": "서울 마포구 동교동 162-4",
        "road_address": "서울 마포구 양화로 140",
        "phone": "080-500-3005",
        "category": "가정,생활 > 전자제품 > 전자제품서비스센터 > 통신기기수리 > Apple 공인서비스센터",
        "distance": "11311"
      },
      {
        "name": "a#shop 마리오점",
        "latitude": 37.478336929144604,
        "longitude": 126.88517710236641,
        "address": "서울 금천구 가산동 60-20",
        "road_address": "서울 금천구 벚꽃로 266",
        "phone": "02-2067-3844",
        "category": "가정,생활 > 전자제품 > 전자제품판매 > a#shop",
        "distance": "12819"
      },
      {
        "name": "a#shop 현대백화점판교점",
        "latitude": 37.39294294093843,
        "longitude": 127.11226342344915,
        "address": "경기 성남시 분당구 백현동 541",
        "road_address": "경기 성남시 분당구 판교역로146번길 20",
        "phone": "031-5170-2359",
        "category": "가정,생활 > 전자제품 > 전자제품판매 > a#shop",
        "distance": "13848"
      },
      {
        "name": "a#shop 현대백화점목동점",
        "latitude": 37.52719236520492,
        "longitude": 126.87476438646353,
        "address": "서울 양천구 목동 916",
        "road_address": "서울 양천구 목동동로 257",
        "phone": "02-2163-2635",
        "category": "가정,생활 > 전자제품 > 전자제품판매 > a#shop",
        "distance": "13927"
      }
    ]
  }
}