{
  "key": "8f89c66dde5910e2338ec969071cc392290a842ad4d42654a5980dbf93eece2d",
  "tool": "PlaceSearch_kakao",
  "created_at": "2025-12-15T13:54:29.755590",
  "input_params": {
    "keyword": "카페",
    "size": 5,
    "sort": "accuracy"
  },
  "raw_args": {
    "keyword": "카페",
    "size": 5
  },
  "data": {
    "keyword": "카페",
    "total_count": 148691,
    "places": [
      {
        "name": "해어름",
        "latitude": 36.9302482754812,
        "longitude": 126.80655710752,
        "address": "충남 당진시 신평면 매산리 29-10",
        "road_address": "충남 당진시 신평면 매산해변길 144",
        "phone": "041-362-1955",
        "category": "음식점 > 카페",
        "distance": ""
      },
      {
        "name": "제주바솔트",
        "latitude": 33.51119369008841,
        "longitude": 126.52479900844125,
        "address": "제주특별자치도 제주시 이도일동 1421-2",
        "road_address": "제주특별자치도 제주시 중앙로13길 6",
        "phone": "064-721-7625",
        "category": "음식점 > 카페 > 테마카페 > 디저트카페",
        "distance": ""
      },
      {
        "name": "성수동대림창고갤러리",
        "latitude": 37.54171994709006,
        "longitude": 127.05624815815919,
        "address": "서울 성동구 성수동2가 322-32",
        "road_address": "서울 성동구 성수이로 78",
        "phone": "0507-1390-9669",
        "category": "음식점 > 카페 > 테마카페 > 갤러리카페",
        "distance": ""
      },
      {
        "name": "키친205",
        "latitude": 35.0612153133768,
        "longitude": 126.524440181944,
        "address": "전남 함평군 함평읍 기각리 254-7",
        "road_address": "전남 함평군 함평읍 함평천우길 52",
        "phone": "061-322-9898",
        "category": "음식점 > 카페",
        "distance": ""
      },
      {
        "name": "아침미소목장",
        "latitude": 33.45328485113258,
        "longitude": 126.58742101419338,
        "address": "제주특별자치도 제주시 월평동 2",
        "road_address": "제주특별자치도 제주시 첨단동길 160-30",
        "phone": "0502-5550-6854",
        "category": "음식점 > 카페",
        "distance": ""
      }
    ]
  }
}