{
  "key": "16bf5d58a7771be0e8bc34aed972e15656d06aca5116456c3869cc0a3f492a41",
  "tool": "CategorySearch_kakao",
  "created_at": "2025-10-26T11:18:12.659797",
  "input_params": {
    "category": "CE7",
    "radius": 500,
    "size": 15,
    "x": 126.9237,
    "y": 37.5563
  },
  "raw_args": {
    "category": "CE7",
    "x": 126.9237,
    "y": 37.5563,
    "radius": 500,
    "size": 15
  },
  "data": {
    "category": "CE7",
    "total_count": 453,
    "places": [
      {
        "name": "벌툰 봉화당 홍대입구역점",
        "latitude": 37.5564499530999,
        "longitude": 126.925146143059,
        "address": "서울 마포구 동교동 169-11",
        "phone": "02-333-5111",
        "distance": "128"
      },
      {
        "name": "놀숲 프리미엄홍대점",
        "latitude": 37.5522899275144,
        "longitude": 126.92217397074651,
        "address": "서울 마포구 서교동 364-26",
        "phone": "02-336-7001",
        "distance": "465"
      },
      {
        "name": "레드버튼 홍대점",
        "latitude": 37.5540084192114,
        "longitude": 126.922613551217,
        "address": "서울 마포구 서교동 358-1",
        "phone": "02-333-3799",
        "distance": "272"
      },
      {
        "name": "히어로보드게임카페 홍대2호점",
        "latitude": 37.55534916196303,
        "longitude": 126.92270270334447,
        "address": "서울 마포구 동교동 162-3",
        "phone": "02-3142-7767",
        "distance": "137"
      },
      {
        "name": "히어로보드게임카페 홍대1호점",
        "latitude": 37.55209599632931,
        "longitude": 126.92184598443768,
        "address": "서울 마포구 서교동 364-22",
        "phone": "02-6368-6001",
        "distance": "494"
      },
      {
        "name": "홈즈앤루팡 홍대점",
        "latitude": 37.5541414020202,
        "longitude": 126.922058874058,
        "address": "서울 마포구 서교동 356-3",
        "phone": "02-336-8708",
        "distance": "280"
      },
      {
        "name": "레드버튼 레이어드 홍대점",
        "latitude": 37.5526020758834,
        "longitude": 126.921422203806,
        "address": "서울 마포구 서교동 369-4",
        "phone": "02-336-3779",
        "distance": "457"
      },
      {
        "name": "943킹스크로스",
        "latitude": 37.552989095652656,
        "longitude": 126.92080954986005,
        "address": "서울 마포구 서교동 369-1",
        "phone": "0502-5552-8898",
        "distance": "447"
      },
      {
        "name": "데블다이스 홍대점",
        "latitude": 37.5549495465089,
        "longitude": 126.923358385336,
        "address": "서울 마포구 서교동 345-6",
        "phone": "070-4234-3912",
        "distance": "153"
      },
      {
        "name": "이미커피",
        "latitude": 37.55747500027613,
        "longitude": 126.92191959031598,
        "address": "서울 마포구 동교동 201-10",
        "phone": "02-6368-5228",
        "distance": "204"
      },
      {
        "name": "땡스네이쳐카페",
        "latitude": 37.5535983096117,
        "longitude": 126.923759261108,
        "address": "서울 마포구 서교동 486",
        "phone": "02-332-7470",
        "distance": "300"
      },
      {
        "name": "카페공명 연남점",
        "latitude": 37.5598708965573,
        "longitude": 126.926352615326,
        "address": "서울 마포구 동교동 146-8",
        "phone": "070-8869-6304",
        "distance": "460"
      },
      {
        "name": "카툰플러스 만화카페 24H (구 놀숲플러스)",
        "latitude": 37.5531929633346,
        "longitude": 126.921171477897,
        "address": "서울 마포구 서교동 357-5",
        "phone": "02-337-6588",
        "distance": "411"
      },
      {
        "name": "카페장쌤",
        "latitude": 37.5557374557051,
        "longitude": 126.926889731852,
        "address": "서울 마포구 서교동 333-30",
        "phone": "070-4084-3414",
        "distance": "288"
      },
      {
        "name": "터틀힙",
        "latitude": 37.55979694723278,
        "longitude": 126.92068463815171,
        "address": "서울 마포구 연남동 565-19",
        "phone": "02-332-5854",
        "distance": "470"
      }
    ]
  }
}