{
  "key": "6d41a7281c25b2f09f9a3e5f376fd729ccd3db3a8c65a5025469bae3c5eb58ac",
  "tool": "PlaceSearch_kakao",
  "created_at": "2025-10-27T09:05:43.411964",
  "input_params": {
    "keyword": "주차장",
    "radius": 1000,
    "sort": "accuracy",
    "x": 126.94608,
    "y": 37.49166
  },
  "raw_args": {
    "keyword": "주차장",
    "x": 126.94608,
    "y": 37.49166,
    "radius": 1000,
    "sort": "accuracy"
  },
  "data": {
    "keyword": "주차장",
    "total_count": 21,
    "places": [
      {
        "name": "국사봉체육관 주차장",
        "latitude": 37.4916051540891,
        "longitude": 126.941729181845,
        "address": "서울 관악구 봉천동 산 103-52",
        "road_address": "서울 관악구 국회단지길 142",
        "phone": "",
        "category": "교통,수송 > 교통시설 > 주차장",
        "distance": "384"
      },
      {
        "name": "노외주차장",
        "latitude": 37.4891302716229,
        "longitude": 126.94397447699,
        "address": "서울 관악구 봉천동 1694",
        "road_address": "서울 관악구 은천로15길 25",
        "phone": "",
        "category": "교통,수송 > 교통시설 > 주차장",
        "distance": "337"
      },
      {
        "name": "한솔주차장",
        "latitude": 37.487390860262096,
        "longitude": 126.94686586048971,
        "address": "서울 관악구 봉천동 494-10",
        "road_address": "서울 관악구 양녕로 60",
        "phone": "",
        "category": "교통,수송 > 교통시설 > 주차장",
        "distance": "479"
      },
      {
        "name": "은천동 공영주차장",
        "latitude": 37.486964889446,
        "longitude": 126.941576749696,
        "address": "서울 관악구 봉천동 635-663",
        "road_address": "서울 관악구 국회단지4길 32",
        "phone": "",
        "category": "교통,수송 > 교통시설 > 주차장 > 공영주차장",
        "distance": "655"
      },
      {
        "name": "메카플러스 주차장",
        "latitude": 37.48611248705799,
        "longitude": 126.94727168793511,
        "address": "서울 관악구 봉천동 463-4",
        "road_address": "서울 관악구 양녕로 46",
        "phone": "",
        "category": "교통,수송 > 교통시설 > 주차장",
        "distance": "624"
      },
      {
        "name": "삼선이엔티주차장",
        "latitude": 37.495951558610734,
        "longitude": 126.9416217681445,
        "address": "서울 동작구 상도동 산 65-145",
        "road_address": "서울 동작구 양녕로23길 12",
        "phone": "02-823-1234",
        "category": "교통,수송 > 교통시설 > 주차장",
        "distance": "618"
      },
      {
        "name": "봉천10동주차장",
        "latitude": 37.4863174217531,
        "longitude": 126.94813299333,
        "address": "서울 관악구 봉천동 465-8",
        "road_address": "",
        "phone": "",
        "category": "교통,수송 > 교통시설 > 주차장",
        "distance": "620"
      },
      {
        "name": "은호빌딩 주차장",
        "latitude": 37.48628534229935,
        "longitude": 126.94119962866276,
        "address": "서울 관악구 봉천동 937-15",
        "road_address": "서울 관악구 은천로 51",
        "phone": "",
        "category": "교통,수송 > 교통시설 > 주차장",
        "distance": "736"
      },
      {
        "name": "힐스테이트상도 센트럴파크 주차장",
        "latitude": 37.4967886257782,
        "longitude": 126.951667567137,
        "address": "서울 동작구 상도동 531",
        "road_address": "서울 동작구 상도로 346-1",
        "phone": "",
        "category": "교통,수송 > 교통시설 > 주차장",
        "distance": "753"
      },
      {
        "name": "아마노 메카플러스 주차장",
        "latitude": 37.4861539957698,
        "longitude": 126.947356324108,
        "address": "서울 관악구 봉천동 463-4",
        "road_address": "서울 관악구 양녕로 46",
        "phone": "",
        "category": "교통,수송 > 교통시설 > 주차장",
        "distance": "621"
      },
      {
        "name": "삼선이앤티 주차장",
        "latitude": 37.4965174439905,
        "longitude": 126.939930716559,
        "address": "서울 동작구 상도동 210-291",
        "road_address": "서울 동작구 양녕로23길 51",
        "phone": "02-822-1234",
        "category": "교통,수송 > 교통시설 > 주차장",
        "distance": "765"
      },
      {
        "name": "봉일스파랜드 주차장",
        "latitude": 37.4858946710452,
        "longitude": 126.938382271829,
        "address": "서울 관악구 봉천동 951-25",
        "road_address": "서울 관악구 은천로 28",
        "phone": "",
        "category": "교통,수송 > 교통시설 > 주차장",
        "distance": "934"
      },
      {
        "name": "상도1동주민센터 주차장",
        "latitude": 37.4981010615881,
        "longitude": 126.953082567353,
        "address": "서울 동작구 상도동 437",
        "road_address": "서울 동작구 상도로53길 9",
        "phone": "",
        "category": "교통,수송 > 교통시설 > 주차장",
        "distance": "945"
      },
      {
        "name": "관악한일유앤아이아파트 주차장",
        "latitude": 37.486967305647,
        "longitude": 126.950841700296,
        "address": "서울 관악구 봉천동 1727",
        "road_address": "",
        "phone": "",
        "category": "교통,수송 > 교통시설 > 주차장",
        "distance": "669"
      },
      {
        "name": "사리원 주차장",
        "latitude": 37.499114555465,
        "longitude": 126.950535185289,
        "address": "서울 동작구 상도1동 244-4",
        "road_address": "",
        "phone": "",
        "category": "교통,수송 > 교통시설 > 주차장",
        "distance": "916"
      }
    ]
  }
}