{
  "key": "385791d21880084edd37071b106a76e2d201c90dd9f0334dc065539b98103137",
  "tool": "PlaceSearch_kakao",
  "created_at": "2025-12-15T08:48:58.761196",
  "input_params": {
    "keyword": "맛집",
    "radius": 1000,
    "size": 5,
    "sort": "accuracy",
    "x": 127.216475764948,
    "y": 37.6360236390492
  },
  "raw_args": {
    "keyword": "맛집",
    "x": 127.216475764948,
    "y": 37.6360236390492,
    "radius": 1000,
    "size": 5,
    "sort": "accuracy"
  },
  "data": {
    "keyword": "맛집",
    "total_count": 117,
    "places": [
      {
        "name": "태능배갈비",
        "latitude": 37.6353160633072,
        "longitude": 127.215164031511,
        "address": "경기 남양주시 금곡동 185-18",
        "road_address": "경기 남양주시 경춘로 1023",
        "phone": "031-559-8588",
        "category": "음식점 > 한식 > 육류,고기 > 갈비",
        "distance": "139"
      },
      {
        "name": "나능이 금곡점",
        "latitude": 37.6353181485961,
        "longitude": 127.214017500397,
        "address": "경기 남양주시 금곡동 158-66",
        "road_address": "경기 남양주시 경춘로1015번길 3",
        "phone": "031-593-2881",
        "category": "음식점 > 한식 > 육류,고기 > 닭요리",
        "distance": "230"
      },
      {
        "name": "오가네아구찜",
        "latitude": 37.6359886906951,
        "longitude": 127.213901596625,
        "address": "경기 남양주시 금곡동 158-1",
        "road_address": "경기 남양주시 사릉로34번길 48",
        "phone": "031-591-5501",
        "category": "음식점 > 한식 > 해물,생선 > 아구",
        "distance": "227"
      },
      {
        "name": "원조공릉동멸치국수 금곡점",
        "latitude": 37.6355299650025,
        "longitude": 127.214466754158,
        "address": "경기 남양주시 금곡동 185-69",
        "road_address": "경기 남양주시 경춘로1015번길 8",
        "phone": "031-594-2901",
        "category": "음식점 > 한식 > 국수",
        "distance": "185"
      },
      {
        "name": "온기순대국 금곡본점",
        "latitude": 37.6339752890785,
        "longitude": 127.211738742707,
        "address": "경기 남양주시 금곡동 154-1",
        "road_address": "경기 남양주시 경춘로992번길 4",
        "phone": "031-511-1590",
        "category": "음식점 > 한식 > 순대",
        "distance": "475"
      }
    ]
  }
}