{
  "key": "e58375ece197e6caeab5824a0006976b3f3d316e64f24b728b4273fac185aa70",
  "tool": "CategorySearch_tmap",
  "created_at": "2025-12-19T05:32:41.255314",
  "input_params": {
    "categories": "병원",
    "centerLat": 37.5971656623384,
    "centerLon": 127.05173889409078,
    "count": 20,
    "radius": 1
  },
  "raw_args": {
    "categories": "병원",
    "centerLat": 37.5971656623384,
    "centerLon": 127.05173889409078,
    "radius": 1,
    "count": 20
  },
  "data": {
    "totalCount": 78,
    "count": 20,
    "page": 1,
    "pois": [
      {
        "name": "경희의료원",
        "telNo": "029588114",
        "latitude": "37.59409120",
        "longitude": "127.05184689",
        "address": "서울 동대문구 회기동",
        "roadName": "경희대로",
        "buildingNo": "-",
        "radius_km": "0.343",
        "dataKind": "",
        "stId": "",
        "parkFlag": "1",
        "merchantFlag": ""
      },
      {
        "name": "경희대학교치과병원",
        "telNo": "029588114",
        "latitude": "37.59414677",
        "longitude": "127.05320787",
        "address": "서울 동대문구 회기동",
        "roadName": "경희대로",
        "buildingNo": "-",
        "radius_km": "0.361",
        "dataKind": "",
        "stId": "",
        "parkFlag": "1",
        "merchantFlag": ""
      },
      {
        "name": "경희대학교치과병원 주차장",
        "telNo": "029588114",
        "latitude": "37.59398012",
        "longitude": "127.05301345",
        "address": "서울 동대문구 회기동",
        "roadName": "경희대로",
        "buildingNo": "-",
        "radius_km": "0.361",
        "dataKind": "",
        "stId": "",
        "parkFlag": "0",
        "merchantFlag": ""
      },
      {
        "name": "경희의료원 응급실",
        "telNo": "029588282",
        "latitude": "37.59361903",
        "longitude": "127.05179135",
        "address": "서울 동대문구 회기동",
        "roadName": "경희대로",
        "buildingNo": "-",
        "radius_km": "0.395",
        "dataKind": "",
        "stId": "",
        "parkFlag": "0",
        "merchantFlag": ""
      },
      {
        "name": "후마니타스암병원 1주차장",
        "telNo": "",
        "latitude": "37.59325796",
        "longitude": "127.05190246",
        "address": "서울 동대문구 회기동",
        "roadName": "경희대로",
        "buildingNo": "-",
        "radius_km": "0.402",
        "dataKind": "",
        "stId": "",
        "parkFlag": "0",
        "merchantFlag": ""
      },
      {
        "name": "후마니타스암병원 2주차장",
        "telNo": "",
        "latitude": "37.59339682",
        "longitude": "127.05101365",
        "address": "서울 동대문구 회기동",
        "roadName": "경희대로",
        "buildingNo": "-",
        "radius_km": "0.402",
        "dataKind": "",
        "stId": "",
        "parkFlag": "0",
        "merchantFlag": ""
      },
      {
        "name": "후마니타스암병원",
        "telNo": "",
        "latitude": "37.59356348",
        "longitude": "127.05190245",
        "address": "서울 동대문구 회기동",
        "roadName": "경희대로",
        "buildingNo": "-",
        "radius_km": "0.402",
        "dataKind": "",
        "stId": "",
        "parkFlag": "1",
        "merchantFlag": ""
      },
      {
        "name": "부치과의원",
        "telNo": "029656923",
        "latitude": "37.59339695",
        "longitude": "127.05798524",
        "address": "서울 동대문구 이문동",
        "roadName": "이문로",
        "buildingNo": "-",
        "radius_km": "0.693",
        "dataKind": "",
        "stId": "",
        "parkFlag": "0",
        "merchantFlag": ""
      },
      {
        "name": "더봄정신건강의학과의원",
        "telNo": "029626300",
        "latitude": "37.59100825",
        "longitude": "127.05326351",
        "address": "서울 동대문구 회기동",
        "roadName": "회기로",
        "buildingNo": "-",
        "radius_km": "0.699",
        "dataKind": "",
        "stId": "",
        "parkFlag": "0",
        "merchantFlag": ""
      },
      {
        "name": "백동준치과의원",
        "telNo": "029677325",
        "latitude": "37.59098047",
        "longitude": "127.05320796",
        "address": "서울 동대문구 회기동",
        "roadName": "회기로",
        "buildingNo": "-",
        "radius_km": "0.701",
        "dataKind": "",
        "stId": "",
        "parkFlag": "0",
        "merchantFlag": ""
      },
      {
        "name": "보람산부인과의원",
        "telNo": "029656669",
        "latitude": "37.59359138",
        "longitude": "127.05856851",
        "address": "서울 동대문구 이문동",
        "roadName": "이문로",
        "buildingNo": "-",
        "radius_km": "0.722",
        "dataKind": "",
        "stId": "",
        "parkFlag": "1",
        "merchantFlag": ""
      },
      {
        "name": "심온치과의원",
        "telNo": "029607528",
        "latitude": "37.59389690",
        "longitude": "127.05887403",
        "address": "서울 동대문구 이문동",
        "roadName": "이문로12길",
        "buildingNo": "-",
        "radius_km": "0.727",
        "dataKind": "",
        "stId": "",
        "parkFlag": "0",
        "merchantFlag": ""
      },
      {
        "name": "아라현치과의원",
        "telNo": "029662877",
        "latitude": "37.59534120",
        "longitude": "127.05967947",
        "address": "서울 동대문구 이문동",
        "roadName": "이문로",
        "buildingNo": "-",
        "radius_km": "0.729",
        "dataKind": "",
        "stId": "",
        "parkFlag": "0",
        "merchantFlag": ""
      },
      {
        "name": "동안비전내과의원",
        "telNo": "029690119",
        "latitude": "37.59464683",
        "longitude": "127.05940174",
        "address": "서울 동대문구 이문동",
        "roadName": "이문로",
        "buildingNo": "-",
        "radius_km": "0.732",
        "dataKind": "",
        "stId": "",
        "parkFlag": "1",
        "merchantFlag": ""
      },
      {
        "name": "동안비전내과의원 주차장",
        "telNo": "029690119",
        "latitude": "37.59478570",
        "longitude": "127.05954061",
        "address": "서울 동대문구 이문동",
        "roadName": "이문로",
        "buildingNo": "-",
        "radius_km": "0.732",
        "dataKind": "",
        "stId": "",
        "parkFlag": "0",
        "merchantFlag": ""
      },
      {
        "name": "서울현정신건강의학과의원",
        "telNo": "0269495663",
        "latitude": "37.59550785",
        "longitude": "127.05984612",
        "address": "서울 동대문구 이문동",
        "roadName": "이문로",
        "buildingNo": "-",
        "radius_km": "0.739",
        "dataKind": "",
        "stId": "",
        "parkFlag": "1",
        "merchantFlag": ""
      },
      {
        "name": "서울현정신건강의학과의원 주차장",
        "telNo": "0269495663",
        "latitude": "37.59556339",
        "longitude": "127.05976279",
        "address": "서울 동대문구 이문동",
        "roadName": "이문로",
        "buildingNo": "-",
        "radius_km": "0.739",
        "dataKind": "",
        "stId": "",
        "parkFlag": "0",
        "merchantFlag": ""
      },
      {
        "name": "서울앤치과의원",
        "telNo": "",
        "latitude": "37.59161935",
        "longitude": "127.05679095",
        "address": "서울 동대문구 이문동",
        "roadName": "이문로",
        "buildingNo": "-",
        "radius_km": "0.762",
        "dataKind": "",
        "stId": "",
        "parkFlag": "0",
        "merchantFlag": ""
      },
      {
        "name": "보인내과의원",
        "telNo": "029660242",
        "latitude": "37.59742430",
        "longitude": "127.06065155",
        "address": "서울 동대문구 이문동",
        "roadName": "이문로",
        "buildingNo": "-",
        "radius_km": "0.787",
        "dataKind": "",
        "stId": "",
        "parkFlag": "0",
        "merchantFlag": ""
      },
      {
        "name": "서울석치과의원",
        "telNo": "029637522",
        "latitude": "37.59742430",
        "longitude": "127.06067932",
        "address": "서울 동대문구 이문동",
        "roadName": "이문로",
        "buildingNo": "-",
        "radius_km": "0.789",
        "dataKind": "",
        "stId": "",
        "parkFlag": "1",
        "merchantFlag": ""
      }
    ]
  }
}