{
  "key": "4e7373ee9025dfce7a2f0f1ef6cb8437e2f1d20de4cb28986d6747158af9f301",
  "tool": "PlaceSearch_kakao",
  "created_at": "2025-12-15T08:26:32.893945",
  "input_params": {
    "keyword": "병원",
    "page": 1,
    "radius": 1500,
    "size": 15,
    "sort": "accuracy",
    "x": 127.05173889409078,
    "y": 37.5971656623384
  },
  "raw_args": {
    "keyword": "병원",
    "x": 127.05173889409078,
    "y": 37.5971656623384,
    "page": 1,
    "size": 15,
    "radius": 1500,
    "sort": "accuracy"
  },
  "data": {
    "keyword": "병원",
    "total_count": 229,
    "places": [
      {
        "name": "경희의료원",
        "latitude": 37.5938752004487,
        "longitude": 127.051832862704,
        "address": "서울 동대문구 회기동 1-5",
        "road_address": "서울 동대문구 경희대로 23",
        "phone": "02-958-8114",
        "category": "의료,건강 > 병원 > 대학병원",
        "distance": "365"
      },
      {
        "name": "경희대학교한방병원",
        "latitude": 37.5938571806208,
        "longitude": 127.051832850206,
        "address": "서울 동대문구 회기동 1-5",
        "road_address": "서울 동대문구 경희대로 23",
        "phone": "02-958-8114",
        "category": "의료,건강 > 병원 > 한방병원",
        "distance": "367"
      },
      {
        "name": "경희대학교치과병원",
        "latitude": 37.59411424584499,
        "longitude": 127.05322238365355,
        "address": "서울 동대문구 회기동 1-5",
        "road_address": "서울 동대문구 경희대로 26",
        "phone": "02-958-8114",
        "category": "의료,건강 > 병원 > 치과",
        "distance": "362"
      },
      {
        "name": "경희대학교병원 응급의료센터",
        "latitude": 37.5936303189537,
        "longitude": 127.051402414504,
        "address": "서울 동대문구 회기동 1-5",
        "road_address": "서울 동대문구 경희대로 23",
        "phone": "02-958-8282",
        "category": "의료,건강 > 병원 > 응급실",
        "distance": "393"
      },
      {
        "name": "사랑내과의원",
        "latitude": 37.5904389970222,
        "longitude": 127.055403901931,
        "address": "서울 동대문구 회기동 346-1",
        "road_address": "서울 동대문구 회기로 173",
        "phone": "02-962-9175",
        "category": "의료,건강 > 병원 > 내과",
        "distance": "813"
      },
      {
        "name": "최일규정형외과의원",
        "latitude": 37.5979358642861,
        "longitude": 127.061438233626,
        "address": "서울 동대문구 이문동 292-249",
        "road_address": "서울 동대문구 이문로 128",
        "phone": "02-959-8312",
        "category": "의료,건강 > 병원 > 정형외과",
        "distance": "860"
      },
      {
        "name": "서울아트피부과의원",
        "latitude": 37.5960558517365,
        "longitude": 127.060750484886,
        "address": "서울 동대문구 이문동 288-50",
        "road_address": "서울 동대문구 휘경로 6",
        "phone": "02-966-1357",
        "category": "의료,건강 > 병원 > 피부과",
        "distance": "805"
      },
      {
        "name": "빛서울성모안과의원",
        "latitude": 37.5960165938075,
        "longitude": 127.061743521786,
        "address": "서울 동대문구 이문동 305-2",
        "road_address": "서울 동대문구 휘경로 13",
        "phone": "02-963-3052",
        "category": "의료,건강 > 병원 > 안과",
        "distance": "892"
      },
      {
        "name": "동안비전내과의원",
        "latitude": 37.59464918560294,
        "longitude": 127.05940979866541,
        "address": "서울 동대문구 이문동 324-10",
        "road_address": "서울 동대문구 이문로 88",
        "phone": "02-969-0119",
        "category": "의료,건강 > 병원 > 내과",
        "distance": "732"
      },
      {
        "name": "외대이문바른정형외과의원",
        "latitude": 37.5957329594685,
        "longitude": 127.061402452106,
        "address": "서울 동대문구 이문동 305-60",
        "road_address": "서울 동대문구 휘경로 12-1",
        "phone": "02-6673-7773",
        "category": "의료,건강 > 병원 > 정형외과",
        "distance": "868"
      },
      {
        "name": "서울성심병원",
        "latitude": 37.5841741732334,
        "longitude": 127.049838048407,
        "address": "서울 동대문구 청량리동 40-9",
        "road_address": "서울 동대문구 왕산로 259",
        "phone": "02-966-1616",
        "category": "의료,건강 > 병원 > 종합병원",
        "distance": "1451"
      },
      {
        "name": "미체로의원",
        "latitude": 37.5967361359659,
        "longitude": 127.06068083173,
        "address": "서울 동대문구 이문동 288-10",
        "road_address": "서울 동대문구 이문로 114",
        "phone": "02-962-3232",
        "category": "의료,건강 > 병원 > 피부과",
        "distance": "791"
      },
      {
        "name": "경희라이프한의원",
        "latitude": 37.59571404219827,
        "longitude": 127.06139564250421,
        "address": "서울 동대문구 이문동 305-60",
        "road_address": "서울 동대문구 휘경로 12-1",
        "phone": "02-957-7510",
        "category": "의료,건강 > 병원 > 한의원",
        "distance": "867"
      },
      {
        "name": "더열린이비인후과",
        "latitude": 37.5960256481129,
        "longitude": 127.06165860319,
        "address": "서울 동대문구 이문동 305-2",
        "road_address": "서울 동대문구 휘경로 13",
        "phone": "",
        "category": "의료,건강 > 병원 > 이비인후과",
        "distance": "885"
      },
      {
        "name": "밝은성모안과의원",
        "latitude": 37.5978856881594,
        "longitude": 127.060899181445,
        "address": "서울 동대문구 이문동 291-37",
        "road_address": "서울 동대문구 이문로 125",
        "phone": "02-965-1515",
        "category": "의료,건강 > 병원 > 안과",
        "distance": "812"
      }
    ]
  }
}