{
  "key": "4ec8a7964cf9f3e9d184e97e740986e91aa36a6e1f0bbdd4faee8f78563d3ff3",
  "tool": "PlaceSearch_kakao",
  "created_at": "2025-12-19T04:59:26.151629",
  "input_params": {
    "keyword": "대학교",
    "sort": "accuracy",
    "x": 127.029593,
    "y": 37.598767
  },
  "raw_args": {
    "keyword": "대학교",
    "x": 127.029593,
    "y": 37.598767
  },
  "data": {
    "keyword": "대학교",
    "total_count": 26993,
    "places": [
      {
        "name": "고려대학교 서울캠퍼스",
        "latitude": 37.589526761187834,
        "longitude": 127.03231892661324,
        "address": "서울 성북구 안암동5가 1-2",
        "road_address": "서울 성북구 안암로 145",
        "phone": "02-3290-1114",
        "category": "교육,학문 > 학교 > 대학교",
        "distance": "1053"
      },
      {
        "name": "성신여자대학교 돈암수정캠퍼스",
        "latitude": 37.5916680669509,
        "longitude": 127.022129316251,
        "address": "서울 성북구 돈암동 173-1",
        "road_address": "서울 성북구 보문로34다길 2",
        "phone": "02-920-7114",
        "category": "교육,학문 > 학교 > 대학교",
        "distance": "1027"
      },
      {
        "name": "동덕여자대학교",
        "latitude": 37.6069903921957,
        "longitude": 127.041812418483,
        "address": "서울 성북구 하월곡동 23-1",
        "road_address": "서울 성북구 화랑로13길 60",
        "phone": "02-940-4000",
        "category": "교육,학문 > 학교 > 대학교",
        "distance": "1413"
      },
      {
        "name": "경희대학교 서울캠퍼스",
        "latitude": 37.5971656623384,
        "longitude": 127.05173889409078,
        "address": "서울 동대문구 회기동 1-5",
        "road_address": "서울 동대문구 경희대로 26",
        "phone": "02-961-0114",
        "category": "교육,학문 > 학교 > 대학교",
        "distance": "1963"
      },
      {
        "name": "KAIST 서울캠퍼스",
        "latitude": 37.5926754214934,
        "longitude": 127.04669593138594,
        "address": "서울 동대문구 청량리동 207-43",
        "road_address": "서울 동대문구 회기로 85",
        "phone": "",
        "category": "교육,학문 > 학교 > 대학교",
        "distance": "1654"
      },
      {
        "name": "서경대학교",
        "latitude": 37.61537353959452,
        "longitude": 127.01335157441319,
        "address": "서울 성북구 정릉동 산 16-1",
        "road_address": "서울 성북구 서경로 124",
        "phone": "02-940-7114",
        "category": "교육,학문 > 학교 > 대학교",
        "distance": "2335"
      },
      {
        "name": "한국외국어대학교 서울캠퍼스",
        "latitude": 37.5975430443335,
        "longitude": 127.05784829549488,
        "address": "서울 동대문구 이문동 270-1",
        "road_address": "서울 동대문구 이문로 107",
        "phone": "02-2173-2114",
        "category": "교육,학문 > 학교 > 대학교",
        "distance": "2499"
      },
      {
        "name": "한성대학교",
        "latitude": 37.5825624632779,
        "longitude": 127.010225523923,
        "address": "서울 성북구 삼선동2가 389",
        "road_address": "서울 성북구 삼선교로16길 116",
        "phone": "02-760-4114",
        "category": "교육,학문 > 학교 > 대학교",
        "distance": "2481"
      },
      {
        "name": "한국예술종합학교 석관동캠퍼스",
        "latitude": 37.60656959296795,
        "longitude": 127.05697079689453,
        "address": "서울 성북구 석관동 409",
        "road_address": "서울 성북구 화랑로32길 146-37",
        "phone": "02-746-9000",
        "category": "교육,학문 > 학교 > 대학교",
        "distance": "2568"
      },
      {
        "name": "국민대학교",
        "latitude": 37.6107638961532,
        "longitude": 126.996969239236,
        "address": "서울 성북구 정릉동 861-1",
        "road_address": "서울 성북구 정릉로 77",
        "phone": "02-910-4114",
        "category": "교육,학문 > 학교 > 대학교",
        "distance": "3173"
      },
      {
        "name": "서울시립대학교",
        "latitude": 37.584828300773886,
        "longitude": 127.05773316246166,
        "address": "서울 동대문구 전농동 694",
        "road_address": "서울 동대문구 서울시립대로 163",
        "phone": "02-6490-6114",
        "category": "교육,학문 > 학교 > 대학교",
        "distance": "2927"
      },
      {
        "name": "광운대학교",
        "latitude": 37.6192404638865,
        "longitude": 127.058270608867,
        "address": "서울 노원구 월계동 447-1",
        "road_address": "서울 노원구 광운로 20",
        "phone": "02-940-5114",
        "category": "교육,학문 > 학교 > 대학교",
        "distance": "3402"
      },
      {
        "name": "성균관대학교 인문사회과학캠퍼스",
        "latitude": 37.58831649367718,
        "longitude": 126.99396747284503,
        "address": "서울 종로구 명륜3가 53-21",
        "road_address": "서울 종로구 성균관로 25-2",
        "phone": "02-760-0114",
        "category": "교육,학문 > 학교 > 대학교",
        "distance": "3353"
      },
      {
        "name": "가톨릭대학교 성신교정",
        "latitude": 37.586336176926416,
        "longitude": 127.0045786211564,
        "address": "서울 종로구 혜화동 90-1",
        "road_address": "서울 종로구 창경궁로 296-12",
        "phone": "02-740-9714",
        "category": "교육,학문 > 학교 > 대학교",
        "distance": "2604"
      },
      {
        "name": "한국방송통신대학교 대학본부",
        "latitude": 37.5792472133724,
        "longitude": 127.002907216688,
        "address": "서울 종로구 동숭동 169-1",
        "road_address": "서울 종로구 대학로 86",
        "phone": "1577-2853",
        "category": "교육,학문 > 학교 > 대학교",
        "distance": "3201"
      }
    ]
  }
}