{
  "key": "0a898a5099c8b718b42e381ca7ef126ef656835749239c8bcf8739f0b166848b",
  "tool": "PlaceSearch_kakao",
  "created_at": "2025-10-27T17:04:56.410724",
  "input_params": {
    "keyword": "대학",
    "radius": 2000,
    "size": 15,
    "sort": "accuracy",
    "x": 127.028,
    "y": 37.5875
  },
  "raw_args": {
    "keyword": "대학",
    "x": 127.028,
    "y": 37.5875,
    "radius": 2000,
    "size": 15,
    "sort": "accuracy"
  },
  "data": {
    "keyword": "대학",
    "total_count": 437,
    "places": [
      {
        "name": "고려대학교 서울캠퍼스",
        "latitude": 37.589526761187834,
        "longitude": 127.03231892661324,
        "address": "서울 성북구 안암동5가 1-2",
        "road_address": "서울 성북구 안암로 145",
        "phone": "02-3290-1114",
        "category": "교육,학문 > 학교 > 대학교",
        "distance": "442"
      },
      {
        "name": "성신여자대학교 돈암수정캠퍼스",
        "latitude": 37.5916680669509,
        "longitude": 127.022129316251,
        "address": "서울 성북구 돈암동 173-1",
        "road_address": "서울 성북구 보문로34다길 2",
        "phone": "02-920-7114",
        "category": "교육,학문 > 학교 > 대학교",
        "distance": "694"
      },
      {
        "name": "한성대학교",
        "latitude": 37.5825624632779,
        "longitude": 127.010225523923,
        "address": "서울 성북구 삼선동2가 389",
        "road_address": "서울 성북구 삼선교로16길 116",
        "phone": "02-760-4114",
        "category": "교육,학문 > 학교 > 대학교",
        "distance": "1663"
      },
      {
        "name": "KAIST 서울캠퍼스",
        "latitude": 37.5926754214934,
        "longitude": 127.04669593138594,
        "address": "서울 동대문구 청량리동 207-43",
        "road_address": "서울 동대문구 회기로 85",
        "phone": "",
        "category": "교육,학문 > 학교 > 대학교",
        "distance": "1748"
      },
      {
        "name": "서울장로회신학",
        "latitude": 37.5747437255258,
        "longitude": 127.022561269005,
        "address": "서울 종로구 숭인동 1370",
        "road_address": "",
        "phone": "02-2238-6305",
        "category": "교육,학문 > 학교 > 대학교",
        "distance": "1495"
      },
      {
        "name": "고려대학교 안암병원",
        "latitude": 37.5871135140285,
        "longitude": 127.02666361240254,
        "address": "서울 성북구 안암동5가 126-1",
        "road_address": "서울 성북구 고려대로 73",
        "phone": "1577-0083",
        "category": "의료,건강 > 병원 > 대학병원",
        "distance": "125"
      },
      {
        "name": "고려대학교 안암병원 장례식장",
        "latitude": 37.58935716924624,
        "longitude": 127.02583787260157,
        "address": "서울 성북구 안암동5가 1-2",
        "road_address": "서울 성북구 안암로 145",
        "phone": "02-923-4442",
        "category": "가정,생활 > 장례 > 장례식장",
        "distance": "281"
      },
      {
        "name": "고려대학교 화정체육관",
        "latitude": 37.592669420638,
        "longitude": 127.024887888227,
        "address": "서울 성북구 안암동5가 126-28",
        "road_address": "서울 성북구 안암로 145",
        "phone": "02-3290-4094",
        "category": "스포츠,레저 > 스포츠시설 > 체육관",
        "distance": "636"
      },
      {
        "name": "고려대학교 의과대학본관",
        "latitude": 37.5885082210814,
        "longitude": 127.02679431682276,
        "address": "서울 성북구 안암동5가 126-28",
        "road_address": "서울 성북구 고려대로 73",
        "phone": "02-2286-1125",
        "category": "교육,학문 > 학교부속시설",
        "distance": "154"
      },
      {
        "name": "성신여자대학교입구",
        "latitude": 37.5913042778387,
        "longitude": 127.020969757591,
        "address": "서울 성북구 동선동3가",
        "road_address": "",
        "phone": "",
        "category": "교통,수송 > 입출구",
        "distance": "750"
      },
      {
        "name": "고려대학교 하나과학관",
        "latitude": 37.5858038000616,
        "longitude": 127.025161857339,
        "address": "서울 성북구 안암동5가 126-16",
        "road_address": "서울 성북구 안암로 145",
        "phone": "02-3290-5600",
        "category": "교육,학문 > 학교부속시설",
        "distance": "313"
      },
      {
        "name": "고려대학교 중앙광장",
        "latitude": 37.5888363125305,
        "longitude": 127.0333557589,
        "address": "서울 성북구 안암동5가 1-2",
        "road_address": "서울 성북구 안암로 145",
        "phone": "",
        "category": "여행 > 관광,명소 > 광장",
        "distance": "495"
      },
      {
        "name": "고려대학교 교우회관",
        "latitude": 37.5920395624461,
        "longitude": 127.035676113136,
        "address": "서울 성북구 종암동 29-26",
        "road_address": "서울 성북구 종암로 13",
        "phone": "1588-1905",
        "category": "교육,학문 > 학교부속시설",
        "distance": "844"
      },
      {
        "name": "고려대학교 우당교양관",
        "latitude": 37.586906032705336,
        "longitude": 127.03135881189965,
        "address": "서울 성북구 안암동5가 1-2",
        "road_address": "서울 성북구 안암로 145",
        "phone": "",
        "category": "교육,학문 > 학교부속시설",
        "distance": "303"
      },
      {
        "name": "고려대학교 서울캠퍼스 SK미래관",
        "latitude": 37.58791380124884,
        "longitude": 127.03298171300432,
        "address": "서울 성북구 안암동5가 1-2",
        "road_address": "서울 성북구 안암로 145",
        "phone": "",
        "category": "교육,학문 > 학교부속시설",
        "distance": "442"
      }
    ]
  }
}