{
  "key": "76be7509dcb93bb569a91cd15a42d0cd1881a7910a052db486803315a46b9c36",
  "tool": "PlaceSearch_kakao",
  "created_at": "2025-12-15T08:26:33.001057",
  "input_params": {
    "keyword": "병원",
    "page": 1,
    "radius": 1500,
    "size": 15,
    "sort": "accuracy",
    "x": 127.05784829549488,
    "y": 37.5975430443335
  },
  "raw_args": {
    "keyword": "병원",
    "x": 127.05784829549488,
    "y": 37.5975430443335,
    "page": 1,
    "size": 15,
    "radius": 1500,
    "sort": "accuracy"
  },
  "data": {
    "keyword": "병원",
    "total_count": 220,
    "places": [
      {
        "name": "경희의료원",
        "latitude": 37.5938752004487,
        "longitude": 127.051832862704,
        "address": "서울 동대문구 회기동 1-5",
        "road_address": "서울 동대문구 경희대로 23",
        "phone": "02-958-8114",
        "category": "의료,건강 > 병원 > 대학병원",
        "distance": "669"
      },
      {
        "name": "경희대학교치과병원",
        "latitude": 37.59411424584499,
        "longitude": 127.05322238365355,
        "address": "서울 동대문구 회기동 1-5",
        "road_address": "서울 동대문구 경희대로 26",
        "phone": "02-958-8114",
        "category": "의료,건강 > 병원 > 치과",
        "distance": "558"
      },
      {
        "name": "경희대학교한방병원",
        "latitude": 37.5938571806208,
        "longitude": 127.051832850206,
        "address": "서울 동대문구 회기동 1-5",
        "road_address": "서울 동대문구 경희대로 23",
        "phone": "02-958-8114",
        "category": "의료,건강 > 병원 > 한방병원",
        "distance": "670"
      },
      {
        "name": "최일규정형외과의원",
        "latitude": 37.5979358642861,
        "longitude": 127.061438233626,
        "address": "서울 동대문구 이문동 292-249",
        "road_address": "서울 동대문구 이문로 128",
        "phone": "02-959-8312",
        "category": "의료,건강 > 병원 > 정형외과",
        "distance": "319"
      },
      {
        "name": "삼육서울병원",
        "latitude": 37.587945367455426,
        "longitude": 127.06535204940005,
        "address": "서울 동대문구 휘경동 29-1",
        "road_address": "서울 동대문구 망우로 82",
        "phone": "1577-3675",
        "category": "의료,건강 > 병원 > 종합병원",
        "distance": "1254"
      },
      {
        "name": "빛서울성모안과의원",
        "latitude": 37.5960165938075,
        "longitude": 127.061743521786,
        "address": "서울 동대문구 이문동 305-2",
        "road_address": "서울 동대문구 휘경로 13",
        "phone": "02-963-3052",
        "category": "의료,건강 > 병원 > 안과",
        "distance": "383"
      },
      {
        "name": "서울아트피부과의원",
        "latitude": 37.5960558517365,
        "longitude": 127.060750484886,
        "address": "서울 동대문구 이문동 288-50",
        "road_address": "서울 동대문구 휘경로 6",
        "phone": "02-966-1357",
        "category": "의료,건강 > 병원 > 피부과",
        "distance": "304"
      },
      {
        "name": "외대이문바른정형외과의원",
        "latitude": 37.5957329594685,
        "longitude": 127.061402452106,
        "address": "서울 동대문구 이문동 305-60",
        "road_address": "서울 동대문구 휘경로 12-1",
        "phone": "02-6673-7773",
        "category": "의료,건강 > 병원 > 정형외과",
        "distance": "372"
      },
      {
        "name": "더열린이비인후과",
        "latitude": 37.5960256481129,
        "longitude": 127.06165860319,
        "address": "서울 동대문구 이문동 305-2",
        "road_address": "서울 동대문구 휘경로 13",
        "phone": "",
        "category": "의료,건강 > 병원 > 이비인후과",
        "distance": "376"
      },
      {
        "name": "밝은성모안과의원",
        "latitude": 37.5978856881594,
        "longitude": 127.060899181445,
        "address": "서울 동대문구 이문동 291-37",
        "road_address": "서울 동대문구 이문로 125",
        "phone": "02-965-1515",
        "category": "의료,건강 > 병원 > 안과",
        "distance": "271"
      },
      {
        "name": "경희라이프한의원",
        "latitude": 37.59571404219827,
        "longitude": 127.06139564250421,
        "address": "서울 동대문구 이문동 305-60",
        "road_address": "서울 동대문구 휘경로 12-1",
        "phone": "02-957-7510",
        "category": "의료,건강 > 병원 > 한의원",
        "distance": "372"
      },
      {
        "name": "미체로의원",
        "latitude": 37.5967361359659,
        "longitude": 127.06068083173,
        "address": "서울 동대문구 이문동 288-10",
        "road_address": "서울 동대문구 이문로 114",
        "phone": "02-962-3232",
        "category": "의료,건강 > 병원 > 피부과",
        "distance": "265"
      },
      {
        "name": "동안비전내과의원",
        "latitude": 37.59464918560294,
        "longitude": 127.05940979866541,
        "address": "서울 동대문구 이문동 324-10",
        "road_address": "서울 동대문구 이문로 88",
        "phone": "02-969-0119",
        "category": "의료,건강 > 병원 > 내과",
        "distance": "349"
      },
      {
        "name": "신재호내과",
        "latitude": 37.598633311055394,
        "longitude": 127.0612848024437,
        "address": "서울 동대문구 이문동 291-30",
        "road_address": "서울 동대문구 이문로 133-1",
        "phone": "02-968-6906",
        "category": "의료,건강 > 병원 > 내과",
        "distance": "326"
      },
      {
        "name": "에이블치과의원",
        "latitude": 37.596054953659575,
        "longitude": 127.06074482241544,
        "address": "서울 동대문구 이문동 288-50",
        "road_address": "서울 동대문구 휘경로 6",
        "phone": "02-2234-2222",
        "category": "의료,건강 > 병원 > 치과",
        "distance": "304"
      }
    ]
  }
}