{
  "key": "e2568e89339440380c3a5d74128471a97f52c8503084fa5bc060eb6aaf16e3da",
  "tool": "CategorySearch_tmap",
  "created_at": "2025-12-14T15:52:29.805398",
  "input_params": {
    "categories": "병원",
    "centerLat": 37.5834771622868,
    "centerLon": 127.055113438416,
    "count": 100,
    "radius": 1
  },
  "raw_args": {
    "categories": "병원",
    "centerLon": 127.055113438416,
    "centerLat": 37.5834771622868,
    "radius": 1,
    "count": 100
  },
  "data": {
    "totalCount": 164,
    "count": 100,
    "page": 1,
    "pois": [
      {
        "name": "서울인치과의원",
        "telNo": "029337528",
        "latitude": "37.58306473",
        "longitude": "127.05354149",
        "address": "서울 동대문구 전농동",
        "roadName": "전농로",
        "buildingNo": "-",
        "radius_km": "0.147",
        "dataKind": "",
        "stId": "",
        "parkFlag": "1",
        "merchantFlag": ""
      },
      {
        "name": "서울인치과의원 주차장",
        "telNo": "029337528",
        "latitude": "37.58306473",
        "longitude": "127.05343039",
        "address": "서울 동대문구 전농동",
        "roadName": "전농로",
        "buildingNo": "-",
        "radius_km": "0.147",
        "dataKind": "",
        "stId": "",
        "parkFlag": "0",
        "merchantFlag": ""
      },
      {
        "name": "전농비뇨기과의원",
        "telNo": "0222459885",
        "latitude": "37.58148167",
        "longitude": "127.05842998",
        "address": "서울 동대문구 전농동",
        "roadName": "사가정로13길",
        "buildingNo": "-",
        "radius_km": "0.367",
        "dataKind": "",
        "stId": "",
        "parkFlag": "0",
        "merchantFlag": ""
      },
      {
        "name": "청량성모병원",
        "telNo": "029690501",
        "latitude": "37.58362016",
        "longitude": "127.04998624",
        "address": "서울 동대문구 전농동",
        "roadName": "왕산로",
        "buildingNo": "-",
        "radius_km": "0.453",
        "dataKind": "",
        "stId": "",
        "parkFlag": "0",
        "merchantFlag": ""
      },
      {
        "name": "서울성심병원 응급실",
        "telNo": "029570119",
        "latitude": "37.58417565",
        "longitude": "127.04981958",
        "address": "서울 동대문구 청량리동",
        "roadName": "왕산로",
        "buildingNo": "-",
        "radius_km": "0.474",
        "dataKind": "",
        "stId": "",
        "parkFlag": "1",
        "merchantFlag": ""
      },
      {
        "name": "서울성심병원 정문",
        "telNo": "029661616",
        "latitude": "37.58406455",
        "longitude": "127.04987513",
        "address": "서울 동대문구 청량리동",
        "roadName": "왕산로",
        "buildingNo": "-",
        "radius_km": "0.474",
        "dataKind": "",
        "stId": "",
        "parkFlag": "0",
        "merchantFlag": ""
      },
      {
        "name": "서울성심병원",
        "telNo": "029661616",
        "latitude": "37.58417565",
        "longitude": "127.04981958",
        "address": "서울 동대문구 청량리동",
        "roadName": "왕산로",
        "buildingNo": "-",
        "radius_km": "0.474",
        "dataKind": "",
        "stId": "",
        "parkFlag": "1",
        "merchantFlag": ""
      },
      {
        "name": "하나로내과의원",
        "telNo": "029697350",
        "latitude": "37.58395344",
        "longitude": "127.04937518",
        "address": "서울 동대문구 청량리동",
        "roadName": "왕산로",
        "buildingNo": "-",
        "radius_km": "0.509",
        "dataKind": "",
        "stId": "",
        "parkFlag": "0",
        "merchantFlag": ""
      },
      {
        "name": "캘리포니아치과의원",
        "telNo": "029602879",
        "latitude": "37.58614765",
        "longitude": "127.05037503",
        "address": "서울 동대문구 청량리동",
        "roadName": "제기로",
        "buildingNo": "-",
        "radius_km": "0.513",
        "dataKind": "",
        "stId": "",
        "parkFlag": "0",
        "merchantFlag": ""
      },
      {
        "name": "성요한의원",
        "telNo": "",
        "latitude": "37.58811974",
        "longitude": "127.05545784",
        "address": "서울 동대문구 휘경동",
        "roadName": "망우로",
        "buildingNo": "-",
        "radius_km": "0.517",
        "dataKind": "",
        "stId": "",
        "parkFlag": "0",
        "merchantFlag": ""
      },
      {
        "name": "현대치과의원",
        "telNo": "029680159",
        "latitude": "37.58348127",
        "longitude": "127.04904189",
        "address": "서울 동대문구 청량리동",
        "roadName": "왕산로",
        "buildingNo": "-",
        "radius_km": "0.536",
        "dataKind": "",
        "stId": "",
        "parkFlag": "1",
        "merchantFlag": ""
      },
      {
        "name": "현대치과의원 주차장",
        "telNo": "029680159",
        "latitude": "37.58345350",
        "longitude": "127.04915299",
        "address": "서울 동대문구 청량리동",
        "roadName": "왕산로",
        "buildingNo": "-",
        "radius_km": "0.536",
        "dataKind": "",
        "stId": "",
        "parkFlag": "0",
        "merchantFlag": ""
      },
      {
        "name": "참빛치과의원",
        "telNo": "0222472872",
        "latitude": "37.57834312",
        "longitude": "127.05698576",
        "address": "서울 동대문구 전농동",
        "roadName": "전농로",
        "buildingNo": "-",
        "radius_km": "0.595",
        "dataKind": "",
        "stId": "",
        "parkFlag": "0",
        "merchantFlag": ""
      },
      {
        "name": "이내과의원",
        "telNo": "0222448886",
        "latitude": "37.57845423",
        "longitude": "127.05776346",
        "address": "서울 동대문구 전농동",
        "roadName": "전농로16길",
        "buildingNo": "-",
        "radius_km": "0.606",
        "dataKind": "",
        "stId": "",
        "parkFlag": "0",
        "merchantFlag": ""
      },
      {
        "name": "연세다정한치과교정과치과의원",
        "telNo": "029682804",
        "latitude": "37.58303686",
        "longitude": "127.04820865",
        "address": "서울 동대문구 청량리동",
        "roadName": "왕산로",
        "buildingNo": "-",
        "radius_km": "0.611",
        "dataKind": "",
        "stId": "",
        "parkFlag": "1",
        "merchantFlag": ""
      },
      {
        "name": "연세다정한치과교정과치과의원 주차장",
        "telNo": "029682804",
        "latitude": "37.58289798",
        "longitude": "127.04784757",
        "address": "서울 동대문구 청량리동",
        "roadName": "왕산로",
        "buildingNo": "-",
        "radius_km": "0.611",
        "dataKind": "",
        "stId": "",
        "parkFlag": "0",
        "merchantFlag": ""
      },
      {
        "name": "청량리정신건강의학과의원",
        "telNo": "029661171",
        "latitude": "37.58287021",
        "longitude": "127.04801422",
        "address": "서울 동대문구 청량리동",
        "roadName": "왕산로",
        "buildingNo": "-",
        "radius_km": "0.63",
        "dataKind": "",
        "stId": "",
        "parkFlag": "1",
        "merchantFlag": ""
      },
      {
        "name": "청량리정신건강의학과의원 주차장",
        "telNo": "029661171",
        "latitude": "37.58284243",
        "longitude": "127.04779202",
        "address": "서울 동대문구 청량리동",
        "roadName": "왕산로",
        "buildingNo": "-",
        "radius_km": "0.63",
        "dataKind": "",
        "stId": "",
        "parkFlag": "0",
        "merchantFlag": ""
      },
      {
        "name": "위성호내과의원",
        "telNo": "0222158463",
        "latitude": "37.57814871",
        "longitude": "127.05762459",
        "address": "서울 동대문구 전농동",
        "roadName": "전농로",
        "buildingNo": "-",
        "radius_km": "0.633",
        "dataKind": "",
        "stId": "",
        "parkFlag": "0",
        "merchantFlag": ""
      },
      {
        "name": "박이비인후과의원",
        "telNo": "0222120770",
        "latitude": "37.57795428",
        "longitude": "127.05704132",
        "address": "서울 동대문구 전농동",
        "roadName": "전농로",
        "buildingNo": "-",
        "radius_km": "0.638",
        "dataKind": "",
        "stId": "",
        "parkFlag": "0",
        "merchantFlag": ""
      },
      {
        "name": "조광의원",
        "telNo": "0222440264",
        "latitude": "37.57812094",
        "longitude": "127.05795790",
        "address": "서울 동대문구 전농동",
        "roadName": "사가정로13길",
        "buildingNo": "-",
        "radius_km": "0.647",
        "dataKind": "",
        "stId": "",
        "parkFlag": "0",
        "merchantFlag": ""
      },
      {
        "name": "서울저스트치과의원 주차장",
        "telNo": "0222138222",
        "latitude": "37.58878639",
        "longitude": "127.05898528",
        "address": "서울 동대문구 휘경동",
        "roadName": "망우로",
        "buildingNo": "-",
        "radius_km": "0.648",
        "dataKind": "",
        "stId": "",
        "parkFlag": "0",
        "merchantFlag": ""
      },
      {
        "name": "서울저스트치과의원",
        "telNo": "0222138222",
        "latitude": "37.58864751",
        "longitude": "127.05851310",
        "address": "서울 동대문구 휘경동",
        "roadName": "망우로",
        "buildingNo": "-",
        "radius_km": "0.648",
        "dataKind": "",
        "stId": "",
        "parkFlag": "1",
        "merchantFlag": ""
      },
      {
        "name": "루트재활의학과의원",
        "telNo": "0222467744",
        "latitude": "37.58875861",
        "longitude": "127.05884640",
        "address": "서울 동대문구 휘경동",
        "roadName": "망우로",
        "buildingNo": "-",
        "radius_km": "0.672",
        "dataKind": "",
        "stId": "",
        "parkFlag": "1",
        "merchantFlag": ""
      },
      {
        "name": "루트재활의학과의원 주차장",
        "telNo": "0222467744",
        "latitude": "37.58878639",
        "longitude": "127.05898528",
        "address": "서울 동대문구 휘경동",
        "roadName": "망우로",
        "buildingNo": "-",
        "radius_km": "0.672",
        "dataKind": "",
        "stId": "",
        "parkFlag": "0",
        "merchantFlag": ""
      },
      {
        "name": "연세의원 주차장",
        "telNo": "0222437582",
        "latitude": "37.57881517",
        "longitude": "127.05012526",
        "address": "서울 동대문구 전농동",
        "roadName": "서울시립대로",
        "buildingNo": "-",
        "radius_km": "0.676",
        "dataKind": "",
        "stId": "",
        "parkFlag": "0",
        "merchantFlag": ""
      },
      {
        "name": "연세의원",
        "telNo": "0222437582",
        "latitude": "37.57887072",
        "longitude": "127.05012526",
        "address": "서울 동대문구 전농동",
        "roadName": "서울시립대로",
        "buildingNo": "-",
        "radius_km": "0.676",
        "dataKind": "",
        "stId": "",
        "parkFlag": "1",
        "merchantFlag": ""
      },
      {
        "name": "연세참이비인후과의원 주차장",
        "telNo": "029642500",
        "latitude": "37.58237026",
        "longitude": "127.04720876",
        "address": "서울 동대문구 청량리동",
        "roadName": "왕산로",
        "buildingNo": "-",
        "radius_km": "0.678",
        "dataKind": "",
        "stId": "",
        "parkFlag": "0",
        "merchantFlag": ""
      },
      {
        "name": "연세참이비인후과의원 정문",
        "telNo": "029642500",
        "latitude": "37.58217584",
        "longitude": "127.04751429",
        "address": "서울 동대문구 청량리동",
        "roadName": "왕산로",
        "buildingNo": "-",
        "radius_km": "0.678",
        "dataKind": "",
        "stId": "",
        "parkFlag": "0",
        "merchantFlag": ""
      },
      {
        "name": "연세참이비인후과의원",
        "telNo": "029642500",
        "latitude": "37.58245359",
        "longitude": "127.04754206",
        "address": "서울 동대문구 청량리동",
        "roadName": "왕산로",
        "buildingNo": "-",
        "radius_km": "0.678",
        "dataKind": "",
        "stId": "",
        "parkFlag": "1",
        "merchantFlag": ""
      },
      {
        "name": "서울우수치과의원",
        "telNo": "0222162340",
        "latitude": "37.57748211",
        "longitude": "127.05718021",
        "address": "서울 동대문구 전농동",
        "roadName": "사가정로",
        "buildingNo": "-",
        "radius_km": "0.692",
        "dataKind": "",
        "stId": "",
        "parkFlag": "0",
        "merchantFlag": ""
      },
      {
        "name": "윈의원 청량리점",
        "telNo": "025960376",
        "latitude": "37.58073157",
        "longitude": "127.04787541",
        "address": "서울 동대문구 전농동",
        "roadName": "왕산로",
        "buildingNo": "-",
        "radius_km": "0.708",
        "dataKind": "",
        "stId": "",
        "parkFlag": "0",
        "merchantFlag": ""
      },
      {
        "name": "보스톤클래식치과의원 서울본원",
        "telNo": "0237071875",
        "latitude": "37.58045383",
        "longitude": "127.04804207",
        "address": "서울 동대문구 전농동",
        "roadName": "왕산로",
        "buildingNo": "-",
        "radius_km": "0.709",
        "dataKind": "",
        "stId": "",
        "parkFlag": "1",
        "merchantFlag": ""
      },
      {
        "name": "임명수치과의원",
        "telNo": "0222443047",
        "latitude": "37.57789877",
        "longitude": "127.05901336",
        "address": "서울 동대문구 전농동",
        "roadName": "전농로16길",
        "buildingNo": "-",
        "radius_km": "0.709",
        "dataKind": "",
        "stId": "",
        "parkFlag": "1",
        "merchantFlag": ""
      },
      {
        "name": "도연정신건강의학과의원",
        "telNo": "0222428992",
        "latitude": "37.58900859",
        "longitude": "127.05920747",
        "address": "서울 동대문구 휘경동",
        "roadName": "망우로12길",
        "buildingNo": "-",
        "radius_km": "0.712",
        "dataKind": "",
        "stId": "",
        "parkFlag": "1",
        "merchantFlag": ""
      },
      {
        "name": "도연정신건강의학과의원 주차장",
        "telNo": "0222428992",
        "latitude": "37.58903637",
        "longitude": "127.05940190",
        "address": "서울 동대문구 휘경동",
        "roadName": "망우로12길",
        "buildingNo": "-",
        "radius_km": "0.712",
        "dataKind": "",
        "stId": "",
        "parkFlag": "0",
        "merchantFlag": ""
      },
      {
        "name": "노재철내과의원",
        "telNo": "029650264",
        "latitude": "37.58212028",
        "longitude": "127.04720876",
        "address": "서울 동대문구 청량리동",
        "roadName": "왕산로",
        "buildingNo": "-",
        "radius_km": "0.714",
        "dataKind": "",
        "stId": "",
        "parkFlag": "1",
        "merchantFlag": ""
      },
      {
        "name": "노재철내과의원 주차장",
        "telNo": "029650264",
        "latitude": "37.58264801",
        "longitude": "127.04759760",
        "address": "서울 동대문구 청량리동",
        "roadName": "왕산로",
        "buildingNo": "-",
        "radius_km": "0.714",
        "dataKind": "",
        "stId": "",
        "parkFlag": "0",
        "merchantFlag": ""
      },
      {
        "name": "서울앤플란트치과의원",
        "telNo": "029647528",
        "latitude": "37.58978623",
        "longitude": "127.05679100",
        "address": "서울 동대문구 휘경동",
        "roadName": "회기로",
        "buildingNo": "-",
        "radius_km": "0.716",
        "dataKind": "",
        "stId": "",
        "parkFlag": "1",
        "merchantFlag": ""
      },
      {
        "name": "서울앤플란트치과의원 주차장",
        "telNo": "029647528",
        "latitude": "37.58970291",
        "longitude": "127.05676323",
        "address": "서울 동대문구 휘경동",
        "roadName": "회기로",
        "buildingNo": "-",
        "radius_km": "0.716",
        "dataKind": "",
        "stId": "",
        "parkFlag": "0",
        "merchantFlag": ""
      },
      {
        "name": "안영상의학과의원",
        "telNo": "029635005",
        "latitude": "37.58206474",
        "longitude": "127.04718099",
        "address": "서울 동대문구 청량리동",
        "roadName": "왕산로",
        "buildingNo": "-",
        "radius_km": "0.717",
        "dataKind": "",
        "stId": "",
        "parkFlag": "1",
        "merchantFlag": ""
      },
      {
        "name": "안영상의학과의원 주차장",
        "telNo": "029635005",
        "latitude": "37.58273133",
        "longitude": "127.04756982",
        "address": "서울 동대문구 청량리동",
        "roadName": "왕산로",
        "buildingNo": "-",
        "radius_km": "0.717",
        "dataKind": "",
        "stId": "",
        "parkFlag": "0",
        "merchantFlag": ""
      },
      {
        "name": "임치과의원",
        "telNo": "029673496",
        "latitude": "37.58995285",
        "longitude": "127.05531891",
        "address": "서울 동대문구 회기동",
        "roadName": "이문로",
        "buildingNo": "-",
        "radius_km": "0.72",
        "dataKind": "",
        "stId": "",
        "parkFlag": "0",
        "merchantFlag": ""
      },
      {
        "name": "홍산부인과의원 주차장",
        "telNo": "029670493",
        "latitude": "37.58234248",
        "longitude": "127.04720876",
        "address": "서울 동대문구 청량리동",
        "roadName": "왕산로",
        "buildingNo": "-",
        "radius_km": "0.723",
        "dataKind": "",
        "stId": "",
        "parkFlag": "0",
        "merchantFlag": ""
      },
      {
        "name": "홍산부인과의원",
        "telNo": "029670493",
        "latitude": "37.58203696",
        "longitude": "127.04712544",
        "address": "서울 동대문구 청량리동",
        "roadName": "왕산로",
        "buildingNo": "-",
        "radius_km": "0.723",
        "dataKind": "",
        "stId": "",
        "parkFlag": "1",
        "merchantFlag": ""
      },
      {
        "name": "홍산부인과의원 정문",
        "telNo": "029670493",
        "latitude": "37.58198141",
        "longitude": "127.04729209",
        "address": "서울 동대문구 청량리동",
        "roadName": "왕산로",
        "buildingNo": "-",
        "radius_km": "0.723",
        "dataKind": "",
        "stId": "",
        "parkFlag": "0",
        "merchantFlag": ""
      },
      {
        "name": "연세오직치과교정과치과의원 주차장",
        "telNo": "024937528",
        "latitude": "37.58986953",
        "longitude": "127.05540224",
        "address": "서울 동대문구 회기동",
        "roadName": "이문로",
        "buildingNo": "-",
        "radius_km": "0.723",
        "dataKind": "",
        "stId": "",
        "parkFlag": "0",
        "merchantFlag": ""
      },
      {
        "name": "연세오직치과교정과치과의원",
        "telNo": "024937528",
        "latitude": "37.58998063",
        "longitude": "127.05531891",
        "address": "서울 동대문구 회기동",
        "roadName": "이문로",
        "buildingNo": "-",
        "radius_km": "0.723",
        "dataKind": "",
        "stId": "",
        "parkFlag": "1",
        "merchantFlag": ""
      },
      {
        "name": "명치과의원 주차장",
        "telNo": "029673364",
        "latitude": "37.58234248",
        "longitude": "127.04718098",
        "address": "서울 동대문구 청량리동",
        "roadName": "왕산로",
        "buildingNo": "-",
        "radius_km": "0.724",
        "dataKind": "",
        "stId": "",
        "parkFlag": "0",
        "merchantFlag": ""
      },
      {
        "name": "명치과의원",
        "telNo": "029673364",
        "latitude": "37.58200919",
        "longitude": "127.04712544",
        "address": "서울 동대문구 청량리동",
        "roadName": "왕산로",
        "buildingNo": "-",
        "radius_km": "0.724",
        "dataKind": "",
        "stId": "",
        "parkFlag": "1",
        "merchantFlag": ""
      },
      {
        "name": "정병주성형외과의원",
        "telNo": "029665536",
        "latitude": "37.58203696",
        "longitude": "127.04709766",
        "address": "서울 동대문구 청량리동",
        "roadName": "왕산로",
        "buildingNo": "-",
        "radius_km": "0.725",
        "dataKind": "",
        "stId": "",
        "parkFlag": "1",
        "merchantFlag": ""
      },
      {
        "name": "정병주성형외과의원 정문",
        "telNo": "029665536",
        "latitude": "37.58198141",
        "longitude": "127.04726432",
        "address": "서울 동대문구 청량리동",
        "roadName": "왕산로",
        "buildingNo": "-",
        "radius_km": "0.725",
        "dataKind": "",
        "stId": "",
        "parkFlag": "0",
        "merchantFlag": ""
      },
      {
        "name": "동산치과의원 주차장",
        "telNo": "029621778",
        "latitude": "37.58234248",
        "longitude": "127.04720876",
        "address": "서울 동대문구 청량리동",
        "roadName": "왕산로",
        "buildingNo": "-",
        "radius_km": "0.725",
        "dataKind": "",
        "stId": "",
        "parkFlag": "0",
        "merchantFlag": ""
      },
      {
        "name": "동산치과의원",
        "telNo": "029621778",
        "latitude": "37.58203696",
        "longitude": "127.04709766",
        "address": "서울 동대문구 청량리동",
        "roadName": "왕산로",
        "buildingNo": "-",
        "radius_km": "0.725",
        "dataKind": "",
        "stId": "",
        "parkFlag": "1",
        "merchantFlag": ""
      },
      {
        "name": "정병주성형외과의원 주차장",
        "telNo": "029665536",
        "latitude": "37.58234248",
        "longitude": "127.04720876",
        "address": "서울 동대문구 청량리동",
        "roadName": "왕산로",
        "buildingNo": "-",
        "radius_km": "0.725",
        "dataKind": "",
        "stId": "",
        "parkFlag": "0",
        "merchantFlag": ""
      },
      {
        "name": "아비쥬의원 청량리점",
        "telNo": "15440377",
        "latitude": "37.58073157",
        "longitude": "127.04765321",
        "address": "서울 동대문구 전농동",
        "roadName": "왕산로",
        "buildingNo": "-",
        "radius_km": "0.726",
        "dataKind": "",
        "stId": "",
        "parkFlag": "1",
        "merchantFlag": ""
      },
      {
        "name": "오안과의원",
        "telNo": "029666231",
        "latitude": "37.58212028",
        "longitude": "127.04704211",
        "address": "서울 동대문구 청량리동",
        "roadName": "왕산로",
        "buildingNo": "-",
        "radius_km": "0.728",
        "dataKind": "",
        "stId": "",
        "parkFlag": "0",
        "merchantFlag": ""
      },
      {
        "name": "이내과의원",
        "telNo": "029635757",
        "latitude": "37.58212028",
        "longitude": "127.04704211",
        "address": "서울 동대문구 청량리동",
        "roadName": "왕산로",
        "buildingNo": "-",
        "radius_km": "0.728",
        "dataKind": "",
        "stId": "",
        "parkFlag": "0",
        "merchantFlag": ""
      },
      {
        "name": "안재두방사선과의원",
        "telNo": "029635005",
        "latitude": "37.58212028",
        "longitude": "127.04704211",
        "address": "서울 동대문구 청량리동",
        "roadName": "왕산로",
        "buildingNo": "-",
        "radius_km": "0.728",
        "dataKind": "",
        "stId": "",
        "parkFlag": "0",
        "merchantFlag": ""
      },
      {
        "name": "이경숙안과의원",
        "telNo": "029660343",
        "latitude": "37.58212028",
        "longitude": "127.04704211",
        "address": "서울 동대문구 청량리동",
        "roadName": "왕산로",
        "buildingNo": "-",
        "radius_km": "0.728",
        "dataKind": "",
        "stId": "",
        "parkFlag": "0",
        "merchantFlag": ""
      },
      {
        "name": "정석영비뇨기과의원",
        "telNo": "0222146280",
        "latitude": "37.57742659",
        "longitude": "127.05845787",
        "address": "서울 동대문구 전농동",
        "roadName": "사가정로",
        "buildingNo": "-",
        "radius_km": "0.735",
        "dataKind": "",
        "stId": "",
        "parkFlag": "1",
        "merchantFlag": ""
      },
      {
        "name": "정석영비뇨기과의원 주차장",
        "telNo": "0222146280",
        "latitude": "37.57753769",
        "longitude": "127.05851342",
        "address": "서울 동대문구 전농동",
        "roadName": "사가정로",
        "buildingNo": "-",
        "radius_km": "0.735",
        "dataKind": "",
        "stId": "",
        "parkFlag": "0",
        "merchantFlag": ""
      },
      {
        "name": "동민의원",
        "telNo": "029633902",
        "latitude": "37.58392562",
        "longitude": "127.04679208",
        "address": "서울 동대문구 청량리동",
        "roadName": "약령시로",
        "buildingNo": "-",
        "radius_km": "0.736",
        "dataKind": "",
        "stId": "",
        "parkFlag": "0",
        "merchantFlag": ""
      },
      {
        "name": "미몽피부과의원",
        "telNo": "029577537",
        "latitude": "37.59006397",
        "longitude": "127.05629104",
        "address": "서울 동대문구 휘경동",
        "roadName": "이문로",
        "buildingNo": "-",
        "radius_km": "0.739",
        "dataKind": "",
        "stId": "",
        "parkFlag": "0",
        "merchantFlag": ""
      },
      {
        "name": "성신소아과의원",
        "telNo": "029660595",
        "latitude": "37.59009174",
        "longitude": "127.05626327",
        "address": "서울 동대문구 휘경동",
        "roadName": "이문로",
        "buildingNo": "-",
        "radius_km": "0.742",
        "dataKind": "",
        "stId": "",
        "parkFlag": "0",
        "merchantFlag": ""
      },
      {
        "name": "현대중앙의원",
        "telNo": "0222449600",
        "latitude": "37.57700995",
        "longitude": "127.05729132",
        "address": "서울 동대문구 전농동",
        "roadName": "사가정로",
        "buildingNo": "-",
        "radius_km": "0.745",
        "dataKind": "",
        "stId": "",
        "parkFlag": "0",
        "merchantFlag": ""
      },
      {
        "name": "최치과의원",
        "telNo": "029695282",
        "latitude": "37.58734192",
        "longitude": "127.04820852",
        "address": "서울 동대문구 청량리동",
        "roadName": "제기로",
        "buildingNo": "-",
        "radius_km": "0.745",
        "dataKind": "",
        "stId": "",
        "parkFlag": "0",
        "merchantFlag": ""
      },
      {
        "name": "행복한성모정형외과의원 주차장",
        "telNo": "0222457731",
        "latitude": "37.57748214",
        "longitude": "127.05856897",
        "address": "서울 동대문구 전농동",
        "roadName": "사가정로",
        "buildingNo": "-",
        "radius_km": "0.754",
        "dataKind": "",
        "stId": "",
        "parkFlag": "0",
        "merchantFlag": ""
      },
      {
        "name": "행복한성모정형외과의원",
        "telNo": "0222457731",
        "latitude": "37.57725994",
        "longitude": "127.05851343",
        "address": "서울 동대문구 전농동",
        "roadName": "사가정로",
        "buildingNo": "-",
        "radius_km": "0.754",
        "dataKind": "",
        "stId": "",
        "parkFlag": "1",
        "merchantFlag": ""
      },
      {
        "name": "고은산부인과의원",
        "telNo": "029602164",
        "latitude": "37.59020284",
        "longitude": "127.05626326",
        "address": "서울 동대문구 휘경동",
        "roadName": "이문로",
        "buildingNo": "-",
        "radius_km": "0.754",
        "dataKind": "",
        "stId": "",
        "parkFlag": "0",
        "merchantFlag": ""
      },
      {
        "name": "김성현이비인후과의원 주차장",
        "telNo": "0222493666",
        "latitude": "37.57723218",
        "longitude": "127.05920781",
        "address": "서울 동대문구 전농동",
        "roadName": "사가정로",
        "buildingNo": "-",
        "radius_km": "0.755",
        "dataKind": "",
        "stId": "",
        "parkFlag": "0",
        "merchantFlag": ""
      },
      {
        "name": "김성현이비인후과의원",
        "telNo": "0222493666",
        "latitude": "37.57742660",
        "longitude": "127.05898560",
        "address": "서울 동대문구 전농동",
        "roadName": "사가정로",
        "buildingNo": "-",
        "radius_km": "0.755",
        "dataKind": "",
        "stId": "",
        "parkFlag": "1",
        "merchantFlag": ""
      },
      {
        "name": "연세현치과",
        "telNo": "0222175732",
        "latitude": "37.57742660",
        "longitude": "127.05898560",
        "address": "서울 동대문구 전농동",
        "roadName": "사가정로",
        "buildingNo": "-",
        "radius_km": "0.755",
        "dataKind": "",
        "stId": "",
        "parkFlag": "0",
        "merchantFlag": ""
      },
      {
        "name": "리즈의원",
        "telNo": "029672012",
        "latitude": "37.58175921",
        "longitude": "127.04681992",
        "address": "서울 동대문구 청량리동",
        "roadName": "왕산로",
        "buildingNo": "-",
        "radius_km": "0.756",
        "dataKind": "",
        "stId": "",
        "parkFlag": "1",
        "merchantFlag": ""
      },
      {
        "name": "리즈의원 주차장",
        "telNo": "029672012",
        "latitude": "37.58242580",
        "longitude": "127.04718098",
        "address": "서울 동대문구 청량리동",
        "roadName": "왕산로",
        "buildingNo": "-",
        "radius_km": "0.756",
        "dataKind": "",
        "stId": "",
        "parkFlag": "0",
        "merchantFlag": ""
      },
      {
        "name": "연세선경의원 주차장",
        "telNo": "0222121932",
        "latitude": "37.57737106",
        "longitude": "127.05973553",
        "address": "서울 동대문구 전농동",
        "roadName": "사가정로",
        "buildingNo": "-",
        "radius_km": "0.758",
        "dataKind": "",
        "stId": "",
        "parkFlag": "0",
        "merchantFlag": ""
      },
      {
        "name": "이소아과의원 정문",
        "telNo": "0222140495",
        "latitude": "37.57756547",
        "longitude": "127.05890227",
        "address": "서울 동대문구 전농동",
        "roadName": "사가정로",
        "buildingNo": "-",
        "radius_km": "0.758",
        "dataKind": "",
        "stId": "",
        "parkFlag": "0",
        "merchantFlag": ""
      },
      {
        "name": "연세선경의원",
        "telNo": "0222121932",
        "latitude": "37.57739882",
        "longitude": "127.05898560",
        "address": "서울 동대문구 전농동",
        "roadName": "사가정로",
        "buildingNo": "-",
        "radius_km": "0.758",
        "dataKind": "",
        "stId": "",
        "parkFlag": "1",
        "merchantFlag": ""
      },
      {
        "name": "연세선경의원 정문",
        "telNo": "0222121932",
        "latitude": "37.57759324",
        "longitude": "127.05887450",
        "address": "서울 동대문구 전농동",
        "roadName": "사가정로",
        "buildingNo": "-",
        "radius_km": "0.758",
        "dataKind": "",
        "stId": "",
        "parkFlag": "0",
        "merchantFlag": ""
      },
      {
        "name": "이소아과의원",
        "telNo": "0222140495",
        "latitude": "37.57739882",
        "longitude": "127.05898560",
        "address": "서울 동대문구 전농동",
        "roadName": "사가정로",
        "buildingNo": "-",
        "radius_km": "0.758",
        "dataKind": "",
        "stId": "",
        "parkFlag": "1",
        "merchantFlag": ""
      },
      {
        "name": "이소아과의원 주차장",
        "telNo": "0222140495",
        "latitude": "37.57723218",
        "longitude": "127.05923558",
        "address": "서울 동대문구 전농동",
        "roadName": "사가정로",
        "buildingNo": "-",
        "radius_km": "0.758",
        "dataKind": "",
        "stId": "",
        "parkFlag": "0",
        "merchantFlag": ""
      },
      {
        "name": "튼튼소아과의원 주차장",
        "telNo": "0222440075",
        "latitude": "37.57742661",
        "longitude": "127.05973553",
        "address": "서울 동대문구 전농동",
        "roadName": "사가정로",
        "buildingNo": "-",
        "radius_km": "0.76",
        "dataKind": "",
        "stId": "",
        "parkFlag": "0",
        "merchantFlag": ""
      },
      {
        "name": "튼튼소아과의원",
        "telNo": "0222440075",
        "latitude": "37.57737105",
        "longitude": "127.05898560",
        "address": "서울 동대문구 전농동",
        "roadName": "사가정로",
        "buildingNo": "-",
        "radius_km": "0.76",
        "dataKind": "",
        "stId": "",
        "parkFlag": "1",
        "merchantFlag": ""
      },
      {
        "name": "서울이비인후과의원 주차장",
        "telNo": "0222148240",
        "latitude": "37.57750991",
        "longitude": "127.05856897",
        "address": "서울 동대문구 전농동",
        "roadName": "사가정로",
        "buildingNo": "-",
        "radius_km": "0.761",
        "dataKind": "",
        "stId": "",
        "parkFlag": "0",
        "merchantFlag": ""
      },
      {
        "name": "서울이비인후과의원",
        "telNo": "0222148240",
        "latitude": "37.57720439",
        "longitude": "127.05854120",
        "address": "서울 동대문구 전농동",
        "roadName": "사가정로",
        "buildingNo": "-",
        "radius_km": "0.761",
        "dataKind": "",
        "stId": "",
        "parkFlag": "1",
        "merchantFlag": ""
      },
      {
        "name": "올치과의원",
        "telNo": "029691705",
        "latitude": "37.59031393",
        "longitude": "127.05590218",
        "address": "서울 동대문구 회기동",
        "roadName": "이문로",
        "buildingNo": "-",
        "radius_km": "0.763",
        "dataKind": "",
        "stId": "",
        "parkFlag": "0",
        "merchantFlag": ""
      },
      {
        "name": "최은림산부인과의원",
        "telNo": "0222175614",
        "latitude": "37.57714884",
        "longitude": "127.05851343",
        "address": "서울 동대문구 전농동",
        "roadName": "사가정로",
        "buildingNo": "-",
        "radius_km": "0.765",
        "dataKind": "",
        "stId": "",
        "parkFlag": "1",
        "merchantFlag": ""
      },
      {
        "name": "최은림산부인과의원 주차장",
        "telNo": "0222175614",
        "latitude": "37.57745437",
        "longitude": "127.05856897",
        "address": "서울 동대문구 전농동",
        "roadName": "사가정로",
        "buildingNo": "-",
        "radius_km": "0.765",
        "dataKind": "",
        "stId": "",
        "parkFlag": "0",
        "merchantFlag": ""
      },
      {
        "name": "반짝반짝어린이치과의원",
        "telNo": "0222487979",
        "latitude": "37.57714884",
        "longitude": "127.05851343",
        "address": "서울 동대문구 전농동",
        "roadName": "사가정로",
        "buildingNo": "-",
        "radius_km": "0.765",
        "dataKind": "",
        "stId": "",
        "parkFlag": "1",
        "merchantFlag": ""
      },
      {
        "name": "반짝반짝어린이치과의원 주차장",
        "telNo": "0222487979",
        "latitude": "37.57753769",
        "longitude": "127.05851342",
        "address": "서울 동대문구 전농동",
        "roadName": "사가정로",
        "buildingNo": "-",
        "radius_km": "0.765",
        "dataKind": "",
        "stId": "",
        "parkFlag": "0",
        "merchantFlag": ""
      },
      {
        "name": "페리오플란트연세현치과의원",
        "telNo": "0222125732",
        "latitude": "37.57700996",
        "longitude": "127.05809680",
        "address": "서울 동대문구 전농동",
        "roadName": "전농로",
        "buildingNo": "-",
        "radius_km": "0.766",
        "dataKind": "",
        "stId": "",
        "parkFlag": "1",
        "merchantFlag": ""
      },
      {
        "name": "페리오플란트연세현치과의원 주차장",
        "telNo": "0222125732",
        "latitude": "37.57695441",
        "longitude": "127.05795793",
        "address": "서울 동대문구 전농동",
        "roadName": "전농로",
        "buildingNo": "-",
        "radius_km": "0.766",
        "dataKind": "",
        "stId": "",
        "parkFlag": "0",
        "merchantFlag": ""
      },
      {
        "name": "메디홈즈의원",
        "telNo": "029562155",
        "latitude": "37.59042503",
        "longitude": "127.05570775",
        "address": "서울 동대문구 회기동",
        "roadName": "회기로",
        "buildingNo": "-",
        "radius_km": "0.774",
        "dataKind": "",
        "stId": "",
        "parkFlag": "1",
        "merchantFlag": ""
      },
      {
        "name": "사랑내과의원",
        "telNo": "029629175",
        "latitude": "37.59045280",
        "longitude": "127.05537445",
        "address": "서울 동대문구 회기동",
        "roadName": "회기로",
        "buildingNo": "-",
        "radius_km": "0.776",
        "dataKind": "",
        "stId": "",
        "parkFlag": "0",
        "merchantFlag": ""
      },
      {
        "name": "플러스덴치과의원",
        "telNo": "0222152275",
        "latitude": "37.57709330",
        "longitude": "127.05865231",
        "address": "서울 동대문구 전농동",
        "roadName": "사가정로",
        "buildingNo": "-",
        "radius_km": "0.776",
        "dataKind": "",
        "stId": "",
        "parkFlag": "1",
        "merchantFlag": ""
      },
      {
        "name": "플러스덴치과의원 주차장",
        "telNo": "0222152275",
        "latitude": "37.57750991",
        "longitude": "127.05851342",
        "address": "서울 동대문구 전농동",
        "roadName": "사가정로",
        "buildingNo": "-",
        "radius_km": "0.776",
        "dataKind": "",
        "stId": "",
        "parkFlag": "0",
        "merchantFlag": ""
      },
      {
        "name": "손안과의원",
        "telNo": "0222447300",
        "latitude": "37.57709330",
        "longitude": "127.05865231",
        "address": "서울 동대문구 전농동",
        "roadName": "사가정로",
        "buildingNo": "-",
        "radius_km": "0.776",
        "dataKind": "",
        "stId": "",
        "parkFlag": "0",
        "merchantFlag": ""
      },
      {
        "name": "김성희이비인후과의원",
        "telNo": "0222470100",
        "latitude": "37.57684331",
        "longitude": "127.05798571",
        "address": "서울 동대문구 전농동",
        "roadName": "전농로",
        "buildingNo": "-",
        "radius_km": "0.78",
        "dataKind": "",
        "stId": "",
        "parkFlag": "1",
        "merchantFlag": ""
      },
      {
        "name": "삼성바른의원",
        "telNo": "0269514733",
        "latitude": "37.57684331",
        "longitude": "127.05798571",
        "address": "서울 동대문구 전농동",
        "roadName": "전농로",
        "buildingNo": "-",
        "radius_km": "0.78",
        "dataKind": "",
        "stId": "",
        "parkFlag": "0",
        "merchantFlag": ""
      },
      {
        "name": "유석천치과의원",
        "telNo": "0222460701",
        "latitude": "37.57684331",
        "longitude": "127.05801348",
        "address": "서울 동대문구 전농동",
        "roadName": "전농로",
        "buildingNo": "-",
        "radius_km": "0.781",
        "dataKind": "",
        "stId": "",
        "parkFlag": "0",
        "merchantFlag": ""
      }
    ]
  }
}