{
  "key": "9780b333056a0b945562ab2cdd4d938a6f7bec9091fb3d0b1513c3230f51d96b",
  "tool": "CategorySearch_kakao",
  "created_at": "2025-10-21T07:32:54.134349",
  "input_params": {
    "category": "FD6",
    "radius": 1000,
    "size": 15,
    "x": 126.9779451,
    "y": 37.5865559
  },
  "raw_args": {
    "category": "FD6",
    "x": 126.9779451,
    "y": 37.5865559,
    "radius": 1000,
    "size": 15
  },
  "data": {
    "category": "FD6",
    "total_count": 220,
    "places": [
      {
        "name": "삼청동수제비",
        "latitude": 37.5845977743306,
        "longitude": 126.98197124938,
        "address": "서울 종로구 삼청동 102-2",
        "phone": "02-735-2965",
        "distance": "416"
      },
      {
        "name": "황생가칼국수",
        "latitude": 37.58006016029821,
        "longitude": 126.98064098689737,
        "address": "서울 종로구 소격동 84",
        "phone": "02-739-6334",
        "distance": "759"
      },
      {
        "name": "부영도가니탕",
        "latitude": 37.58719634044674,
        "longitude": 126.98265447996478,
        "address": "서울 종로구 삼청동 27-14",
        "phone": "02-730-9440",
        "distance": "421"
      },
      {
        "name": "소선재푸드",
        "latitude": 37.5855203606309,
        "longitude": 126.981771761666,
        "address": "서울 종로구 삼청동 113-3",
        "phone": "02-730-7002",
        "distance": "357"
      },
      {
        "name": "편안한집",
        "latitude": 37.5872937461736,
        "longitude": 126.983338315565,
        "address": "서울 종로구 삼청동 27-3",
        "phone": "02-735-0092",
        "distance": "483"
      },
      {
        "name": "청수정",
        "latitude": 37.5835958287631,
        "longitude": 126.981704301353,
        "address": "서울 종로구 삼청동 88-23",
        "phone": "02-738-8288",
        "distance": "467"
      },
      {
        "name": "다락정",
        "latitude": 37.58723851547563,
        "longitude": 126.98152338766235,
        "address": "서울 종로구 삼청동 127",
        "phone": "02-725-1697",
        "distance": "324"
      },
      {
        "name": "몽중헌 안국점",
        "latitude": 37.579594816597805,
        "longitude": 126.98375890795886,
        "address": "서울 종로구 화동 117",
        "phone": "02-730-2051",
        "distance": "927"
      },
      {
        "name": "스미스가 좋아하는 한옥",
        "latitude": 37.578014807861855,
        "longitude": 126.98006415817424,
        "address": "서울 종로구 사간동 62-1",
        "phone": "02-722-7003",
        "distance": "966"
      },
      {
        "name": "PKM가든레스토랑",
        "latitude": 37.5840929192001,
        "longitude": 126.980110088442,
        "address": "서울 종로구 삼청동 157-83",
        "phone": "02-734-9466",
        "distance": "333"
      },
      {
        "name": "온지음 레스토랑",
        "latitude": 37.580494739542516,
        "longitude": 126.97339071212892,
        "address": "서울 종로구 창성동 17-1",
        "phone": "02-6952-0024",
        "distance": "783"
      },
      {
        "name": "눈나무집",
        "latitude": 37.58746562127582,
        "longitude": 126.98188224468566,
        "address": "서울 종로구 삼청동 20-8",
        "phone": "02-739-6742",
        "distance": "362"
      },
      {
        "name": "경춘자의라면땡기는날",
        "latitude": 37.57929457090153,
        "longitude": 126.98226687271689,
        "address": "서울 종로구 화동 138-21",
        "phone": "02-733-3330",
        "distance": "891"
      },
      {
        "name": "잘빠진메밀 서촌점",
        "latitude": 37.57966895174509,
        "longitude": 126.97098201026118,
        "address": "서울 종로구 통인동 120",
        "phone": "070-4142-1214",
        "distance": "981"
      },
      {
        "name": "더베이커스테이블 삼청동점",
        "latitude": 37.5870916492241,
        "longitude": 126.981495118652,
        "address": "서울 종로구 삼청동 126",
        "phone": "02-725-0777",
        "distance": "319"
      }
    ]
  }
}