{
  "key": "2cdb28da1121009072c629e8e6858fb586eb0421eae82aad348030a02df7a3cc",
  "tool": "CategorySearch_kakao",
  "created_at": "2025-10-21T07:00:23.963658",
  "input_params": {
    "category": "FD6",
    "radius": 1500,
    "size": 10,
    "x": 126.9772,
    "y": 37.5663
  },
  "raw_args": {
    "category": "FD6",
    "x": 126.9772,
    "y": 37.5663,
    "radius": 1500,
    "size": 10
  },
  "data": {
    "category": "FD6",
    "total_count": 5619,
    "places": [
      {
        "name": "광화문국밥 본점",
        "latitude": 37.5689589279236,
        "longitude": 126.975391668232,
        "address": "서울 중구 정동 1-48",
        "phone": "02-738-5688",
        "distance": "335"
      },
      {
        "name": "무교동북어국집",
        "latitude": 37.56773441926809,
        "longitude": 126.9798518336699,
        "address": "서울 중구 다동 173",
        "phone": "02-777-3891",
        "distance": "283"
      },
      {
        "name": "진주회관",
        "latitude": 37.562478781861735,
        "longitude": 126.97453133779806,
        "address": "서울 중구 서소문동 120-35",
        "phone": "02-753-5388",
        "distance": "485"
      },
      {
        "name": "부민옥",
        "latitude": 37.5675038430283,
        "longitude": 126.98031824515,
        "address": "서울 중구 다동 177-2",
        "phone": "02-777-4323",
        "distance": "306"
      },
      {
        "name": "농민백암순대 시청직영점",
        "latitude": 37.56259825108099,
        "longitude": 126.97715943361476,
        "address": "서울 중구 북창동 19-4",
        "phone": "02-755-5232",
        "distance": "410"
      },
      {
        "name": "광화문미진 본점",
        "latitude": 37.570844667978704,
        "longitude": 126.9799234417087,
        "address": "서울 종로구 종로1가 24",
        "phone": "02-732-1954",
        "distance": "558"
      },
      {
        "name": "남포면옥",
        "latitude": 37.5671652991647,
        "longitude": 126.981753597164,
        "address": "서울 중구 다동 121-4",
        "phone": "02-777-3131",
        "distance": "413"
      },
      {
        "name": "청진옥",
        "latitude": 37.571717650682224,
        "longitude": 126.97944890786793,
        "address": "서울 종로구 청진동 183-1",
        "phone": "02-735-1690",
        "distance": "633"
      },
      {
        "name": "디라이프 스타일키친 광화문점",
        "latitude": 37.56842610180289,
        "longitude": 126.97826128583668,
        "address": "서울 중구 태평로1가 84",
        "phone": "02-6273-0100",
        "distance": "254"
      },
      {
        "name": "일품진진수라 광화문점",
        "latitude": 37.5706357409413,
        "longitude": 126.980543813707,
        "address": "서울 종로구 청진동 128",
        "phone": "02-6226-8191",
        "distance": "564"
      }
    ]
  }
}