{
  "key": "73a4d1fe33280186eaf7709d049fe58b7a2c40ff5c7c15254b99d8df0ad87f3d",
  "tool": "CategorySearch_kakao",
  "created_at": "2025-12-15T14:45:02.718768",
  "input_params": {
    "category": "CE7",
    "radius": 500,
    "size": 5,
    "x": 126.9237,
    "y": 37.5563
  },
  "raw_args": {
    "x": 126.9237,
    "y": 37.5563,
    "category": "CE7",
    "radius": 500,
    "size": 5
  },
  "data": {
    "category": "CE7",
    "total_count": 444,
    "places": [
      {
        "name": "벌툰 봉화당 홍대입구역점",
        "latitude": 37.5564499530999,
        "longitude": 126.925146143059,
        "address": "서울 마포구 동교동 169-11",
        "phone": "02-333-5111",
        "distance": "128"
      },
      {
        "name": "레드버튼 홍대점",
        "latitude": 37.5540084192114,
        "longitude": 126.922613551217,
        "address": "서울 마포구 서교동 358-1",
        "phone": "02-333-3799",
        "distance": "272"
      },
      {
        "name": "놀숲 프리미엄홍대점",
        "latitude": 37.5522899275144,
        "longitude": 126.92217397074651,
        "address": "서울 마포구 서교동 364-26",
        "phone": "02-336-7001",
        "distance": "465"
      },
      {
        "name": "히어로보드게임카페 홍대2호점",
        "latitude": 37.55534916196303,
        "longitude": 126.92270270334447,
        "address": "서울 마포구 동교동 162-3",
        "phone": "02-3142-7767",
        "distance": "137"
      },
      {
        "name": "히어로보드게임카페 홍대1호점",
        "latitude": 37.55209599632931,
        "longitude": 126.92184598443768,
        "address": "서울 마포구 서교동 364-22",
        "phone": "02-6368-6001",
        "distance": "494"
      }
    ]
  }
}