{
  "key": "1846e54adcb5ab2de6b42ef7c70fa3e20594119da67ee3bd829c8eed854e65dd",
  "tool": "PlaceSearch_kakao",
  "created_at": "2025-10-26T11:54:43.014211",
  "input_params": {
    "keyword": "주차장",
    "radius": 1000,
    "sort": "accuracy",
    "x": 127.0567,
    "y": 37.4832
  },
  "raw_args": {
    "keyword": "주차장",
    "x": 127.0567,
    "y": 37.4832,
    "radius": 1000,
    "sort": "accuracy"
  },
  "data": {
    "keyword": "주차장",
    "total_count": 39,
    "places": [
      {
        "name": "군인공제회관 주차장",
        "latitude": 37.4888281163559,
        "longitude": 127.05280272357437,
        "address": "서울 강남구 도곡동 467-12",
        "road_address": "서울 강남구 남부순환로 2806",
        "phone": "",
        "category": "교통,수송 > 교통시설 > 주차장",
        "distance": "713"
      },
      {
        "name": "우성캐릭터199오피스텔상가 주차장",
        "latitude": 37.4869661929894,
        "longitude": 127.05176343084,
        "address": "서울 강남구 도곡동 467-24",
        "road_address": "서울 강남구 언주로 118",
        "phone": "",
        "category": "교통,수송 > 교통시설 > 주차장",
        "distance": "604"
      },
      {
        "name": "논현로22길 공영주차장",
        "latitude": 37.4811692313714,
        "longitude": 127.047155578572,
        "address": "서울 강남구 개포동 1266",
        "road_address": "서울 강남구 개포로25길 32",
        "phone": "",
        "category": "교통,수송 > 교통시설 > 주차장 > 공영주차장",
        "distance": "873"
      },
      {
        "name": "린스퀘어 주차장",
        "latitude": 37.4886757818275,
        "longitude": 127.052946218469,
        "address": "서울 강남구 도곡동 467-14",
        "road_address": "서울 강남구 언주로30길 39",
        "phone": "",
        "category": "교통,수송 > 교통시설 > 주차장",
        "distance": "692"
      },
      {
        "name": "개포4문화센터 공영주차장",
        "latitude": 37.4771207170896,
        "longitude": 127.050026895904,
        "address": "서울 강남구 개포동 1204",
        "road_address": "서울 강남구 개포로24길 33",
        "phone": "",
        "category": "교통,수송 > 교통시설 > 주차장 > 공영주차장",
        "distance": "896"
      },
      {
        "name": "개포도서관 주차장",
        "latitude": 37.4830608997759,
        "longitude": 127.063508093447,
        "address": "서울 강남구 개포동 139",
        "road_address": "",
        "phone": "",
        "category": "교통,수송 > 교통시설 > 주차장",
        "distance": "602"
      },
      {
        "name": "강남수도사업소 주차장",
        "latitude": 37.4831937790593,
        "longitude": 127.047203207273,
        "address": "서울 강남구 도곡동 459-4",
        "road_address": "서울 강남구 양재천로 199",
        "phone": "",
        "category": "교통,수송 > 교통시설 > 주차장",
        "distance": "840"
      },
      {
        "name": "현대비젼21 주차장",
        "latitude": 37.487337495193,
        "longitude": 127.051564682922,
        "address": "서울 강남구 도곡동 467-20",
        "road_address": "서울 강남구 언주로30길 10",
        "phone": "",
        "category": "교통,수송 > 교통시설 > 주차장",
        "distance": "645"
      },
      {
        "name": "타워팰리스3차 주차장",
        "latitude": 37.48713870388776,
        "longitude": 127.05285354677703,
        "address": "서울 강남구 도곡동 467-29",
        "road_address": "서울 강남구 언주로30길 26",
        "phone": "",
        "category": "교통,수송 > 교통시설 > 주차장",
        "distance": "553"
      },
      {
        "name": "우성캐릭터빌 주차장",
        "latitude": 37.4870818465824,
        "longitude": 127.051017247759,
        "address": "서울 강남구 도곡동 467-18",
        "road_address": "서울 강남구 언주로 122",
        "phone": "",
        "category": "교통,수송 > 교통시설 > 주차장",
        "distance": "661"
      },
      {
        "name": "아마노 도곡재능교육빌딩 주차장",
        "latitude": 37.4875995626866,
        "longitude": 127.049756859139,
        "address": "서울 강남구 도곡동 464",
        "road_address": "서울 강남구 언주로 123",
        "phone": "",
        "category": "교통,수송 > 교통시설 > 주차장",
        "distance": "784"
      },
      {
        "name": "도곡sk리더스뷰 주차장",
        "latitude": 37.4883234689395,
        "longitude": 127.04880527299,
        "address": "서울 강남구 도곡동 168",
        "road_address": "서울 강남구 언주로 201",
        "phone": "",
        "category": "교통,수송 > 교통시설 > 주차장",
        "distance": "900"
      },
      {
        "name": "인스토피아오피스텔 주차장",
        "latitude": 37.4867573604048,
        "longitude": 127.051301962602,
        "address": "서울 강남구 도곡동 467-23",
        "road_address": "서울 강남구 언주로 120",
        "phone": "",
        "category": "교통,수송 > 교통시설 > 주차장",
        "distance": "619"
      },
      {
        "name": "타워팰리스 주차장",
        "latitude": 37.489444375557,
        "longitude": 127.05484639899,
        "address": "서울 강남구 도곡동 467-17",
        "road_address": "서울 강남구 언주로30길 57",
        "phone": "",
        "category": "교통,수송 > 교통시설 > 주차장",
        "distance": "712"
      },
      {
        "name": "구룡산1노외주차장",
        "latitude": 37.4789083393208,
        "longitude": 127.064818310784,
        "address": "서울 강남구 개포동 567-22",
        "road_address": "",
        "phone": "",
        "category": "교통,수송 > 교통시설 > 주차장",
        "distance": "861"
      }
    ]
  }
}