{
  "key": "d8274a5e2e6ccaa6f9e8732aeb1dc1769ee918e2d2d569457a214f831caf0dbf",
  "tool": "CategorySearch_kakao",
  "created_at": "2025-10-21T03:55:32.229667",
  "input_params": {
    "category": "CE7",
    "radius": 1000,
    "size": 15,
    "x": 127.0276,
    "y": 37.4979
  },
  "raw_args": {
    "category": "CE7",
    "x": 127.0276,
    "y": 37.4979,
    "radius": 1000,
    "size": 15
  },
  "data": {
    "category": "CE7",
    "total_count": 600,
    "places": [
      {
        "name": "벌툰 엔틱 강남역점",
        "latitude": 37.5007307950853,
        "longitude": 127.027978644718,
        "address": "서울 강남구 역삼동 817-35",
        "phone": "02-569-4976",
        "distance": "315"
      },
      {
        "name": "놀숲 강남역점",
        "latitude": 37.50098307994714,
        "longitude": 127.02796516792077,
        "address": "서울 강남구 역삼동 620-9",
        "phone": "02-558-5846",
        "distance": "343"
      },
      {
        "name": "레드버튼 시네마강남점",
        "latitude": 37.5003940501115,
        "longitude": 127.026984456104,
        "address": "서울 강남구 역삼동 816",
        "phone": "02-556-3799",
        "distance": "282"
      },
      {
        "name": "벌툰 파리지앵 강남본점",
        "latitude": 37.50026197173603,
        "longitude": 127.02531519997575,
        "address": "서울 서초구 서초동 1307-18",
        "phone": "02-533-4976",
        "distance": "331"
      },
      {
        "name": "레드버튼 강남점",
        "latitude": 37.501931286572834,
        "longitude": 127.0264523435014,
        "address": "서울 강남구 역삼동 814-5",
        "phone": "02-566-3799",
        "distance": "458"
      },
      {
        "name": "레드버튼 강남2호점",
        "latitude": 37.4998154950733,
        "longitude": 127.027458092239,
        "address": "서울 강남구 역삼동 816-4",
        "phone": "02-553-3799",
        "distance": "212"
      },
      {
        "name": "놀숲 강남교보타워점",
        "latitude": 37.502548906046734,
        "longitude": 127.02445419990524,
        "address": "서울 서초구 서초동 1303-36",
        "phone": "02-533-7533",
        "distance": "585"
      },
      {
        "name": "홈즈앤루팡 강남점",
        "latitude": 37.5014554146078,
        "longitude": 127.027074180594,
        "address": "서울 강남구 역삼동 619-16",
        "phone": "02-567-8707",
        "distance": "397"
      },
      {
        "name": "데블다이스 강남점",
        "latitude": 37.5001074514454,
        "longitude": 127.027327015002,
        "address": "서울 강남구 역삼동 816-6",
        "phone": "0507-1370-3912",
        "distance": "246"
      },
      {
        "name": "토즈모임센터 강남역토즈타워점",
        "latitude": 37.4967332799105,
        "longitude": 127.030605241506,
        "address": "서울 강남구 역삼동 827-3",
        "phone": "02-3454-0116",
        "distance": "295"
      },
      {
        "name": "데블다이스 강남대로점",
        "latitude": 37.500743715131364,
        "longitude": 127.0266554878841,
        "address": "서울 강남구 역삼동 815-4",
        "phone": "0507-1371-3912",
        "distance": "326"
      },
      {
        "name": "키이스케이프 강남점",
        "latitude": 37.5001035869388,
        "longitude": 127.028430769789,
        "address": "서울 강남구 역삼동 817-21",
        "phone": "010-7456-6082",
        "distance": "255"
      },
      {
        "name": "알베르",
        "latitude": 37.50305626160175,
        "longitude": 127.02810278517197,
        "address": "서울 강남구 역삼동 618-11",
        "phone": "02-566-6181",
        "distance": "573"
      },
      {
        "name": "토즈모임센터 강남컨퍼런스점",
        "latitude": 37.50178014843902,
        "longitude": 127.02540053176205,
        "address": "서울 서초구 서초동 1305-1",
        "phone": "02-3476-0118",
        "distance": "472"
      },
      {
        "name": "장꼬방",
        "latitude": 37.498331428974,
        "longitude": 127.023807097178,
        "address": "서울 서초구 서초동 1316",
        "phone": "02-597-5511",
        "distance": "338"
      }
    ]
  }
}