{
  "key": "22d6753286082ac806b9f9c65b0cb81c3ef84e0286ac6fef89d2896feacdae24",
  "tool": "PlaceSearch_kakao",
  "created_at": "2025-10-20T13:16:42.542721",
  "input_params": {
    "keyword": "시흥시청 맛집",
    "page": 1,
    "size": 10,
    "sort": "accuracy",
    "x": 126.9152,
    "y": 37.4895
  },
  "raw_args": {
    "keyword": "시흥시청 맛집",
    "x": 126.9152,
    "y": 37.4895,
    "page": 1,
    "size": 10
  },
  "data": {
    "keyword": "시흥시청 맛집",
    "total_count": 822,
    "places": [
      {
        "name": "오 왕서방짬뽕",
        "latitude": 37.3811410423075,
        "longitude": 126.802261516649,
        "address": "경기 시흥시 장현동 547-5",
        "road_address": "경기 시흥시 새재로 19",
        "phone": "031-404-3700",
        "category": "음식점 > 중식 > 중국요리",
        "distance": "15637"
      },
      {
        "name": "이루다제면소 시흥시청직영점",
        "latitude": 37.3785597641041,
        "longitude": 126.802352973934,
        "address": "경기 시흥시 장현동 673-2",
        "road_address": "경기 시흥시 시청전원마을길 3-1",
        "phone": "",
        "category": "음식점 > 일식 > 돈까스,우동",
        "distance": "15853"
      },
      {
        "name": "마주생태탕",
        "latitude": 37.3820033134277,
        "longitude": 126.800646869127,
        "address": "경기 시흥시 장현동 533-2",
        "road_address": "경기 시흥시 새재로17번길 19",
        "phone": "031-317-1500",
        "category": "음식점 > 한식 > 해물,생선 > 매운탕,해물탕",
        "distance": "15656"
      },
      {
        "name": "빽다방 시흥시청점",
        "latitude": 37.37902764329338,
        "longitude": 126.80358356744095,
        "address": "경기 시흥시 장현동 671-4",
        "road_address": "경기 시흥시 시청로 33",
        "phone": "070-8770-4793",
        "category": "음식점 > 카페 > 커피전문점 > 빽다방",
        "distance": "15744"
      },
      {
        "name": "라스베이글 시흥시청지점",
        "latitude": 37.3789489796679,
        "longitude": 126.802876972082,
        "address": "경기 시흥시 장현동 671-2",
        "road_address": "경기 시흥시 시청로 37",
        "phone": "",
        "category": "음식점 > 카페",
        "distance": "15791"
      },
      {
        "name": "커피와케이크",
        "latitude": 37.3820583096863,
        "longitude": 126.801202251008,
        "address": "경기 시흥시 장현동 532-4",
        "road_address": "경기 시흥시 시청로72번길 21",
        "phone": "010-4040-4259",
        "category": "음식점 > 카페",
        "distance": "15619"
      },
      {
        "name": "장현족발",
        "latitude": 37.38091144937925,
        "longitude": 126.80128657389537,
        "address": "경기 시흥시 장현동 544-5",
        "road_address": "경기 시흥시 새재로7번길 6-1",
        "phone": "031-317-8989",
        "category": "음식점 > 한식 > 육류,고기 > 족발,보쌈",
        "distance": "15712"
      },
      {
        "name": "매머드익스프레스 시흥시청점",
        "latitude": 37.381335435755,
        "longitude": 126.802125513029,
        "address": "경기 시흥시 장현동 547-6",
        "road_address": "경기 시흥시 새재로17번길 6",
        "phone": "",
        "category": "음식점 > 카페 > 커피전문점 > 매머드익스프레스",
        "distance": "15628"
      },
      {
        "name": "컴포즈커피 시흥시청점",
        "latitude": 37.3815358716531,
        "longitude": 126.802370003914,
        "address": "경기 시흥시 장현동 547-1",
        "road_address": "경기 시흥시 새재로 23-2",
        "phone": "031-315-8080",
        "category": "음식점 > 카페 > 커피전문점 > 컴포즈커피",
        "distance": "15597"
      },
      {
        "name": "숯성고기",
        "latitude": 37.3772949577174,
        "longitude": 126.801952093233,
        "address": "경기 시흥시 장현동 681-6",
        "road_address": "경기 시흥시 시청전원마을길 47",
        "phone": "010-8323-1826",
        "category": "음식점 > 한식 > 육류,고기 > 삼겹살",
        "distance": "15985"
      }
    ]
  }
}