{
  "key": "22da5e1ed703fbd56aefe4f87ee5fb1d99a5a48a72c2ebc37ea33186f3a49064",
  "tool": "PlaceSearch_kakao",
  "created_at": "2025-12-15T08:28:18.506304",
  "input_params": {
    "keyword": "맛집",
    "page": 1,
    "radius": 1000,
    "size": 15,
    "sort": "accuracy",
    "x": 127.216475764948,
    "y": 37.6360236390492
  },
  "raw_args": {
    "keyword": "맛집",
    "x": 127.216475764948,
    "y": 37.6360236390492,
    "page": 1,
    "size": 15,
    "radius": 1000,
    "sort": "accuracy"
  },
  "data": {
    "keyword": "맛집",
    "total_count": 117,
    "places": [
      {
        "name": "태능배갈비",
        "latitude": 37.6353160633072,
        "longitude": 127.215164031511,
        "address": "경기 남양주시 금곡동 185-18",
        "road_address": "경기 남양주시 경춘로 1023",
        "phone": "031-559-8588",
        "category": "음식점 > 한식 > 육류,고기 > 갈비",
        "distance": "139"
      },
      {
        "name": "나능이 금곡점",
        "latitude": 37.6353181485961,
        "longitude": 127.214017500397,
        "address": "경기 남양주시 금곡동 158-66",
        "road_address": "경기 남양주시 경춘로1015번길 3",
        "phone": "031-593-2881",
        "category": "음식점 > 한식 > 육류,고기 > 닭요리",
        "distance": "230"
      },
      {
        "name": "오가네아구찜",
        "latitude": 37.6359886906951,
        "longitude": 127.213901596625,
        "address": "경기 남양주시 금곡동 158-1",
        "road_address": "경기 남양주시 사릉로34번길 48",
        "phone": "031-591-5501",
        "category": "음식점 > 한식 > 해물,생선 > 아구",
        "distance": "227"
      },
      {
        "name": "원조공릉동멸치국수 금곡점",
        "latitude": 37.6355299650025,
        "longitude": 127.214466754158,
        "address": "경기 남양주시 금곡동 185-69",
        "road_address": "경기 남양주시 경춘로1015번길 8",
        "phone": "031-594-2901",
        "category": "음식점 > 한식 > 국수",
        "distance": "185"
      },
      {
        "name": "온기순대국 금곡본점",
        "latitude": 37.6339752890785,
        "longitude": 127.211738742707,
        "address": "경기 남양주시 금곡동 154-1",
        "road_address": "경기 남양주시 경춘로992번길 4",
        "phone": "031-511-1590",
        "category": "음식점 > 한식 > 순대",
        "distance": "475"
      },
      {
        "name": "맛있는해장국",
        "latitude": 37.63439850196885,
        "longitude": 127.21237891491245,
        "address": "경기 남양주시 금곡동 154-20",
        "road_address": "경기 남양주시 경춘로 998",
        "phone": "031-595-3440",
        "category": "음식점 > 한식 > 해장국",
        "distance": "404"
      },
      {
        "name": "풀문",
        "latitude": 37.6361732018748,
        "longitude": 127.215491661151,
        "address": "경기 남양주시 금곡동 185-41",
        "road_address": "경기 남양주시 경춘로양골1길 10",
        "phone": "070-7543-3894",
        "category": "음식점 > 카페",
        "distance": "88"
      },
      {
        "name": "금곡손칼국수",
        "latitude": 37.6351412839653,
        "longitude": 127.212172568161,
        "address": "경기 남양주시 금곡동 158-14",
        "road_address": "경기 남양주시 경춘로 997",
        "phone": "031-591-1251",
        "category": "음식점 > 한식 > 국수 > 칼국수",
        "distance": "392"
      },
      {
        "name": "옥돌",
        "latitude": 37.6337890035761,
        "longitude": 127.21211887480284,
        "address": "경기 남양주시 금곡동 152-65",
        "road_address": "경기 남양주시 경춘로992번길 9",
        "phone": "031-592-5902",
        "category": "음식점 > 한식 > 육류,고기",
        "distance": "457"
      },
      {
        "name": "어랑손만두국",
        "latitude": 37.63628665040511,
        "longitude": 127.22423501355276,
        "address": "경기 남양주시 금곡동 14",
        "road_address": "경기 남양주시 경춘로 1084-25",
        "phone": "031-592-2959",
        "category": "음식점 > 한식",
        "distance": "685"
      },
      {
        "name": "홍천강다슬기",
        "latitude": 37.63372134659469,
        "longitude": 127.21216513210727,
        "address": "경기 남양주시 금곡동 152-65",
        "road_address": "경기 남양주시 경춘로992번길 9",
        "phone": "010-4879-1314",
        "category": "음식점 > 한식 > 해물,생선",
        "distance": "458"
      },
      {
        "name": "매머드익스프레스 남양주시청제1청사점",
        "latitude": 37.6364148527216,
        "longitude": 127.215882096747,
        "address": "경기 남양주시 금곡동 203-31",
        "road_address": "경기 남양주시 경춘로양골1길 13",
        "phone": "",
        "category": "음식점 > 카페 > 커피전문점 > 매머드익스프레스",
        "distance": "67"
      },
      {
        "name": "고향아구찜",
        "latitude": 37.636324634617,
        "longitude": 127.213472035961,
        "address": "경기 남양주시 금곡동 164-7",
        "road_address": "경기 남양주시 사릉로34번길 41-4",
        "phone": "",
        "category": "음식점 > 한식 > 해물,생선 > 아구",
        "distance": "267"
      },
      {
        "name": "떡볶이가맛있다",
        "latitude": 37.6359117389969,
        "longitude": 127.212609812047,
        "address": "경기 남양주시 금곡동 158-54",
        "road_address": "경기 남양주시 경춘로995번길 16",
        "phone": "",
        "category": "음식점 > 분식 > 떡볶이",
        "distance": "341"
      },
      {
        "name": "뜨란",
        "latitude": 37.6358722995465,
        "longitude": 127.216461730489,
        "address": "경기 남양주시 금곡동 185-10",
        "road_address": "경기 남양주시 경춘로 1037",
        "phone": "031-592-7150",
        "category": "음식점 > 카페 > 커피전문점",
        "distance": "16"
      }
    ]
  }
}