{
  "key": "aa34fee5978df7136e5f14c1d916b5fe6fb7e71102f6035273757782affb9e99",
  "tool": "PlaceSearch_kakao",
  "created_at": "2025-12-15T14:23:46.097529",
  "input_params": {
    "keyword": "시흥시청 맛집",
    "size": 10,
    "sort": "accuracy"
  },
  "raw_args": {
    "keyword": "시흥시청 맛집",
    "size": 10,
    "sort": "accuracy"
  },
  "data": {
    "keyword": "시흥시청 맛집",
    "total_count": 814,
    "places": [
      {
        "name": "오 왕서방짬뽕",
        "latitude": 37.3811410423075,
        "longitude": 126.802261516649,
        "address": "경기 시흥시 장현동 547-5",
        "road_address": "경기 시흥시 새재로 19",
        "phone": "031-404-3700",
        "category": "음식점 > 중식 > 중국요리",
        "distance": ""
      },
      {
        "name": "시흥감자탕 시흥장현점",
        "latitude": 37.3808400259597,
        "longitude": 126.801142237219,
        "address": "경기 시흥시 장현동 544-5",
        "road_address": "경기 시흥시 새재로7번길 6-1",
        "phone": "031-318-5237",
        "category": "음식점 > 한식 > 감자탕",
        "distance": ""
      },
      {
        "name": "이루다제면소 시흥시청직영점",
        "latitude": 37.3785597641041,
        "longitude": 126.802352973934,
        "address": "경기 시흥시 장현동 673-2",
        "road_address": "경기 시흥시 시청전원마을길 3-1",
        "phone": "",
        "category": "음식점 > 일식 > 돈까스,우동",
        "distance": ""
      },
      {
        "name": "컴포즈커피 시흥시청점",
        "latitude": 37.3815358716531,
        "longitude": 126.802370003914,
        "address": "경기 시흥시 장현동 547-1",
        "road_address": "경기 시흥시 새재로 23-2",
        "phone": "031-315-8080",
        "category": "음식점 > 카페 > 커피전문점 > 컴포즈커피",
        "distance": ""
      },
      {
        "name": "선도아구찜탕",
        "latitude": 37.3817464892232,
        "longitude": 126.802237344597,
        "address": "경기 시흥시 장현동 546-1",
        "road_address": "경기 시흥시 시청로68번길 26",
        "phone": "",
        "category": "음식점 > 한식 > 해물,생선 > 아구",
        "distance": ""
      },
      {
        "name": "빽다방 시흥시청점",
        "latitude": 37.37902764329338,
        "longitude": 126.80358356744095,
        "address": "경기 시흥시 장현동 671-4",
        "road_address": "경기 시흥시 시청로 33",
        "phone": "070-8770-4793",
        "category": "음식점 > 카페 > 커피전문점 > 빽다방",
        "distance": ""
      },
      {
        "name": "초심 시흥연성점",
        "latitude": 37.38163812897424,
        "longitude": 126.80209536071762,
        "address": "경기 시흥시 장현동 546-1",
        "road_address": "경기 시흥시 시청로68번길 26",
        "phone": "031-435-7778",
        "category": "음식점 > 한식 > 육류,고기 > 갈비",
        "distance": ""
      },
      {
        "name": "커피와케이크",
        "latitude": 37.3820583096863,
        "longitude": 126.801202251008,
        "address": "경기 시흥시 장현동 532-4",
        "road_address": "경기 시흥시 시청로72번길 21",
        "phone": "010-4040-4259",
        "category": "음식점 > 카페",
        "distance": ""
      },
      {
        "name": "배스킨라빈스 시흥시청점",
        "latitude": 37.38093992042698,
        "longitude": 126.79947089939841,
        "address": "경기 시흥시 장현동 538-3",
        "road_address": "경기 시흥시 시청로 74",
        "phone": "031-312-9945",
        "category": "음식점 > 간식 > 아이스크림 > 배스킨라빈스",
        "distance": ""
      },
      {
        "name": "BHC치킨 시흥시청점",
        "latitude": 37.3821495942603,
        "longitude": 126.80083391618295,
        "address": "경기 시흥시 장현동 532-7",
        "road_address": "경기 시흥시 새재로17번길 20",
        "phone": "031-318-9996",
        "category": "음식점 > 치킨 > BHC치킨",
        "distance": ""
      }
    ]
  }
}