{
  "key": "aa44f09d929e3832bbe3f514d01e37f1ba5a98ec272d77dc309b546ab169d2e6",
  "tool": "PlaceSearch_kakao",
  "created_at": "2025-10-27T15:30:03.960010",
  "input_params": {
    "keyword": "편의점",
    "radius": 500,
    "size": 15,
    "sort": "distance",
    "x": 126.923778562273,
    "y": 37.5568707448873
  },
  "raw_args": {
    "keyword": "편의점",
    "x": 126.923778562273,
    "y": 37.5568707448873,
    "radius": 500,
    "size": 15,
    "sort": "distance"
  },
  "data": {
    "keyword": "편의점",
    "total_count": 51,
    "places": [
      {
        "name": "GS25 S홍대역사점",
        "latitude": 37.5568923015441,
        "longitude": 126.923674418839,
        "address": "서울 마포구 동교동 155-6",
        "road_address": "서울 마포구 양화로 지하 160",
        "phone": "",
        "category": "가정,생활 > 편의점 > GS25",
        "distance": "9"
      },
      {
        "name": "세븐일레븐 마포홍익점",
        "latitude": 37.5563089188037,
        "longitude": 126.924394804546,
        "address": "서울 마포구 동교동 164-23",
        "road_address": "서울 마포구 홍익로6길 52",
        "phone": "",
        "category": "가정,생활 > 편의점 > 세븐일레븐",
        "distance": "82"
      },
      {
        "name": "GS25 동교사랑점",
        "latitude": 37.5575696280494,
        "longitude": 126.923329671289,
        "address": "서울 마포구 동교동 158-1",
        "road_address": "서울 마포구 월드컵북로2길 57",
        "phone": "",
        "category": "가정,생활 > 편의점 > GS25",
        "distance": "87"
      },
      {
        "name": "CU 홍대동교로점",
        "latitude": 37.5570672499341,
        "longitude": 126.92252890148,
        "address": "서울 마포구 동교동 158-27",
        "road_address": "서울 마포구 동교로 190",
        "phone": "02-335-2752",
        "category": "가정,생활 > 편의점 > CU",
        "distance": "112"
      },
      {
        "name": "GS25 팰리스점",
        "latitude": 37.55584510136267,
        "longitude": 126.92330201293582,
        "address": "서울 마포구 동교동 165-8",
        "road_address": "서울 마포구 양화로 156",
        "phone": "",
        "category": "가정,생활 > 편의점 > GS25",
        "distance": "121"
      },
      {
        "name": "세븐일레븐 홍대중앙점",
        "latitude": 37.555809838279814,
        "longitude": 126.92450735091259,
        "address": "서울 마포구 서교동 347-21",
        "road_address": "서울 마포구 어울마당로 130",
        "phone": "1577-0711",
        "category": "가정,생활 > 편의점 > 세븐일레븐",
        "distance": "134"
      },
      {
        "name": "CU 홍대입구역점",
        "latitude": 37.556680528954,
        "longitude": 126.922235046328,
        "address": "서울 마포구 동교동 158-17",
        "road_address": "서울 마포구 동교로 182-5",
        "phone": "",
        "category": "가정,생활 > 편의점 > CU",
        "distance": "137"
      },
      {
        "name": "세븐일레븐 연트럴파크점",
        "latitude": 37.5581811026574,
        "longitude": 126.924257099998,
        "address": "서울 마포구 동교동 154-18",
        "road_address": "서울 마포구 양화로19길 14",
        "phone": "1577-0711",
        "category": "가정,생활 > 편의점 > 세븐일레븐",
        "distance": "151"
      },
      {
        "name": "CU 홍익인간점",
        "latitude": 37.55824293917179,
        "longitude": 126.92514887659061,
        "address": "서울 마포구 동교동 155-27",
        "road_address": "서울 마포구 양화로 183",
        "phone": "02-337-9833",
        "category": "가정,생활 > 편의점 > CU",
        "distance": "194"
      },
      {
        "name": "CU 앰배서더홍대점",
        "latitude": 37.5551501437983,
        "longitude": 126.922859087486,
        "address": "서울 마포구 동교동 163-10",
        "road_address": "서울 마포구 홍익로6길 14",
        "phone": "",
        "category": "가정,생활 > 편의점 > CU",
        "distance": "207"
      },
      {
        "name": "GS25 홍대공원점",
        "latitude": 37.55695337749929,
        "longitude": 126.9262072267262,
        "address": "서울 마포구 동교동 170-27",
        "road_address": "서울 마포구 양화로18안길 28",
        "phone": "02-332-4800",
        "category": "가정,생활 > 편의점 > GS25",
        "distance": "214"
      },
      {
        "name": "GS25 동교타운점",
        "latitude": 37.55772341870055,
        "longitude": 126.92153226653879,
        "address": "서울 마포구 동교동 201-1",
        "road_address": "서울 마포구 동교로25길 15",
        "phone": "",
        "category": "가정,생활 > 편의점 > GS25",
        "distance": "219"
      },
      {
        "name": "GS25 연남한양점",
        "latitude": 37.5589369606516,
        "longitude": 126.922745400433,
        "address": "서울 마포구 동교동 198-1",
        "road_address": "서울 마포구 월드컵북로4길 72",
        "phone": "",
        "category": "가정,생활 > 편의점 > GS25",
        "distance": "247"
      },
      {
        "name": "CU 홍대서교점",
        "latitude": 37.5563896117115,
        "longitude": 126.92662200228,
        "address": "서울 마포구 서교동 330-17",
        "road_address": "서울 마포구 와우산로29길 70",
        "phone": "02-333-9689",
        "category": "가정,생활 > 편의점 > CU",
        "distance": "256"
      },
      {
        "name": "GS25 홍대동교점",
        "latitude": 37.559080681767,
        "longitude": 126.924858300768,
        "address": "서울 마포구 동교동 154-1",
        "road_address": "서울 마포구 양화로21길 21",
        "phone": "",
        "category": "가정,생활 > 편의점 > GS25",
        "distance": "263"
      }
    ]
  }
}