{
  "key": "aabc615781be4bb4e044111ddea9cd999be2ca45baac4629e9de957d383ff1a0",
  "tool": "PlaceSearch_kakao",
  "created_at": "2025-12-19T04:51:02.364070",
  "input_params": {
    "keyword": "병원",
    "page": 1,
    "radius": 1000,
    "size": 15,
    "sort": "distance",
    "x": 127.055113438416,
    "y": 37.583477162287
  },
  "raw_args": {
    "keyword": "병원",
    "x": 127.055113438416,
    "y": 37.583477162287,
    "page": 1,
    "size": 15,
    "radius": 1000,
    "sort": "distance"
  },
  "data": {
    "keyword": "병원",
    "total_count": 145,
    "places": [
      {
        "name": "서울인치과의원",
        "latitude": 37.583049914877776,
        "longitude": 127.05353943331397,
        "address": "서울 동대문구 전농동 124-66",
        "road_address": "서울 동대문구 전농로 211",
        "phone": "02-933-7528",
        "category": "의료,건강 > 병원 > 치과",
        "distance": "146"
      },
      {
        "name": "보스톤클래식치과",
        "latitude": 37.5841970401883,
        "longitude": 127.051144586177,
        "address": "서울 동대문구 전농동 591-92",
        "road_address": "서울 동대문구 왕산로 214",
        "phone": "",
        "category": "의료,건강 > 병원",
        "distance": "359"
      },
      {
        "name": "광덕 한의원",
        "latitude": 37.5835614635798,
        "longitude": 127.049919155387,
        "address": "서울 동대문구 전농동 602-30",
        "road_address": "서울 동대문구 왕산로 256",
        "phone": "02-966-1759",
        "category": "의료,건강 > 병원 > 한의원",
        "distance": "458"
      },
      {
        "name": "서울성심병원기숙사",
        "latitude": 37.5844696510441,
        "longitude": 127.049951462662,
        "address": "서울 동대문구 청량리동 40-21",
        "road_address": "서울 동대문구 제기로38길 33-3",
        "phone": "",
        "category": "부동산 > 주거시설",
        "distance": "469"
      },
      {
        "name": "서울성심병원",
        "latitude": 37.5841741732334,
        "longitude": 127.049838048407,
        "address": "서울 동대문구 청량리동 40-9",
        "road_address": "서울 동대문구 왕산로 259",
        "phone": "02-966-1616",
        "category": "의료,건강 > 병원 > 종합병원",
        "distance": "472"
      },
      {
        "name": "서울성심병원 응급실",
        "latitude": 37.58419581617492,
        "longitude": 127.04979277609374,
        "address": "서울 동대문구 청량리동 40-9",
        "road_address": "서울 동대문구 왕산로 259",
        "phone": "02-966-1616",
        "category": "의료,건강 > 병원 > 응급실",
        "distance": "476"
      },
      {
        "name": "서울성심병원 주차장",
        "latitude": 37.58409403594883,
        "longitude": 127.04971685311294,
        "address": "서울 동대문구 청량리동 40-13",
        "road_address": "서울 동대문구 왕산로 259",
        "phone": "",
        "category": "교통,수송 > 교통시설 > 주차장",
        "distance": "481"
      },
      {
        "name": "하나로내과의원",
        "latitude": 37.5838824020314,
        "longitude": 127.049480090134,
        "address": "서울 동대문구 청량리동 50-2",
        "road_address": "서울 동대문구 왕산로 253-1",
        "phone": "02-969-7350",
        "category": "의료,건강 > 병원 > 내과",
        "distance": "499"
      },
      {
        "name": "성요한의원",
        "latitude": 37.58810629883476,
        "longitude": 127.05546557759854,
        "address": "서울 동대문구 휘경동 312-35",
        "road_address": "서울 동대문구 망우로 19",
        "phone": "02-928-6660",
        "category": "의료,건강 > 병원 > 일반의원",
        "distance": "514"
      },
      {
        "name": "현대치과의원",
        "latitude": 37.5835077440231,
        "longitude": 127.049108494295,
        "address": "서울 동대문구 청량리동 50-17",
        "road_address": "서울 동대문구 왕산로 249",
        "phone": "02-968-0159",
        "category": "의료,건강 > 병원 > 치과",
        "distance": "530"
      },
      {
        "name": "연세다정한치과교정과치과의원",
        "latitude": 37.58319621174687,
        "longitude": 127.04859768846455,
        "address": "서울 동대문구 청량리동 235-6",
        "road_address": "서울 동대문구 왕산로 239",
        "phone": "02-968-2804",
        "category": "의료,건강 > 병원 > 치과",
        "distance": "576"
      },
      {
        "name": "창우 한의원",
        "latitude": 37.5824592259152,
        "longitude": 127.048532677289,
        "address": "서울 동대문구 전농동 597-25",
        "road_address": "서울 동대문구 왕산로 238",
        "phone": "02-969-9611",
        "category": "의료,건강 > 병원 > 한의원",
        "distance": "592"
      },
      {
        "name": "경남한의원",
        "latitude": 37.58885175134132,
        "longitude": 127.05475508464667,
        "address": "서울 동대문구 휘경동 336-4",
        "road_address": "서울 동대문구 이문로 12",
        "phone": "02-967-4815",
        "category": "의료,건강 > 병원 > 한의원",
        "distance": "597"
      },
      {
        "name": "다산한의원",
        "latitude": 37.57820473214254,
        "longitude": 127.05273671694353,
        "address": "서울 동대문구 전농동 221-6",
        "road_address": "서울 동대문구 전농로23길 76",
        "phone": "02-2215-7575",
        "category": "의료,건강 > 병원 > 한의원",
        "distance": "621"
      },
      {
        "name": "위성호내과의원",
        "latitude": 37.5782168486551,
        "longitude": 127.057654472277,
        "address": "서울 동대문구 전농동 295-102",
        "road_address": "서울 동대문구 전농로 148",
        "phone": "02-2215-8463",
        "category": "의료,건강 > 병원 > 내과",
        "distance": "625"
      }
    ]
  }
}