{
  "key": "4ac80351611836d845395800e39bfeedc53e5fe9ce312846c5614420bd91e452",
  "tool": "PlaceSearch_kakao",
  "created_at": "2025-10-27T03:23:04.206883",
  "input_params": {
    "keyword": "애플",
    "page": 1,
    "size": 10,
    "sort": "accuracy",
    "x": 127.0759,
    "y": 37.5259
  },
  "raw_args": {
    "keyword": "애플",
    "x": 127.0759,
    "y": 37.5259,
    "page": 1,
    "size": 10
  },
  "data": {
    "keyword": "애플",
    "total_count": 2670,
    "places": [
      {
        "name": "애플공인서비스센터 유베이스 코엑스센터",
        "latitude": 37.51217452148478,
        "longitude": 127.05946086642447,
        "address": "서울 강남구 삼성동 159",
        "road_address": "서울 강남구 영동대로 513",
        "phone": "1566-8514",
        "category": "가정,생활 > 전자제품 > 전자제품서비스센터 > 통신기기수리 > Apple 공인서비스센터",
        "distance": "2105"
      },
      {
        "name": "Apple 잠실",
        "latitude": 37.5139978977813,
        "longitude": 127.10408109426407,
        "address": "서울 송파구 신천동 29",
        "road_address": "서울 송파구 올림픽로 300",
        "phone": "080-500-0098",
        "category": "가정,생활 > 전자제품 > 전자제품서비스센터 > 통신기기수리 > Apple 공인서비스센터",
        "distance": "2819"
      },
      {
        "name": "Apple 가로수길",
        "latitude": 37.520819816124934,
        "longitude": 127.02272940977892,
        "address": "서울 강남구 신사동 534-19",
        "road_address": "서울 강남구 가로수길 43",
        "phone": "080-500-0029",
        "category": "가정,생활 > 전자제품 > 전자제품서비스센터 > 통신기기수리 > Apple 공인서비스센터",
        "distance": "4734"
      },
      {
        "name": "a#shop 현대백화점무역센터점",
        "latitude": 37.50840101038459,
        "longitude": 127.05966824338046,
        "address": "서울 강남구 삼성동 159-7",
        "road_address": "서울 강남구 테헤란로 517",
        "phone": "02-3467-8373",
        "category": "가정,생활 > 전자제품 > 전자제품판매 > a#shop",
        "distance": "2414"
      },
      {
        "name": "Apple 강남",
        "latitude": 37.5036902997713,
        "longitude": 127.025310702725,
        "address": "서울 강남구 역삼동 809",
        "road_address": "서울 강남구 강남대로 464",
        "phone": "080-500-0456",
        "category": "가정,생활 > 전자제품 > 전자제품서비스센터 > 통신기기수리 > Apple 공인서비스센터",
        "distance": "5106"
      },
      {
        "name": "a#shop 현대백화점압구정점",
        "latitude": 37.52733395706555,
        "longitude": 127.02747043826793,
        "address": "서울 강남구 압구정동 429",
        "road_address": "서울 강남구 압구정로 165",
        "phone": "02-3449-5474",
        "category": "가정,생활 > 전자제품 > 전자제품판매 > a#shop",
        "distance": "4283"
      },
      {
        "name": "애플공인서비스센터 투바 왕십리",
        "latitude": 37.56128777712581,
        "longitude": 127.03838008079089,
        "address": "서울 성동구 행당동 168-151",
        "road_address": "서울 성동구 왕십리광장로 17",
        "phone": "1522-6222",
        "category": "가정,생활 > 전자제품 > 전자제품서비스센터 > 통신기기수리 > Apple 공인서비스센터",
        "distance": "5139"
      },
      {
        "name": "애플",
        "latitude": 37.5012982208869,
        "longitude": 127.041029624075,
        "address": "서울 강남구 역삼동 719-18",
        "road_address": "서울 강남구 언주로87길 24",
        "phone": "010-3144-1175",
        "category": "가정,생활 > 유흥시설 > 유흥주점",
        "distance": "4118"
      },
      {
        "name": "a#shop 현대백화점천호점",
        "latitude": 37.53920650319215,
        "longitude": 127.12419550070103,
        "address": "서울 강동구 천호동 572",
        "road_address": "서울 강동구 천호대로 1005",
        "phone": "02-2225-8920",
        "category": "가정,생활 > 전자제품 > 전자제품판매 > a#shop",
        "distance": "4516"
      },
      {
        "name": "애플",
        "latitude": 37.5573091974082,
        "longitude": 127.076735704042,
        "address": "서울 광진구 군자동 471-1",
        "road_address": "서울 광진구 능동로35길 41",
        "phone": "",
        "category": "여행 > 숙박",
        "distance": "3486"
      }
    ]
  }
}