{
  "key": "d9423f86e2193128e276efb392a8d0ebb29b1ddffd9d47821378635bc68caece",
  "tool": "PlaceSearch_kakao",
  "created_at": "2025-10-21T05:36:38.183983",
  "input_params": {
    "keyword": "판교 주차장",
    "size": 10,
    "sort": "accuracy"
  },
  "raw_args": {
    "keyword": "판교 주차장",
    "size": 10
  },
  "data": {
    "keyword": "판교 주차장",
    "total_count": 165,
    "places": [
      {
        "name": "판교역 환승 공영주차장",
        "latitude": 37.39473508906209,
        "longitude": 127.11129375840602,
        "address": "경기 성남시 분당구 백현동 532-1",
        "road_address": "경기 성남시 분당구 분당내곡로 121",
        "phone": "031-701-5182",
        "category": "교통,수송 > 교통시설 > 주차장 > 공영주차장",
        "distance": ""
      },
      {
        "name": "판교공영주차장",
        "latitude": 37.39335344505844,
        "longitude": 127.11073610423651,
        "address": "경기 성남시 분당구 백현동 539",
        "road_address": "",
        "phone": "031-8017-2600",
        "category": "교통,수송 > 교통시설 > 주차장 > 공영주차장",
        "distance": ""
      },
      {
        "name": "백현동카페거리 공영주차장",
        "latitude": 37.385448501406614,
        "longitude": 127.1119823765547,
        "address": "경기 성남시 분당구 백현동 563",
        "road_address": "경기 성남시 분당구 판교역로2번길 23",
        "phone": "031-724-0166",
        "category": "교통,수송 > 교통시설 > 주차장 > 공영주차장",
        "distance": ""
      },
      {
        "name": "운중동공영주차장",
        "latitude": 37.390887382066225,
        "longitude": 127.0779389210082,
        "address": "경기 성남시 분당구 운중동 934",
        "road_address": "경기 성남시 분당구 운중로138번길 6",
        "phone": "031-8016-9432",
        "category": "교통,수송 > 교통시설 > 주차장 > 공영주차장",
        "distance": ""
      },
      {
        "name": "만도중앙연구소 사옥 주차장",
        "latitude": 37.4043385587833,
        "longitude": 127.100816440328,
        "address": "경기 성남시 분당구 삼평동 619",
        "road_address": "경기 성남시 분당구 판교로255번길 21",
        "phone": "",
        "category": "교통,수송 > 교통시설 > 주차장",
        "distance": ""
      },
      {
        "name": "판교 제2공영주차장",
        "latitude": 37.39038547791005,
        "longitude": 127.09851554386213,
        "address": "경기 성남시 분당구 판교동 574",
        "road_address": "",
        "phone": "031-8016-8427",
        "category": "교통,수송 > 교통시설 > 주차장 > 공영주차장",
        "distance": ""
      },
      {
        "name": "현대백화점 판교점 주차장",
        "latitude": 37.39276023187682,
        "longitude": 127.11205423369015,
        "address": "경기 성남시 분당구 백현동 541",
        "road_address": "경기 성남시 분당구 판교역로146번길 20",
        "phone": "",
        "category": "교통,수송 > 교통시설 > 주차장",
        "distance": ""
      },
      {
        "name": "힐스테이트판교역오피스텔 주차장",
        "latitude": 37.39306452678537,
        "longitude": 127.11040479807903,
        "address": "경기 성남시 분당구 백현동 539-1",
        "road_address": "경기 성남시 분당구 판교역로 138",
        "phone": "",
        "category": "교통,수송 > 교통시설 > 주차장",
        "distance": ""
      },
      {
        "name": "판교7벤처밸리1단지 주차장",
        "latitude": 37.401980658592635,
        "longitude": 127.10178571289906,
        "address": "경기 성남시 분당구 삼평동 625",
        "road_address": "경기 성남시 분당구 판교로228번길 15",
        "phone": "",
        "category": "교통,수송 > 교통시설 > 주차장",
        "distance": ""
      },
      {
        "name": "유스페이스2 주차장",
        "latitude": 37.40202369527129,
        "longitude": 127.10712567680429,
        "address": "경기 성남시 분당구 삼평동 682",
        "road_address": "경기 성남시 분당구 대왕판교로 670",
        "phone": "",
        "category": "교통,수송 > 교통시설 > 주차장",
        "distance": ""
      }
    ]
  }
}