{
  "key": "d9c151de28c2ad36ed35cb95b0abcd313a0b2b05e3a91d0ebb30ae512174362d",
  "tool": "PlaceSearch_kakao",
  "created_at": "2025-12-14T14:46:39.302249",
  "input_params": {
    "keyword": "카페",
    "page": 1,
    "radius": 1000,
    "size": 15,
    "sort": "distance",
    "x": 127.027583,
    "y": 37.498095
  },
  "raw_args": {
    "keyword": "카페",
    "x": 127.027583,
    "y": 37.498095,
    "page": 1,
    "size": 15,
    "radius": 1000,
    "sort": "distance"
  },
  "data": {
    "keyword": "카페",
    "total_count": 623,
    "places": [
      {
        "name": "공차 강남역점",
        "latitude": 37.49798908894673,
        "longitude": 127.0277424016828,
        "address": "서울 강남구 역삼동 858",
        "road_address": "서울 강남구 강남대로 지하 396",
        "phone": "02-569-7344",
        "category": "음식점 > 카페 > 공차",
        "distance": "18"
      },
      {
        "name": "빽다방 강남역지하도점",
        "latitude": 37.49802059995652,
        "longitude": 127.0278453221759,
        "address": "서울 강남구 역삼동 858",
        "road_address": "서울 강남구 강남대로 지하 396",
        "phone": "02-3452-3989",
        "category": "음식점 > 카페 > 커피전문점 > 빽다방",
        "distance": "24"
      },
      {
        "name": "앤디캔디솜사탕",
        "latitude": 37.4982658880851,
        "longitude": 127.026920361572,
        "address": "서울 서초구 서초동 1318-8",
        "road_address": "서울 서초구 강남대로 399",
        "phone": "02-765-3837",
        "category": "음식점 > 카페 > 테마카페 > 디저트카페",
        "distance": "61"
      },
      {
        "name": "메가MGC커피 강남역신분당선점",
        "latitude": 37.4981574435241,
        "longitude": 127.028305636423,
        "address": "서울 강남구 역삼동 858",
        "road_address": "서울 강남구 강남대로 지하 396",
        "phone": "02-6952-4888",
        "category": "음식점 > 카페 > 커피전문점 > 메가MGC커피",
        "distance": "64"
      },
      {
        "name": "프린트카페 강남역지하상가점",
        "latitude": 37.49816465103256,
        "longitude": 127.02830790088052,
        "address": "서울 강남구 역삼동 858",
        "road_address": "서울 강남구 강남대로 지하 396",
        "phone": "0502-5551-0376",
        "category": "서비스,산업 > 인쇄,복사",
        "distance": "64"
      },
      {
        "name": "하마커피",
        "latitude": 37.4981646510326,
        "longitude": 127.028307900881,
        "address": "서울 강남구 역삼동 858",
        "road_address": "서울 강남구 강남대로 지하 396",
        "phone": "010-6447-1351",
        "category": "음식점 > 카페",
        "distance": "64"
      },
      {
        "name": "바닐라스카이 본점",
        "latitude": 37.4981646510397,
        "longitude": 127.028307900881,
        "address": "서울 강남구 역삼동 858",
        "road_address": "서울 강남구 강남대로 지하 396",
        "phone": "02-552-7266",
        "category": "음식점 > 카페",
        "distance": "64"
      },
      {
        "name": "강다짐 원유로스페셜티 강남역지하상가점",
        "latitude": 37.4981646510397,
        "longitude": 127.028307900881,
        "address": "서울 강남구 역삼동 858",
        "road_address": "서울 강남구 강남대로 지하 396",
        "phone": "",
        "category": "음식점 > 카페 > 커피전문점 > 원유로스페셜티",
        "distance": "64"
      },
      {
        "name": "스타벅스 몬테소리점",
        "latitude": 37.4983415831768,
        "longitude": 127.026874023027,
        "address": "서울 서초구 서초동 1318-8",
        "road_address": "서울 서초구 강남대로 399",
        "phone": "1522-3232",
        "category": "음식점 > 카페 > 커피전문점 > 스타벅스",
        "distance": "68"
      },
      {
        "name": "할리스 강남역점",
        "latitude": 37.49871619356776,
        "longitude": 127.02777433522404,
        "address": "서울 강남구 역삼동 820-11",
        "road_address": "서울 강남구 강남대로 402",
        "phone": "02-555-0890",
        "category": "음식점 > 카페 > 커피전문점 > 할리스",
        "distance": "70"
      },
      {
        "name": "에그몬 강남역점",
        "latitude": 37.4986224205011,
        "longitude": 127.028063804596,
        "address": "서울 강남구 역삼동 821",
        "road_address": "서울 강남구 테헤란로 101",
        "phone": "",
        "category": "음식점 > 카페 > 커피전문점",
        "distance": "72"
      },
      {
        "name": "컴포즈커피 강남역사점",
        "latitude": 37.498619715601635,
        "longitude": 127.02807171971142,
        "address": "서울 강남구 역삼동 821",
        "road_address": "서울 강남구 테헤란로 101",
        "phone": "",
        "category": "음식점 > 카페 > 커피전문점 > 컴포즈커피",
        "distance": "72"
      },
      {
        "name": "메가MGC커피 강남역점",
        "latitude": 37.49862332096291,
        "longitude": 127.0280660666838,
        "address": "서울 강남구 역삼동 821",
        "road_address": "서울 강남구 테헤란로 101",
        "phone": "02-567-5424",
        "category": "음식점 > 카페 > 커피전문점 > 메가MGC커피",
        "distance": "72"
      },
      {
        "name": "테이블비 강남역점",
        "latitude": 37.4986233209629,
        "longitude": 127.028066066684,
        "address": "서울 강남구 역삼동 821",
        "road_address": "서울 강남구 테헤란로 101",
        "phone": "",
        "category": "음식점 > 카페",
        "distance": "72"
      },
      {
        "name": "돌핀",
        "latitude": 37.49862332097,
        "longitude": 127.028066066684,
        "address": "서울 강남구 역삼동 821",
        "road_address": "서울 강남구 테헤란로 101",
        "phone": "",
        "category": "음식점 > 카페",
        "distance": "72"
      }
    ]
  }
}