{
  "key": "03c3f6287d46570eb40695c8e503686d957f41b63e4a807a404389668f2b37bc",
  "tool": "PlaceSearch_kakao",
  "created_at": "2025-10-15T13:23:29.626335",
  "input_params": {
    "keyword": "강남역 파스타",
    "sort": "accuracy"
  },
  "raw_args": {
    "keyword": "강남역 파스타"
  },
  "data": {
    "keyword": "강남역 파스타",
    "total_count": 865,
    "places": [
      {
        "name": "마노디셰프 강남점",
        "latitude": 37.4998701131357,
        "longitude": 127.03237184760155,
        "address": "서울 강남구 역삼동 648-9",
        "road_address": "서울 강남구 테헤란로 129",
        "phone": "02-553-5311",
        "category": "음식점 > 양식 > 이탈리안",
        "distance": ""
      },
      {
        "name": "닥터로빈시그니처 서초점",
        "latitude": 37.4966332657545,
        "longitude": 127.026914121286,
        "address": "서울 서초구 서초동 1320-10",
        "road_address": "서울 서초구 서초대로74길 11",
        "phone": "02-522-3101",
        "category": "음식점 > 양식 > 이탈리안",
        "distance": ""
      },
      {
        "name": "라그릴리아 SPC스퀘어점",
        "latitude": 37.49437283454316,
        "longitude": 127.02985341955451,
        "address": "서울 강남구 역삼동 831-23",
        "road_address": "서울 강남구 강남대로 352",
        "phone": "02-567-9192",
        "category": "음식점 > 양식 > 이탈리안 > 라그릴리아",
        "distance": ""
      },
      {
        "name": "노리타",
        "latitude": 37.5008247672713,
        "longitude": 127.02682515299,
        "address": "서울 강남구 역삼동 815-4",
        "road_address": "서울 강남구 강남대로 428",
        "phone": "02-566-7776",
        "category": "음식점 > 양식 > 이탈리안",
        "distance": ""
      },
      {
        "name": "마초쉐프 강남본점",
        "latitude": 37.5034987166465,
        "longitude": 127.027843963703,
        "address": "서울 강남구 역삼동 616-14",
        "road_address": "서울 강남구 강남대로106길 29",
        "phone": "02-566-8886",
        "category": "음식점 > 양식 > 이탈리안",
        "distance": ""
      },
      {
        "name": "킴브로스피자&파스타 강남직영점",
        "latitude": 37.499850311124106,
        "longitude": 127.03229833094886,
        "address": "서울 강남구 역삼동 648-9",
        "road_address": "서울 강남구 테헤란로 129",
        "phone": "",
        "category": "음식점 > 양식 > 이탈리안",
        "distance": ""
      },
      {
        "name": "이름없는 파스타 강남역점",
        "latitude": 37.5025509256314,
        "longitude": 127.027558616199,
        "address": "서울 강남구 역삼동 619",
        "road_address": "서울 강남구 봉은사로6길 38",
        "phone": "02-6326-8987",
        "category": "음식점 > 양식 > 이탈리안 > 이름없는 파스타",
        "distance": ""
      },
      {
        "name": "스파게티스토리 역삼역점",
        "latitude": 37.5020213917172,
        "longitude": 127.033531976183,
        "address": "서울 강남구 역삼동 638-17",
        "road_address": "서울 강남구 논현로95길 30",
        "phone": "02-555-2727",
        "category": "음식점 > 양식 > 이탈리안",
        "distance": ""
      },
      {
        "name": "로리스더프라임립",
        "latitude": 37.49808140984054,
        "longitude": 127.02590025308936,
        "address": "서울 서초구 서초동 1317-23",
        "road_address": "서울 서초구 서초대로 411",
        "phone": "02-590-2800",
        "category": "음식점 > 양식 > 스테이크,립",
        "distance": ""
      },
      {
        "name": "왕스펍",
        "latitude": 37.5008246112399,
        "longitude": 127.02750369810458,
        "address": "서울 강남구 역삼동 619-28",
        "road_address": "서울 강남구 강남대로98길 11",
        "phone": "",
        "category": "음식점 > 술집 > 호프,요리주점",
        "distance": ""
      },
      {
        "name": "스페보",
        "latitude": 37.4978514483675,
        "longitude": 127.036849196665,
        "address": "서울 강남구 역삼동 738-43",
        "road_address": "서울 강남구 논현로81길 13",
        "phone": "010-5196-5866",
        "category": "음식점 > 양식 > 이탈리안",
        "distance": ""
      },
      {
        "name": "지아니스나폴리 역삼점",
        "latitude": 37.5026707070231,
        "longitude": 127.037556138412,
        "address": "서울 강남구 역삼동 669-18",
        "road_address": "서울 강남구 논현로94길 15",
        "phone": "02-566-0501",
        "category": "음식점 > 양식 > 이탈리안",
        "distance": ""
      },
      {
        "name": "더플라잉팬 레드",
        "latitude": 37.4980931286224,
        "longitude": 127.025874247186,
        "address": "서울 서초구 서초동 1317-27",
        "road_address": "서울 서초구 서초대로 411",
        "phone": "02-590-2488",
        "category": "음식점 > 양식",
        "distance": ""
      },
      {
        "name": "도치피자 강남",
        "latitude": 37.5009936710604,
        "longitude": 127.028883471736,
        "address": "서울 강남구 역삼동 620-17",
        "road_address": "서울 강남구 강남대로98길 27",
        "phone": "02-556-8001",
        "category": "음식점 > 양식 > 피자",
        "distance": ""
      },
      {
        "name": "다락마을 강남킵유어포크점",
        "latitude": 37.4969893784424,
        "longitude": 127.029773039852,
        "address": "서울 강남구 역삼동 825-24",
        "road_address": "서울 강남구 강남대로84길 15",
        "phone": "",
        "category": "음식점 > 양식 > 이탈리안",
        "distance": ""
      }
    ]
  }
}