{
  "key": "f76b5fcd9737029a1ea26dfdd38c92c2cf57787a208affc340aa080c5e8ef76e",
  "tool": "PlaceSearch_kakao",
  "created_at": "2025-10-27T09:52:13.453823",
  "input_params": {
    "keyword": "시흥시청 맛집",
    "page": 1,
    "size": 10,
    "sort": "accuracy",
    "x": 126.905446,
    "y": 37.593241
  },
  "raw_args": {
    "keyword": "시흥시청 맛집",
    "x": 126.905446,
    "y": 37.593241,
    "page": 1,
    "size": 10
  },
  "data": {
    "keyword": "시흥시청 맛집",
    "total_count": 819,
    "places": [
      {
        "name": "김가네낙지",
        "latitude": 37.3808977443241,
        "longitude": 126.80117369971,
        "address": "경기 시흥시 장현동 544-5",
        "road_address": "경기 시흥시 새재로7번길 6-1",
        "phone": "031-317-0688",
        "category": "음식점 > 한식 > 해물,생선",
        "distance": "25307"
      },
      {
        "name": "오 왕서방짬뽕",
        "latitude": 37.3811410423075,
        "longitude": 126.802261516649,
        "address": "경기 시흥시 장현동 547-5",
        "road_address": "경기 시흥시 새재로 19",
        "phone": "031-404-3700",
        "category": "음식점 > 중식 > 중국요리",
        "distance": "25247"
      },
      {
        "name": "카페 리트",
        "latitude": 37.3772126740471,
        "longitude": 126.802316992173,
        "address": "경기 시흥시 장현동 681-4",
        "road_address": "경기 시흥시 시청전원마을길 53",
        "phone": "",
        "category": "음식점 > 카페",
        "distance": "25652"
      },
      {
        "name": "선도아구찜탕",
        "latitude": 37.3817464892232,
        "longitude": 126.802237344597,
        "address": "경기 시흥시 장현동 546-1",
        "road_address": "경기 시흥시 시청로68번길 26",
        "phone": "",
        "category": "음식점 > 한식 > 해물,생선 > 아구",
        "distance": "25185"
      },
      {
        "name": "이루다제면소 시흥시청직영점",
        "latitude": 37.3785597641041,
        "longitude": 126.802352973934,
        "address": "경기 시흥시 장현동 673-2",
        "road_address": "경기 시흥시 시청전원마을길 3-1",
        "phone": "",
        "category": "음식점 > 일식 > 돈까스,우동",
        "distance": "25511"
      },
      {
        "name": "시흥감자탕 시흥장현점",
        "latitude": 37.3808400259597,
        "longitude": 126.801142237219,
        "address": "경기 시흥시 장현동 544-5",
        "road_address": "경기 시흥시 새재로7번길 6-1",
        "phone": "031-318-5237",
        "category": "음식점 > 한식 > 감자탕",
        "distance": "25314"
      },
      {
        "name": "마주생태탕",
        "latitude": 37.3820033134277,
        "longitude": 126.800646869127,
        "address": "경기 시흥시 장현동 533-2",
        "road_address": "경기 시흥시 새재로17번길 19",
        "phone": "031-317-1500",
        "category": "음식점 > 한식 > 해물,생선 > 매운탕,해물탕",
        "distance": "25210"
      },
      {
        "name": "파네보꾸덮밥 철판요리",
        "latitude": 37.3819161657596,
        "longitude": 126.800796143496,
        "address": "경기 시흥시 장현동 533-3",
        "road_address": "경기 시흥시 새재로17번길 17",
        "phone": "",
        "category": "음식점 > 철판요리",
        "distance": "25214"
      },
      {
        "name": "일리카페 시흥시청점",
        "latitude": 37.3780408354557,
        "longitude": 126.802389336574,
        "address": "경기 시흥시 장현동 677",
        "road_address": "경기 시흥시 시청전원마을길 21",
        "phone": "0503-7150-4570",
        "category": "음식점 > 카페 > 커피전문점 > 일리카페",
        "distance": "25564"
      },
      {
        "name": "삼형제시골순대",
        "latitude": 37.3814206995292,
        "longitude": 126.801389108415,
        "address": "경기 시흥시 장현동 545-1",
        "road_address": "경기 시흥시 새재로17번길 9",
        "phone": "031-317-1542",
        "category": "음식점 > 한식 > 순대",
        "distance": "25246"
      }
    ]
  }
}