{
  "key": "7b476fa42d3cfede36fbca9cfa6b9a31508fb396e1c64dd53ea17cbbf5ca24f6",
  "tool": "CategorySearch_kakao",
  "created_at": "2025-10-27T15:50:37.330712",
  "input_params": {
    "category": "CS2",
    "radius": 800,
    "size": 10,
    "x": 129.16359609,
    "y": 35.1630666685464
  },
  "raw_args": {
    "x": 129.16359609,
    "y": 35.1630666685464,
    "category": "CS2",
    "radius": 800,
    "size": 10
  },
  "data": {
    "category": "CS2",
    "total_count": 66,
    "places": [
      {
        "name": "GS25 해운후레쉬점",
        "latitude": 35.1618944853227,
        "longitude": 129.160000889552,
        "address": "부산 해운대구 우동 542-5",
        "phone": "",
        "distance": "352"
      },
      {
        "name": "GS25 해운우동점",
        "latitude": 35.1637006298392,
        "longitude": 129.161602522509,
        "address": "부산 해운대구 우동 598-9",
        "phone": "051-746-9457",
        "distance": "194"
      },
      {
        "name": "GS25 파라다이스점",
        "latitude": 35.16093124810991,
        "longitude": 129.16468949994518,
        "address": "부산 해운대구 중동 1404-39",
        "phone": "051-747-9735",
        "distance": "257"
      },
      {
        "name": "CU 해운대비치점",
        "latitude": 35.1617881738564,
        "longitude": 129.158685668102,
        "address": "부산 해운대구 우동 541-5",
        "phone": "",
        "distance": "469"
      },
      {
        "name": "GS25 씨클라우드점",
        "latitude": 35.1605137391956,
        "longitude": 129.16243552318,
        "address": "부산 해운대구 중동 1392-100",
        "phone": "",
        "distance": "302"
      },
      {
        "name": "GS25 W타워점",
        "latitude": 35.1600359687021,
        "longitude": 129.161536247771,
        "address": "부산 해운대구 중동 1391-66",
        "phone": "",
        "distance": "385"
      },
      {
        "name": "세븐일레븐 부산우동푸르지오점",
        "latitude": 35.164014174477714,
        "longitude": 129.16094911327278,
        "address": "부산 해운대구 우동 1562",
        "phone": "1577-0711",
        "distance": "263"
      },
      {
        "name": "GS25 해운중동역점",
        "latitude": 35.1669419108617,
        "longitude": 129.167356403613,
        "address": "부산 해운대구 중동 1754-3",
        "phone": "",
        "distance": "550"
      },
      {
        "name": "CU 해운대구남로점",
        "latitude": 35.1613824195383,
        "longitude": 129.161023222017,
        "address": "부산 해운대구 중동 1393-31",
        "phone": "",
        "distance": "299"
      },
      {
        "name": "GS25 해운온천점",
        "latitude": 35.1632172677806,
        "longitude": 129.164447228737,
        "address": "부산 해운대구 중동 1378-113",
        "phone": "",
        "distance": "79"
      }
    ]
  }
}