{
  "key": "fdefd57417bf5b0d426fec1bf6edd638f732d5a638831ea1aadee867a8a24c8b",
  "tool": "PlaceSearch_kakao",
  "created_at": "2025-10-27T15:48:54.655915",
  "input_params": {
    "keyword": "애플 매장",
    "sort": "distance",
    "x": 127.051732,
    "y": 37.520332
  },
  "raw_args": {
    "keyword": "애플 매장",
    "x": 127.051732,
    "y": 37.520332,
    "sort": "distance"
  },
  "data": {
    "keyword": "애플 매장",
    "total_count": 2671,
    "places": [
      {
        "name": "애플컴퓨터맥북에어수리 청담점",
        "latitude": 37.5224450698453,
        "longitude": 127.057620578637,
        "address": "서울 강남구 청담동 134-20",
        "road_address": "서울 강남구 학동로101길 26",
        "phone": "1661-9854",
        "category": "가정,생활 > 전자제품 > 전자제품서비스센터 > 컴퓨터수리",
        "distance": "570"
      },
      {
        "name": "스튜디오애플",
        "latitude": 37.5150859328213,
        "longitude": 127.049072674084,
        "address": "서울 강남구 삼성동 25-9",
        "road_address": "서울 강남구 봉은사로71길 44",
        "phone": "02-518-3388",
        "category": "문화,예술 > 사진 > 사진관,포토스튜디오",
        "distance": "627"
      },
      {
        "name": "디애플공인중개사사무소",
        "latitude": 37.51392735655982,
        "longitude": 127.04879592557238,
        "address": "서울 강남구 삼성동 47",
        "road_address": "서울 강남구 봉은사로69길 30",
        "phone": "02-556-3212",
        "category": "부동산 > 부동산서비스 > 부동산중개업소",
        "distance": "756"
      },
      {
        "name": "농업회사법인 에스티애플",
        "latitude": 37.5128019173051,
        "longitude": 127.055133816878,
        "address": "서울 강남구 삼성동 146-11",
        "road_address": "서울 강남구 봉은사로82길 9-3",
        "phone": "02-514-7630",
        "category": "서비스,산업 > 식품",
        "distance": "888"
      },
      {
        "name": "제이드애플스튜디오",
        "latitude": 37.51172930501782,
        "longitude": 127.04782177175497,
        "address": "서울 강남구 삼성동 44-12",
        "road_address": "서울 강남구 봉은사로 439",
        "phone": "02-525-4682",
        "category": "서비스,산업 > 전문대행",
        "distance": "1015"
      },
      {
        "name": "애플코리아 본사",
        "latitude": 37.5130879667989,
        "longitude": 127.059803181324,
        "address": "서울 강남구 삼성동 159",
        "road_address": "서울 강남구 영동대로 517",
        "phone": "02-6712-6700",
        "category": "서비스,산업 > 기업",
        "distance": "1074"
      },
      {
        "name": "오아시스",
        "latitude": 37.52477403856608,
        "longitude": 127.04057639403156,
        "address": "서울 강남구 청담동 88-5",
        "road_address": "서울 강남구 도산대로55길 20",
        "phone": "02-548-8859",
        "category": "음식점 > 양식",
        "distance": "1102"
      },
      {
        "name": "애플공인서비스센터 유베이스 코엑스센터",
        "latitude": 37.51217452148478,
        "longitude": 127.05946086642447,
        "address": "서울 강남구 삼성동 159",
        "road_address": "서울 강남구 영동대로 513",
        "phone": "1566-8514",
        "category": "가정,생활 > 전자제품 > 전자제품서비스센터 > 통신기기수리 > Apple 공인서비스센터",
        "distance": "1134"
      },
      {
        "name": "애플트리 커뮤니케이션",
        "latitude": 37.5160914367789,
        "longitude": 127.039503897359,
        "address": "서울 강남구 논현동 240-14",
        "road_address": "서울 강남구 선릉로129길 24",
        "phone": "",
        "category": "서비스,산업 > 전문대행 > 이벤트기획,대행",
        "distance": "1179"
      },
      {
        "name": "애플컴퓨터맥북에어수리 논현점",
        "latitude": 37.5184597604341,
        "longitude": 127.038021044661,
        "address": "서울 강남구 논현동 108",
        "road_address": "서울 강남구 학동로43길 38",
        "phone": "",
        "category": "가정,생활 > 전자제품 > 전자제품서비스센터 > 컴퓨터수리",
        "distance": "1229"
      },
      {
        "name": "애플컴퓨터코리아",
        "latitude": 37.5103771178345,
        "longitude": 127.061031603695,
        "address": "서울 강남구 삼성동 159-1",
        "road_address": "서울 강남구 영동대로 511",
        "phone": "1644-8871",
        "category": "가정,생활 > 전자제품 > 전자제품서비스센터 > 컴퓨터수리",
        "distance": "1377"
      },
      {
        "name": "아틀리에에플로어",
        "latitude": 37.5090482079511,
        "longitude": 127.060892535746,
        "address": "서울 강남구 삼성동 159-8",
        "road_address": "서울 강남구 테헤란로 521",
        "phone": "",
        "category": "가정,생활 > 꽃집,꽃배달",
        "distance": "1491"
      },
      {
        "name": "a#shop 현대백화점무역센터점",
        "latitude": 37.50840101038459,
        "longitude": 127.05966824338046,
        "address": "서울 강남구 삼성동 159-7",
        "road_address": "서울 강남구 테헤란로 517",
        "phone": "02-3467-8373",
        "category": "가정,생활 > 전자제품 > 전자제품판매 > a#shop",
        "distance": "1498"
      },
      {
        "name": "애플트리타워",
        "latitude": 37.5070100333146,
        "longitude": 127.055618149788,
        "address": "서울 강남구 삼성동 144-25",
        "road_address": "서울 강남구 테헤란로 443",
        "phone": "",
        "category": "부동산 > 빌딩",
        "distance": "1517"
      },
      {
        "name": "애플트리타워 주차장",
        "latitude": 37.506948775647814,
        "longitude": 127.05559548432326,
        "address": "서울 강남구 삼성동 144-25",
        "road_address": "서울 강남구 테헤란로 443",
        "phone": "",
        "category": "교통,수송 > 교통시설 > 주차장",
        "distance": "1524"
      }
    ]
  }
}