{
  "key": "a83c4fe35c32d2b45666a7d76efa18028a346bdeb58041aafcbfec671178cc29",
  "tool": "PlaceSearch_kakao",
  "created_at": "2025-10-27T02:11:29.012024",
  "input_params": {
    "keyword": "대학교",
    "page": 1,
    "size": 5,
    "sort": "accuracy",
    "x": 117.149,
    "y": 37.589
  },
  "raw_args": {
    "keyword": "대학교",
    "x": 117.149,
    "y": 37.589,
    "page": 1,
    "size": 5
  },
  "data": {
    "keyword": "대학교",
    "total_count": 26287,
    "places": [
      {
        "name": "서울대학교 관악캠퍼스",
        "latitude": 37.45978574975834,
        "longitude": 126.9511239870991,
        "address": "서울 관악구 신림동 산 56-1",
        "road_address": "서울 관악구 관악로 1",
        "phone": "02-880-5114",
        "category": "교육,학문 > 학교 > 대학교",
        "distance": "868907"
      },
      {
        "name": "홍익대학교 서울캠퍼스",
        "latitude": 37.550874837441,
        "longitude": 126.925554591431,
        "address": "서울 마포구 상수동 72-1",
        "road_address": "서울 마포구 와우산로 94",
        "phone": "02-320-1114",
        "category": "교육,학문 > 학교 > 대학교",
        "distance": "866014"
      },
      {
        "name": "연세대학교 신촌캠퍼스",
        "latitude": 37.56433710667622,
        "longitude": 126.93893572124549,
        "address": "서울 서대문구 신촌동 134",
        "road_address": "서울 서대문구 연세로 50",
        "phone": "1599-1885",
        "category": "교육,학문 > 학교 > 대학교",
        "distance": "867110"
      },
      {
        "name": "가천대학교 글로벌캠퍼스",
        "latitude": 37.450416956915774,
        "longitude": 127.12994454291355,
        "address": "경기 성남시 수정구 복정동 620-2",
        "road_address": "경기 성남시 수정구 성남대로 1342",
        "phone": "031-750-5114",
        "category": "교육,학문 > 학교 > 대학교",
        "distance": "884763"
      },
      {
        "name": "고려대학교 서울캠퍼스",
        "latitude": 37.589526761187834,
        "longitude": 127.03231892661324,
        "address": "서울 성북구 안암동5가 1-2",
        "road_address": "서울 성북구 안암로 145",
        "phone": "02-3290-1114",
        "category": "교육,학문 > 학교 > 대학교",
        "distance": "875196"
      }
    ]
  }
}