{
  "key": "a843ce8d09b4f02a467dbbd325c91767189bc013a025198231c3e681f7ffa977",
  "tool": "PlaceSearch_kakao",
  "created_at": "2025-10-26T10:36:11.637341",
  "input_params": {
    "keyword": "맛집",
    "radius": 1000,
    "sort": "accuracy",
    "x": 126.935,
    "y": 37.498
  },
  "raw_args": {
    "keyword": "맛집",
    "radius": 1000,
    "x": 126.935,
    "y": 37.498
  },
  "data": {
    "keyword": "맛집",
    "total_count": 710,
    "places": [
      {
        "name": "시래불고기 화풍정",
        "latitude": 37.49972687113233,
        "longitude": 126.93171673954177,
        "address": "서울 동작구 상도동 324-1",
        "road_address": "서울 동작구 상도로 102",
        "phone": "02-814-3392",
        "category": "음식점 > 한식 > 육류,고기 > 불고기,두루치기",
        "distance": "347"
      },
      {
        "name": "한솥쌈밥시골보리밥",
        "latitude": 37.4993655639831,
        "longitude": 126.93171028322803,
        "address": "서울 동작구 상도동 315-22",
        "road_address": "서울 동작구 성대로2길 7",
        "phone": "02-6081-5551",
        "category": "음식점 > 한식 > 쌈밥",
        "distance": "327"
      },
      {
        "name": "카츠 디나인 신대방삼거리 본점",
        "latitude": 37.4985135590908,
        "longitude": 126.929237838596,
        "address": "서울 동작구 상도동 323-27",
        "road_address": "서울 동작구 국사봉1길 12-5",
        "phone": "010-2163-4150",
        "category": "음식점 > 일식",
        "distance": "512"
      },
      {
        "name": "마포갈비",
        "latitude": 37.4992780750384,
        "longitude": 126.928509958051,
        "address": "서울 동작구 대방동 406-6",
        "road_address": "서울 동작구 보라매로 112",
        "phone": "02-821-3330",
        "category": "음식점 > 한식 > 육류,고기 > 갈비",
        "distance": "591"
      },
      {
        "name": "소림마라 동작점",
        "latitude": 37.49850171645452,
        "longitude": 126.93367313527294,
        "address": "서울 동작구 상도동 256-1",
        "road_address": "서울 동작구 성대로 52",
        "phone": "02-3280-3526",
        "category": "음식점 > 중식 > 중국요리 > 소림마라",
        "distance": "129"
      },
      {
        "name": "고가네숯불구이통닭",
        "latitude": 37.50214791143957,
        "longitude": 126.93497726326031,
        "address": "서울 동작구 상도동 190-3",
        "road_address": "서울 동작구 상도로 136",
        "phone": "02-825-0095",
        "category": "음식점 > 한식 > 육류,고기 > 닭요리",
        "distance": "460"
      },
      {
        "name": "동대문곱창볶음전문",
        "latitude": 37.499051141681605,
        "longitude": 126.93021780573328,
        "address": "서울 동작구 상도동 324-43",
        "road_address": "서울 동작구 국사봉1길 31",
        "phone": "02-825-0858",
        "category": "음식점 > 한식 > 육류,고기 > 곱창,막창",
        "distance": "438"
      },
      {
        "name": "인생곱창 본점",
        "latitude": 37.499226671091186,
        "longitude": 126.92993605219203,
        "address": "서울 동작구 상도동 324-26",
        "road_address": "서울 동작구 상도로12길 5-4",
        "phone": "0503-7153-1274",
        "category": "음식점 > 한식 > 육류,고기 > 곱창,막창",
        "distance": "468"
      },
      {
        "name": "기계우동",
        "latitude": 37.4989533612256,
        "longitude": 126.927931256954,
        "address": "서울 동작구 신대방동 347-31",
        "road_address": "서울 동작구 여의대방로24길 140",
        "phone": "02-821-9397",
        "category": "음식점 > 분식",
        "distance": "633"
      },
      {
        "name": "대패상회 상도동점",
        "latitude": 37.5002248255492,
        "longitude": 126.93276123714,
        "address": "서울 동작구 상도동 248-14",
        "road_address": "서울 동작구 성대로1길 4",
        "phone": "",
        "category": "음식점 > 한식 > 육류,고기 > 삼겹살",
        "distance": "316"
      },
      {
        "name": "품미",
        "latitude": 37.49857920836,
        "longitude": 126.929030826603,
        "address": "서울 동작구 상도동 323-25",
        "road_address": "서울 동작구 국사봉길 13",
        "phone": "02-822-5379",
        "category": "음식점 > 중식 > 중국요리",
        "distance": "531"
      },
      {
        "name": "면식주행",
        "latitude": 37.5009157786245,
        "longitude": 126.934150505735,
        "address": "서울 동작구 상도동 242-88",
        "road_address": "서울 동작구 성대로5길 44",
        "phone": "02-3280-2558",
        "category": "음식점 > 한식",
        "distance": "332"
      },
      {
        "name": "구름산추어탕 상도점",
        "latitude": 37.5013177899333,
        "longitude": 126.934443059907,
        "address": "서울 동작구 상도동 242-78",
        "road_address": "서울 동작구 성대로1길 22",
        "phone": "02-822-2719",
        "category": "음식점 > 한식 > 해물,생선 > 추어",
        "distance": "371"
      },
      {
        "name": "모리식탁",
        "latitude": 37.4991186990608,
        "longitude": 126.930187209033,
        "address": "서울 동작구 상도동 324-43",
        "road_address": "서울 동작구 국사봉1길 31",
        "phone": "070-4792-1174",
        "category": "음식점 > 술집",
        "distance": "443"
      },
      {
        "name": "돈까스짱 상도동점",
        "latitude": 37.4998831223934,
        "longitude": 126.93237251592,
        "address": "서울 동작구 상도동 316-2",
        "road_address": "서울 동작구 성대로 14",
        "phone": "02-813-8887",
        "category": "음식점 > 일식 > 돈까스,우동 > 돈까스짱",
        "distance": "312"
      }
    ]
  }
}