{
  "key": "3970aabb17f8d833572818bf3d515dc1570810b843f4cd6aafe9613d6d03504e",
  "tool": "PlaceSearch_kakao",
  "created_at": "2025-10-27T07:07:42.674988",
  "input_params": {
    "keyword": "맛집",
    "radius": 1000,
    "size": 10,
    "sort": "accuracy",
    "x": 127.216475764948,
    "y": 37.6360236390492
  },
  "raw_args": {
    "keyword": "맛집",
    "x": 127.216475764948,
    "y": 37.6360236390492,
    "radius": 1000,
    "size": 10,
    "sort": "accuracy"
  },
  "data": {
    "keyword": "맛집",
    "total_count": 114,
    "places": [
      {
        "name": "태능배갈비",
        "latitude": 37.6353160633072,
        "longitude": 127.215164031511,
        "address": "경기 남양주시 금곡동 185-18",
        "road_address": "경기 남양주시 경춘로 1023",
        "phone": "031-559-8588",
        "category": "음식점 > 한식 > 육류,고기 > 갈비",
        "distance": "139"
      },
      {
        "name": "어랑손만두국",
        "latitude": 37.63628665040511,
        "longitude": 127.22423501355276,
        "address": "경기 남양주시 금곡동 14",
        "road_address": "경기 남양주시 경춘로 1084-25",
        "phone": "031-592-2959",
        "category": "음식점 > 한식",
        "distance": "685"
      },
      {
        "name": "자매의정부부대찌개",
        "latitude": 37.63600420652304,
        "longitude": 127.21379174473508,
        "address": "경기 남양주시 금곡동 158-1",
        "road_address": "경기 남양주시 사릉로34번길 48",
        "phone": "031-593-1195",
        "category": "음식점 > 한식 > 찌개,전골",
        "distance": "236"
      },
      {
        "name": "목우촌생삼겹살",
        "latitude": 37.6353572418023,
        "longitude": 127.212327262392,
        "address": "경기 남양주시 금곡동 158-92",
        "road_address": "경기 남양주시 경춘로995번길 6-7",
        "phone": "031-595-8896",
        "category": "음식점 > 한식",
        "distance": "373"
      },
      {
        "name": "청담김밥 금곡본점",
        "latitude": 37.6349397415836,
        "longitude": 127.212017915786,
        "address": "경기 남양주시 금곡동 158-14",
        "road_address": "경기 남양주시 경춘로 997",
        "phone": "",
        "category": "음식점 > 분식",
        "distance": "411"
      },
      {
        "name": "오가네아구찜",
        "latitude": 37.6359886906951,
        "longitude": 127.213901596625,
        "address": "경기 남양주시 금곡동 158-1",
        "road_address": "경기 남양주시 사릉로34번길 48",
        "phone": "031-591-5501",
        "category": "음식점 > 한식 > 해물,생선 > 아구",
        "distance": "227"
      },
      {
        "name": "승희네집밥",
        "latitude": 37.6362547144146,
        "longitude": 127.21426943699,
        "address": "경기 남양주시 금곡동 166-1",
        "road_address": "경기 남양주시 경춘로1015번길 13",
        "phone": "",
        "category": "음식점 > 한식",
        "distance": "196"
      },
      {
        "name": "간단한끼",
        "latitude": 37.6356333550921,
        "longitude": 127.212098059902,
        "address": "경기 남양주시 금곡동 158-6",
        "road_address": "경기 남양주시 경춘로995번길 12",
        "phone": "",
        "category": "음식점 > 분식",
        "distance": "388"
      },
      {
        "name": "원조공릉동멸치국수 금곡점",
        "latitude": 37.6355299650025,
        "longitude": 127.214466754158,
        "address": "경기 남양주시 금곡동 185-69",
        "road_address": "경기 남양주시 경춘로1015번길 8",
        "phone": "031-594-2901",
        "category": "음식점 > 한식 > 국수",
        "distance": "185"
      },
      {
        "name": "청기와곱창",
        "latitude": 37.6353146141004,
        "longitude": 127.211982726783,
        "address": "경기 남양주시 금곡동 158-89",
        "road_address": "경기 남양주시 경춘로995번길 6-3",
        "phone": "031-591-4585",
        "category": "음식점 > 한식 > 육류,고기 > 곱창,막창",
        "distance": "404"
      }
    ]
  }
}