{
  "key": "96c616f5a0bc505ef4650d747a823036a2eaa0746d45df3ae090806e87a17dc5",
  "tool": "CategorySearch_kakao",
  "created_at": "2025-10-21T01:30:46.768139",
  "input_params": {
    "category": "FD6",
    "radius": 1000,
    "size": 15,
    "x": 126.9712,
    "y": 37.5665
  },
  "raw_args": {
    "category": "FD6",
    "x": 126.9712,
    "y": 37.5665,
    "radius": 1000,
    "size": 15
  },
  "data": {
    "category": "FD6",
    "total_count": 2185,
    "places": [
      {
        "name": "정원레스토랑 어반가든",
        "latitude": 37.5674329910375,
        "longitude": 126.969202859743,
        "address": "서울 중구 정동 28-2",
        "phone": "02-777-2254",
        "distance": "204"
      },
      {
        "name": "광화문국밥 본점",
        "latitude": 37.5689589279236,
        "longitude": 126.975391668232,
        "address": "서울 중구 정동 1-48",
        "phone": "02-738-5688",
        "distance": "460"
      },
      {
        "name": "진주회관",
        "latitude": 37.562478781861735,
        "longitude": 126.97453133779806,
        "address": "서울 중구 서소문동 120-35",
        "phone": "02-753-5388",
        "distance": "534"
      },
      {
        "name": "덕수정",
        "latitude": 37.565884101522,
        "longitude": 126.972540313337,
        "address": "서울 중구 정동 11-5",
        "phone": "02-755-0180",
        "distance": "136"
      },
      {
        "name": "농민백암순대 시청직영점",
        "latitude": 37.56259825108099,
        "longitude": 126.97715943361476,
        "address": "서울 중구 북창동 19-4",
        "phone": "02-755-5232",
        "distance": "681"
      },
      {
        "name": "무교동북어국집",
        "latitude": 37.56773441926809,
        "longitude": 126.9798518336699,
        "address": "서울 중구 다동 173",
        "phone": "02-777-3891",
        "distance": "776"
      },
      {
        "name": "화목순대국 광화문1호점",
        "latitude": 37.571193257636395,
        "longitude": 126.97473438948012,
        "address": "서울 종로구 당주동 40",
        "phone": "02-723-8313",
        "distance": "607"
      },
      {
        "name": "부민옥",
        "latitude": 37.5675038430283,
        "longitude": 126.98031824515,
        "address": "서울 중구 다동 177-2",
        "phone": "02-777-4323",
        "distance": "813"
      },
      {
        "name": "디라이프 스타일키친 광화문점",
        "latitude": 37.56842610180289,
        "longitude": 126.97826128583668,
        "address": "서울 중구 태평로1가 84",
        "phone": "02-6273-0100",
        "distance": "659"
      },
      {
        "name": "유림면",
        "latitude": 37.564237853813395,
        "longitude": 126.9760949785008,
        "address": "서울 중구 서소문동 16",
        "phone": "02-755-0659",
        "distance": "500"
      },
      {
        "name": "고려삼계탕 시청본점",
        "latitude": 37.5630118104688,
        "longitude": 126.972908086346,
        "address": "서울 중구 서소문동 55-3",
        "phone": "02-752-9376",
        "distance": "415"
      },
      {
        "name": "청진옥",
        "latitude": 37.571717650682224,
        "longitude": 126.97944890786793,
        "address": "서울 종로구 청진동 183-1",
        "phone": "02-735-1690",
        "distance": "930"
      },
      {
        "name": "광화문미진 본점",
        "latitude": 37.570844667978704,
        "longitude": 126.9799234417087,
        "address": "서울 종로구 종로1가 24",
        "phone": "02-732-1954",
        "distance": "909"
      },
      {
        "name": "한옥집김치찜 서대문본점",
        "latitude": 37.567248748966584,
        "longitude": 126.96443532198145,
        "address": "서울 서대문구 냉천동 20-1",
        "phone": "02-362-8653",
        "distance": "603"
      },
      {
        "name": "VIP참치 서소문점",
        "latitude": 37.5622587424476,
        "longitude": 126.9736372618,
        "address": "서울 중구 서소문동 120-14",
        "phone": "02-754-9900",
        "distance": "517"
      }
    ]
  }
}