{
  "key": "caff416ac15471b3bceb55de12549a4f8b5b7efd85d8c924741800e4e9ed08d6",
  "tool": "CategorySearch_tmap",
  "created_at": "2025-10-21T04:06:11.324486",
  "input_params": {
    "categories": "편의점",
    "centerLat": 37.4979,
    "centerLon": 127.0276,
    "count": 50,
    "radius": 1
  },
  "raw_args": {
    "categories": "편의점",
    "centerLon": 127.0276,
    "centerLat": 37.4979,
    "radius": 1,
    "count": 50
  },
  "data": {
    "totalCount": 171,
    "count": 50,
    "page": 1,
    "pois": [
      {
        "name": "이마트24 강남역점",
        "telNo": "0269161500",
        "latitude": "37.49790749",
        "longitude": "127.02760182",
        "address": "서울 강남구 역삼동",
        "roadName": "테헤란로",
        "buildingNo": "-",
        "radius_km": "0.001",
        "dataKind": "",
        "stId": "",
        "parkFlag": "0",
        "merchantFlag": ""
      },
      {
        "name": "GS25 S강남역1호점",
        "telNo": "025586042",
        "latitude": "37.49818525",
        "longitude": "127.02846285",
        "address": "서울 강남구 역삼동",
        "roadName": "강남대로",
        "buildingNo": "-",
        "radius_km": "0.082",
        "dataKind": "",
        "stId": "",
        "parkFlag": "0",
        "merchantFlag": ""
      },
      {
        "name": "GS25 강남메트로점 지하주차장",
        "telNo": "0234533207",
        "latitude": "37.49871296",
        "longitude": "127.02804621",
        "address": "서울 강남구 역삼동",
        "roadName": "테헤란로",
        "buildingNo": "-",
        "radius_km": "0.085",
        "dataKind": "",
        "stId": "",
        "parkFlag": "0",
        "merchantFlag": ""
      },
      {
        "name": "GS25 강남메트로점",
        "telNo": "0234533207",
        "latitude": "37.49860186",
        "longitude": "127.02801843",
        "address": "서울 강남구 역삼동",
        "roadName": "테헤란로",
        "buildingNo": "-",
        "radius_km": "0.085",
        "dataKind": "",
        "stId": "",
        "parkFlag": "1",
        "merchantFlag": ""
      },
      {
        "name": "GS25 강남본점",
        "telNo": "025553047",
        "latitude": "37.49762977",
        "longitude": "127.02876839",
        "address": "서울 강남구 역삼동",
        "roadName": "테헤란로2길",
        "buildingNo": "-",
        "radius_km": "0.107",
        "dataKind": "",
        "stId": "",
        "parkFlag": "0",
        "merchantFlag": ""
      },
      {
        "name": "세븐일레븐 강남스퀘어점",
        "telNo": "",
        "latitude": "37.49896294",
        "longitude": "127.02821285",
        "address": "서울 강남구 역삼동",
        "roadName": "테헤란로1길",
        "buildingNo": "-",
        "radius_km": "0.129",
        "dataKind": "",
        "stId": "",
        "parkFlag": "0",
        "merchantFlag": ""
      },
      {
        "name": "세븐일레븐 강남광장점",
        "telNo": "15770711",
        "latitude": "37.49860183",
        "longitude": "127.02621304",
        "address": "서울 서초구 서초동",
        "roadName": "서초대로77길",
        "buildingNo": "-",
        "radius_km": "0.145",
        "dataKind": "",
        "stId": "",
        "parkFlag": "0",
        "merchantFlag": ""
      },
      {
        "name": "GS25 S강남역3호점",
        "telNo": "16445425",
        "latitude": "37.49662988",
        "longitude": "127.02826847",
        "address": "서울 강남구 역삼동",
        "roadName": "강남대로",
        "buildingNo": "-",
        "radius_km": "0.154",
        "dataKind": "",
        "stId": "",
        "parkFlag": "0",
        "merchantFlag": ""
      },
      {
        "name": "CU 뉴삼성전자본점 주차장",
        "telNo": "",
        "latitude": "37.49704646",
        "longitude": "127.02624086",
        "address": "서울 서초구 서초동",
        "roadName": "서초대로74길",
        "buildingNo": "-",
        "radius_km": "0.157",
        "dataKind": "",
        "stId": "",
        "parkFlag": "0",
        "merchantFlag": ""
      },
      {
        "name": "CU 뉴삼성전자본점",
        "telNo": "",
        "latitude": "37.49671317",
        "longitude": "127.02665750",
        "address": "서울 서초구 서초동",
        "roadName": "서초대로74길",
        "buildingNo": "-",
        "radius_km": "0.157",
        "dataKind": "",
        "stId": "",
        "parkFlag": "1",
        "merchantFlag": ""
      },
      {
        "name": "CU 강남푸르지오점",
        "telNo": "028731232",
        "latitude": "37.49776865",
        "longitude": "127.02937944",
        "address": "서울 강남구 역삼동",
        "roadName": "테헤란로4길",
        "buildingNo": "-",
        "radius_km": "0.158",
        "dataKind": "",
        "stId": "",
        "parkFlag": "0",
        "merchantFlag": ""
      },
      {
        "name": "GS25 S강남역2호점",
        "telNo": "0805552525",
        "latitude": "37.49657433",
        "longitude": "127.02829624",
        "address": "서울 강남구 역삼동",
        "roadName": "강남대로",
        "buildingNo": "-",
        "radius_km": "0.161",
        "dataKind": "",
        "stId": "",
        "parkFlag": "0",
        "merchantFlag": ""
      },
      {
        "name": "GS25 강남프리미엄점",
        "telNo": "",
        "latitude": "37.49882403",
        "longitude": "127.02607416",
        "address": "서울 서초구 서초동",
        "roadName": "서초대로77길",
        "buildingNo": "-",
        "radius_km": "0.169",
        "dataKind": "",
        "stId": "",
        "parkFlag": "0",
        "merchantFlag": ""
      },
      {
        "name": "세븐일레븐 강남역TGI점",
        "telNo": "025344462",
        "latitude": "37.49771303",
        "longitude": "127.02551869",
        "address": "서울 서초구 서초동",
        "roadName": "서초대로",
        "buildingNo": "-",
        "radius_km": "0.185",
        "dataKind": "",
        "stId": "",
        "parkFlag": "0",
        "merchantFlag": ""
      },
      {
        "name": "GS25 서초삼성타운점",
        "telNo": "025823487",
        "latitude": "37.49671315",
        "longitude": "127.02574092",
        "address": "서울 서초구 서초동",
        "roadName": "서초대로74길",
        "buildingNo": "-",
        "radius_km": "0.212",
        "dataKind": "",
        "stId": "",
        "parkFlag": "1",
        "merchantFlag": ""
      },
      {
        "name": "GS25 서초삼성타운점 주차장",
        "telNo": "025823487",
        "latitude": "37.49668539",
        "longitude": "127.02612977",
        "address": "서울 서초구 서초동",
        "roadName": "서초대로74길",
        "buildingNo": "-",
        "radius_km": "0.212",
        "dataKind": "",
        "stId": "",
        "parkFlag": "0",
        "merchantFlag": ""
      },
      {
        "name": "CU 강남해커스점",
        "telNo": "025862418",
        "latitude": "37.49887956",
        "longitude": "127.02551865",
        "address": "서울 서초구 서초동",
        "roadName": "강남대로61길",
        "buildingNo": "-",
        "radius_km": "0.213",
        "dataKind": "",
        "stId": "",
        "parkFlag": "0",
        "merchantFlag": ""
      },
      {
        "name": "세븐일레븐 뉴강남센터점",
        "telNo": "15770711",
        "latitude": "37.49985171",
        "longitude": "127.02771287",
        "address": "서울 강남구 역삼동",
        "roadName": "강남대로96길",
        "buildingNo": "-",
        "radius_km": "0.216",
        "dataKind": "",
        "stId": "",
        "parkFlag": "0",
        "merchantFlag": ""
      },
      {
        "name": "CU 역삼우인점",
        "telNo": "025384118",
        "latitude": "37.49646325",
        "longitude": "127.02932393",
        "address": "서울 강남구 역삼동",
        "roadName": "강남대로84길",
        "buildingNo": "-",
        "radius_km": "0.221",
        "dataKind": "",
        "stId": "",
        "parkFlag": "0",
        "merchantFlag": ""
      },
      {
        "name": "GS25 강남타운점",
        "telNo": "0805552525",
        "latitude": "37.49896297",
        "longitude": "127.02985159",
        "address": "서울 강남구 역삼동",
        "roadName": "테헤란로",
        "buildingNo": "-",
        "radius_km": "0.23",
        "dataKind": "",
        "stId": "",
        "parkFlag": "0",
        "merchantFlag": ""
      },
      {
        "name": "GS25 서초프라자점",
        "telNo": "0805552525",
        "latitude": "37.49924063",
        "longitude": "127.02549087",
        "address": "서울 서초구 서초동",
        "roadName": "강남대로61길",
        "buildingNo": "-",
        "radius_km": "0.238",
        "dataKind": "",
        "stId": "",
        "parkFlag": "1",
        "merchantFlag": ""
      },
      {
        "name": "세븐일레븐 삼성타운점",
        "telNo": "15770711",
        "latitude": "37.49574107",
        "longitude": "127.02690750",
        "address": "서울 서초구 서초동",
        "roadName": "서초대로74길",
        "buildingNo": "-",
        "radius_km": "0.249",
        "dataKind": "",
        "stId": "",
        "parkFlag": "0",
        "merchantFlag": ""
      },
      {
        "name": "CU 역삼강남점",
        "telNo": "025664543",
        "latitude": "37.49974064",
        "longitude": "127.02926829",
        "address": "서울 강남구 역삼동",
        "roadName": "강남대로94길",
        "buildingNo": "-",
        "radius_km": "0.251",
        "dataKind": "",
        "stId": "",
        "parkFlag": "0",
        "merchantFlag": ""
      },
      {
        "name": "GS25 역삼효성점",
        "telNo": "025381248",
        "latitude": "37.49718540",
        "longitude": "127.03029604",
        "address": "서울 강남구 역삼동",
        "roadName": "강남대로84길",
        "buildingNo": "-",
        "radius_km": "0.251",
        "dataKind": "",
        "stId": "",
        "parkFlag": "0",
        "merchantFlag": ""
      },
      {
        "name": "세븐일레븐 역삼타워점",
        "telNo": "",
        "latitude": "37.49671323",
        "longitude": "127.03001830",
        "address": "서울 강남구 역삼동",
        "roadName": "강남대로84길",
        "buildingNo": "-",
        "radius_km": "0.251",
        "dataKind": "",
        "stId": "",
        "parkFlag": "0",
        "merchantFlag": ""
      },
      {
        "name": "CU 오벨리스크점 지하주차장",
        "telNo": "025889423",
        "latitude": "37.49532445",
        "longitude": "127.02701862",
        "address": "서울 서초구 서초동",
        "roadName": "서초대로74길",
        "buildingNo": "-",
        "radius_km": "0.292",
        "dataKind": "",
        "stId": "",
        "parkFlag": "0",
        "merchantFlag": ""
      },
      {
        "name": "CU 오벨리스크점",
        "telNo": "025889423",
        "latitude": "37.49532445",
        "longitude": "127.02707417",
        "address": "서울 서초구 서초동",
        "roadName": "서초대로74길",
        "buildingNo": "-",
        "radius_km": "0.292",
        "dataKind": "",
        "stId": "",
        "parkFlag": "1",
        "merchantFlag": ""
      },
      {
        "name": "CU 서초동아타워점",
        "telNo": "15778007",
        "latitude": "37.49599101",
        "longitude": "127.02524098",
        "address": "서울 서초구 서초동",
        "roadName": "서운로",
        "buildingNo": "-",
        "radius_km": "0.299",
        "dataKind": "",
        "stId": "",
        "parkFlag": "0",
        "merchantFlag": ""
      },
      {
        "name": "세븐일레븐 강남본점",
        "telNo": "025992764",
        "latitude": "37.50010164",
        "longitude": "127.02551862",
        "address": "서울 서초구 서초동",
        "roadName": "서초대로77길",
        "buildingNo": "-",
        "radius_km": "0.305",
        "dataKind": "",
        "stId": "",
        "parkFlag": "0",
        "merchantFlag": ""
      },
      {
        "name": "CU 서초삼성타운점",
        "telNo": "0234716289",
        "latitude": "37.49568549",
        "longitude": "127.02554652",
        "address": "서울 서초구 서초동",
        "roadName": "강남대로55길",
        "buildingNo": "-",
        "radius_km": "0.307",
        "dataKind": "",
        "stId": "",
        "parkFlag": "1",
        "merchantFlag": ""
      },
      {
        "name": "이마트24 R강남역삼점",
        "telNo": "07077004946",
        "latitude": "37.50065716",
        "longitude": "127.02704624",
        "address": "서울 강남구 역삼동",
        "roadName": "강남대로",
        "buildingNo": "-",
        "radius_km": "0.309",
        "dataKind": "",
        "stId": "",
        "parkFlag": "0",
        "merchantFlag": ""
      },
      {
        "name": "CU 강남승리점",
        "telNo": "0215773663",
        "latitude": "37.49513004",
        "longitude": "127.02785188",
        "address": "서울 서초구 서초동",
        "roadName": "서초대로78길",
        "buildingNo": "-",
        "radius_km": "0.31",
        "dataKind": "",
        "stId": "",
        "parkFlag": "0",
        "merchantFlag": ""
      },
      {
        "name": "세븐일레븐 역삼타운점",
        "telNo": "025638307",
        "latitude": "37.49696322",
        "longitude": "127.03093488",
        "address": "서울 강남구 역삼동",
        "roadName": "강남대로84길",
        "buildingNo": "-",
        "radius_km": "0.312",
        "dataKind": "",
        "stId": "",
        "parkFlag": "0",
        "merchantFlag": ""
      },
      {
        "name": "CU 역삼시티점",
        "telNo": "025544838",
        "latitude": "37.49960179",
        "longitude": "127.03049040",
        "address": "서울 강남구 역삼동",
        "roadName": "테헤란로7길",
        "buildingNo": "-",
        "radius_km": "0.317",
        "dataKind": "",
        "stId": "",
        "parkFlag": "0",
        "merchantFlag": ""
      },
      {
        "name": "CU 역삼디오빌점",
        "telNo": "0220500911",
        "latitude": "37.49740761",
        "longitude": "127.03118485",
        "address": "서울 강남구 역삼동",
        "roadName": "강남대로84길",
        "buildingNo": "-",
        "radius_km": "0.321",
        "dataKind": "",
        "stId": "",
        "parkFlag": "0",
        "merchantFlag": ""
      },
      {
        "name": "GS25 강남쌍용점",
        "telNo": "0808555525",
        "latitude": "37.49568557",
        "longitude": "127.02999056",
        "address": "서울 강남구 역삼동",
        "roadName": "테헤란로4길",
        "buildingNo": "-",
        "radius_km": "0.325",
        "dataKind": "",
        "stId": "",
        "parkFlag": "0",
        "merchantFlag": ""
      },
      {
        "name": "니드앤바이편의점",
        "telNo": "",
        "latitude": "37.50079603",
        "longitude": "127.02682404",
        "address": "서울 강남구 역삼동",
        "roadName": "강남대로",
        "buildingNo": "-",
        "radius_km": "0.328",
        "dataKind": "",
        "stId": "",
        "parkFlag": "0",
        "merchantFlag": ""
      },
      {
        "name": "세븐일레븐 서초프라자점",
        "telNo": "025954388",
        "latitude": "37.49849069",
        "longitude": "127.02393548",
        "address": "서울 서초구 서초동",
        "roadName": "강남대로61길",
        "buildingNo": "-",
        "radius_km": "0.33",
        "dataKind": "",
        "stId": "",
        "parkFlag": "0",
        "merchantFlag": ""
      },
      {
        "name": "GS25 강남시티힐점",
        "telNo": "025011869",
        "latitude": "37.50096270",
        "longitude": "127.02793504",
        "address": "서울 강남구 역삼동",
        "roadName": "강남대로98길",
        "buildingNo": "-",
        "radius_km": "0.341",
        "dataKind": "",
        "stId": "",
        "parkFlag": "0",
        "merchantFlag": ""
      },
      {
        "name": "세븐일레븐 서초강남점",
        "telNo": "15770711",
        "latitude": "37.49707419",
        "longitude": "127.02371331",
        "address": "서울 서초구 서초동",
        "roadName": "서초대로",
        "buildingNo": "-",
        "radius_km": "0.356",
        "dataKind": "",
        "stId": "",
        "parkFlag": "0",
        "merchantFlag": ""
      },
      {
        "name": "CU 서초도씨에빛점",
        "telNo": "0234732126",
        "latitude": "37.49479676",
        "longitude": "127.02862960",
        "address": "서울 서초구 서초동",
        "roadName": "강남대로",
        "buildingNo": "-",
        "radius_km": "0.358",
        "dataKind": "",
        "stId": "",
        "parkFlag": "0",
        "merchantFlag": ""
      },
      {
        "name": "세븐일레븐 삼원타워점",
        "telNo": "",
        "latitude": "37.49876858",
        "longitude": "127.03168476",
        "address": "서울 강남구 역삼동",
        "roadName": "테헤란로",
        "buildingNo": "-",
        "radius_km": "0.373",
        "dataKind": "",
        "stId": "",
        "parkFlag": "0",
        "merchantFlag": ""
      },
      {
        "name": "세븐일레븐 강남중앙점",
        "telNo": "15770711",
        "latitude": "37.50082378",
        "longitude": "127.02529640",
        "address": "서울 서초구 서초동",
        "roadName": "서초대로77길",
        "buildingNo": "-",
        "radius_km": "0.383",
        "dataKind": "",
        "stId": "",
        "parkFlag": "0",
        "merchantFlag": ""
      },
      {
        "name": "GS25 역삼태극점",
        "telNo": "025660613",
        "latitude": "37.49526897",
        "longitude": "127.03071273",
        "address": "서울 강남구 역삼동",
        "roadName": "테헤란로4길",
        "buildingNo": "-",
        "radius_km": "0.402",
        "dataKind": "",
        "stId": "",
        "parkFlag": "1",
        "merchantFlag": ""
      },
      {
        "name": "GS25 역삼태극점 주차장",
        "telNo": "025660613",
        "latitude": "37.49518564",
        "longitude": "127.03037943",
        "address": "서울 강남구 역삼동",
        "roadName": "테헤란로4길",
        "buildingNo": "-",
        "radius_km": "0.402",
        "dataKind": "",
        "stId": "",
        "parkFlag": "0",
        "merchantFlag": ""
      },
      {
        "name": "세븐일레븐 역삼태극점",
        "telNo": "15770711",
        "latitude": "37.49479679",
        "longitude": "127.03007391",
        "address": "서울 강남구 역삼동",
        "roadName": "강남대로78길",
        "buildingNo": "-",
        "radius_km": "0.409",
        "dataKind": "",
        "stId": "",
        "parkFlag": "0",
        "merchantFlag": ""
      },
      {
        "name": "GS25 서초여신점",
        "telNo": "0808555525",
        "latitude": "37.49424126",
        "longitude": "127.02821298",
        "address": "서울 서초구 서초동",
        "roadName": "강남대로53길",
        "buildingNo": "-",
        "radius_km": "0.412",
        "dataKind": "",
        "stId": "",
        "parkFlag": "1",
        "merchantFlag": ""
      },
      {
        "name": "GS25 서초여신점 주차장",
        "telNo": "0808555525",
        "latitude": "37.49426903",
        "longitude": "127.02801856",
        "address": "서울 서초구 서초동",
        "roadName": "강남대로53길",
        "buildingNo": "-",
        "radius_km": "0.412",
        "dataKind": "",
        "stId": "",
        "parkFlag": "0",
        "merchantFlag": ""
      },
      {
        "name": "세븐일레븐 과학기술회관점",
        "telNo": "",
        "latitude": "37.50071278",
        "longitude": "127.03071257",
        "address": "서울 강남구 역삼동",
        "roadName": "테헤란로7길",
        "buildingNo": "-",
        "radius_km": "0.415",
        "dataKind": "",
        "stId": "",
        "parkFlag": "0",
        "merchantFlag": ""
      },
      {
        "name": "GS25 강남태강점",
        "telNo": "0805552525",
        "latitude": "37.49818532",
        "longitude": "127.03229583",
        "address": "서울 강남구 역삼동",
        "roadName": "테헤란로10길",
        "buildingNo": "-",
        "radius_km": "0.415",
        "dataKind": "",
        "stId": "",
        "parkFlag": "0",
        "merchantFlag": ""
      }
    ]
  }
}