{
  "key": "37b5b502448107888421d21f35ff43bff2342b7363d4e3a0abaff5773beead56",
  "tool": "PlaceSearch_kakao",
  "created_at": "2025-10-21T04:13:58.367542",
  "input_params": {
    "keyword": "맛집",
    "radius": 800,
    "size": 15,
    "sort": "distance",
    "x": 126.97070335253385,
    "y": 37.55406888733184
  },
  "raw_args": {
    "keyword": "맛집",
    "x": 126.97070335253385,
    "y": 37.55406888733184,
    "radius": 800,
    "size": 15,
    "sort": "distance"
  },
  "data": {
    "keyword": "맛집",
    "total_count": 1051,
    "places": [
      {
        "name": "타르트팜 서울역점",
        "latitude": 37.553888711050476,
        "longitude": 126.97079735499393,
        "address": "서울 중구 봉래동2가 122-11",
        "road_address": "서울 중구 한강대로 405",
        "phone": "",
        "category": "음식점 > 간식 > 제과,베이커리",
        "distance": "21"
      },
      {
        "name": "위니비니 서울역사점",
        "latitude": 37.55388686413217,
        "longitude": 126.97061628212215,
        "address": "서울 중구 봉래동2가 122-11",
        "road_address": "서울 중구 한강대로 405",
        "phone": "",
        "category": "음식점 > 간식",
        "distance": "21"
      },
      {
        "name": "파리크라상 서울역점",
        "latitude": 37.55427163536867,
        "longitude": 126.9707983372903,
        "address": "서울 중구 봉래동2가 122-11",
        "road_address": "서울 중구 한강대로 405",
        "phone": "02-312-7740",
        "category": "음식점 > 간식 > 제과,베이커리 > 파리크라상",
        "distance": "23"
      },
      {
        "name": "롯데리아 서울역사점",
        "latitude": 37.55426527218926,
        "longitude": 126.97057199663817,
        "address": "서울 중구 봉래동2가 122-11",
        "road_address": "서울 중구 한강대로 405",
        "phone": "02-393-9375",
        "category": "음식점 > 패스트푸드 > 롯데리아",
        "distance": "24"
      },
      {
        "name": "독립밀방 서울역",
        "latitude": 37.5542851584466,
        "longitude": 126.97083115177698,
        "address": "서울 중구 봉래동2가 122-11",
        "road_address": "서울 중구 한강대로 405",
        "phone": "02-312-3418",
        "category": "음식점 > 양식 > 이탈리안",
        "distance": "26"
      },
      {
        "name": "꼬망김밥",
        "latitude": 37.5542968057048,
        "longitude": 126.970566325658,
        "address": "서울 용산구 동자동 43-205",
        "road_address": "서울 중구 한강대로 405",
        "phone": "02-965-1571",
        "category": "음식점 > 분식",
        "distance": "27"
      },
      {
        "name": "무원 서울역점",
        "latitude": 37.55431754386409,
        "longitude": 126.97062743019073,
        "address": "서울 중구 봉래동2가 122-11",
        "road_address": "서울 중구 한강대로 405",
        "phone": "",
        "category": "음식점 > 카페",
        "distance": "28"
      },
      {
        "name": "파리크라상 서울역SW점",
        "latitude": 37.55431572552164,
        "longitude": 126.970561791351,
        "address": "서울 중구 봉래동2가 122-11",
        "road_address": "서울 중구 한강대로 405",
        "phone": "02-312-7734",
        "category": "음식점 > 간식 > 제과,베이커리 > 파리크라상",
        "distance": "29"
      },
      {
        "name": "맥도날드 서울역점",
        "latitude": 37.554271552328366,
        "longitude": 126.9704644811706,
        "address": "서울 중구 봉래동2가 122-11",
        "road_address": "서울 중구 한강대로 405",
        "phone": "02-6743-1400",
        "category": "음식점 > 패스트푸드 > 맥도날드",
        "distance": "30"
      },
      {
        "name": "다복",
        "latitude": 37.55429419994674,
        "longitude": 126.97095903217377,
        "address": "서울 중구 봉래동2가 122-11",
        "road_address": "서울 중구 한강대로 405",
        "phone": "",
        "category": "음식점 > 한식",
        "distance": "33"
      },
      {
        "name": "밀본 서울역점",
        "latitude": 37.55432020818563,
        "longitude": 126.97047238398382,
        "address": "서울 중구 봉래동2가 122-11",
        "road_address": "서울 중구 한강대로 405",
        "phone": "",
        "category": "음식점 > 한식 > 국수",
        "distance": "34"
      },
      {
        "name": "서울리에 서울역점",
        "latitude": 37.55430862592369,
        "longitude": 126.97099976836371,
        "address": "서울 중구 봉래동2가 122-11",
        "road_address": "서울 중구 한강대로 405",
        "phone": "0507-1283-7918",
        "category": "음식점 > 한식",
        "distance": "37"
      },
      {
        "name": "뚜레쥬르 서울역사점",
        "latitude": 37.553851827571016,
        "longitude": 126.97103050152721,
        "address": "서울 용산구 동자동 43-205",
        "road_address": "서울 용산구 청파로 378",
        "phone": "070-7954-1745",
        "category": "음식점 > 간식 > 제과,베이커리 > 뚜레쥬르",
        "distance": "37"
      },
      {
        "name": "버거킹 서울역점",
        "latitude": 37.55428414162611,
        "longitude": 126.97036601691367,
        "address": "서울 중구 봉래동2가 122-11",
        "road_address": "서울 중구 한강대로 405",
        "phone": "02-392-2895",
        "category": "음식점 > 패스트푸드 > 버거킹",
        "distance": "38"
      },
      {
        "name": "태극당 서울역점",
        "latitude": 37.554322141167184,
        "longitude": 126.97100089484306,
        "address": "서울 중구 봉래동2가 122-11",
        "road_address": "서울 중구 한강대로 405",
        "phone": "",
        "category": "음식점 > 간식 > 제과,베이커리",
        "distance": "38"
      }
    ]
  }
}