{
  "key": "77f525632132537f5f6e05cc5e94312c0eadc225f0b0038e9b78ea556e8e6d88",
  "tool": "CategorySearch_tmap",
  "created_at": "2025-10-21T07:02:31.757909",
  "input_params": {
    "categories": "편의점",
    "centerLat": 37.497175,
    "centerLon": 127.027926,
    "count": 20,
    "radius": 1
  },
  "raw_args": {
    "categories": "편의점",
    "centerLon": 127.027926,
    "centerLat": 37.497175,
    "radius": 1
  },
  "data": {
    "totalCount": 171,
    "count": 20,
    "page": 1,
    "pois": [
      {
        "name": "GS25 S강남역3호점",
        "telNo": "16445425",
        "latitude": "37.49662988",
        "longitude": "127.02826847",
        "address": "서울 강남구 역삼동",
        "roadName": "강남대로",
        "buildingNo": "-",
        "radius_km": "0.068",
        "dataKind": "",
        "stId": "",
        "parkFlag": "0",
        "merchantFlag": ""
      },
      {
        "name": "GS25 S강남역2호점",
        "telNo": "0805552525",
        "latitude": "37.49657433",
        "longitude": "127.02829624",
        "address": "서울 강남구 역삼동",
        "roadName": "강남대로",
        "buildingNo": "-",
        "radius_km": "0.075",
        "dataKind": "",
        "stId": "",
        "parkFlag": "0",
        "merchantFlag": ""
      },
      {
        "name": "이마트24 강남역점",
        "telNo": "0269161500",
        "latitude": "37.49790749",
        "longitude": "127.02760182",
        "address": "서울 강남구 역삼동",
        "roadName": "테헤란로",
        "buildingNo": "-",
        "radius_km": "0.086",
        "dataKind": "",
        "stId": "",
        "parkFlag": "0",
        "merchantFlag": ""
      },
      {
        "name": "GS25 강남본점",
        "telNo": "025553047",
        "latitude": "37.49762977",
        "longitude": "127.02876839",
        "address": "서울 강남구 역삼동",
        "roadName": "테헤란로2길",
        "buildingNo": "-",
        "radius_km": "0.089",
        "dataKind": "",
        "stId": "",
        "parkFlag": "0",
        "merchantFlag": ""
      },
      {
        "name": "GS25 S강남역1호점",
        "telNo": "025586042",
        "latitude": "37.49818525",
        "longitude": "127.02846285",
        "address": "서울 강남구 역삼동",
        "roadName": "강남대로",
        "buildingNo": "-",
        "radius_km": "0.121",
        "dataKind": "",
        "stId": "",
        "parkFlag": "0",
        "merchantFlag": ""
      },
      {
        "name": "CU 뉴삼성전자본점 주차장",
        "telNo": "",
        "latitude": "37.49704646",
        "longitude": "127.02624086",
        "address": "서울 서초구 서초동",
        "roadName": "서초대로74길",
        "buildingNo": "-",
        "radius_km": "0.124",
        "dataKind": "",
        "stId": "",
        "parkFlag": "0",
        "merchantFlag": ""
      },
      {
        "name": "CU 뉴삼성전자본점",
        "telNo": "",
        "latitude": "37.49671317",
        "longitude": "127.02665750",
        "address": "서울 서초구 서초동",
        "roadName": "서초대로74길",
        "buildingNo": "-",
        "radius_km": "0.124",
        "dataKind": "",
        "stId": "",
        "parkFlag": "1",
        "merchantFlag": ""
      },
      {
        "name": "CU 강남푸르지오점",
        "telNo": "028731232",
        "latitude": "37.49776865",
        "longitude": "127.02937944",
        "address": "서울 강남구 역삼동",
        "roadName": "테헤란로4길",
        "buildingNo": "-",
        "radius_km": "0.143",
        "dataKind": "",
        "stId": "",
        "parkFlag": "0",
        "merchantFlag": ""
      },
      {
        "name": "CU 역삼우인점",
        "telNo": "025384118",
        "latitude": "37.49646325",
        "longitude": "127.02932393",
        "address": "서울 강남구 역삼동",
        "roadName": "강남대로84길",
        "buildingNo": "-",
        "radius_km": "0.146",
        "dataKind": "",
        "stId": "",
        "parkFlag": "0",
        "merchantFlag": ""
      },
      {
        "name": "GS25 강남메트로점 지하주차장",
        "telNo": "0234533207",
        "latitude": "37.49871296",
        "longitude": "127.02804621",
        "address": "서울 강남구 역삼동",
        "roadName": "테헤란로",
        "buildingNo": "-",
        "radius_km": "0.158",
        "dataKind": "",
        "stId": "",
        "parkFlag": "0",
        "merchantFlag": ""
      },
      {
        "name": "GS25 강남메트로점",
        "telNo": "0234533207",
        "latitude": "37.49860186",
        "longitude": "127.02801843",
        "address": "서울 강남구 역삼동",
        "roadName": "테헤란로",
        "buildingNo": "-",
        "radius_km": "0.158",
        "dataKind": "",
        "stId": "",
        "parkFlag": "1",
        "merchantFlag": ""
      },
      {
        "name": "세븐일레븐 삼성타운점",
        "telNo": "15770711",
        "latitude": "37.49574107",
        "longitude": "127.02690750",
        "address": "서울 서초구 서초동",
        "roadName": "서초대로74길",
        "buildingNo": "-",
        "radius_km": "0.184",
        "dataKind": "",
        "stId": "",
        "parkFlag": "0",
        "merchantFlag": ""
      },
      {
        "name": "세븐일레븐 역삼타워점",
        "telNo": "",
        "latitude": "37.49671323",
        "longitude": "127.03001830",
        "address": "서울 강남구 역삼동",
        "roadName": "강남대로84길",
        "buildingNo": "-",
        "radius_km": "0.191",
        "dataKind": "",
        "stId": "",
        "parkFlag": "0",
        "merchantFlag": ""
      },
      {
        "name": "세븐일레븐 강남스퀘어점",
        "telNo": "",
        "latitude": "37.49896294",
        "longitude": "127.02821285",
        "address": "서울 강남구 역삼동",
        "roadName": "테헤란로1길",
        "buildingNo": "-",
        "radius_km": "0.2",
        "dataKind": "",
        "stId": "",
        "parkFlag": "0",
        "merchantFlag": ""
      },
      {
        "name": "GS25 서초삼성타운점",
        "telNo": "025823487",
        "latitude": "37.49671315",
        "longitude": "127.02574092",
        "address": "서울 서초구 서초동",
        "roadName": "서초대로74길",
        "buildingNo": "-",
        "radius_km": "0.2",
        "dataKind": "",
        "stId": "",
        "parkFlag": "1",
        "merchantFlag": ""
      },
      {
        "name": "GS25 서초삼성타운점 주차장",
        "telNo": "025823487",
        "latitude": "37.49668539",
        "longitude": "127.02612977",
        "address": "서울 서초구 서초동",
        "roadName": "서초대로74길",
        "buildingNo": "-",
        "radius_km": "0.2",
        "dataKind": "",
        "stId": "",
        "parkFlag": "0",
        "merchantFlag": ""
      },
      {
        "name": "GS25 역삼효성점",
        "telNo": "025381248",
        "latitude": "37.49718540",
        "longitude": "127.03029604",
        "address": "서울 강남구 역삼동",
        "roadName": "강남대로84길",
        "buildingNo": "-",
        "radius_km": "0.208",
        "dataKind": "",
        "stId": "",
        "parkFlag": "0",
        "merchantFlag": ""
      },
      {
        "name": "세븐일레븐 강남광장점",
        "telNo": "15770711",
        "latitude": "37.49860183",
        "longitude": "127.02621304",
        "address": "서울 서초구 서초동",
        "roadName": "서초대로77길",
        "buildingNo": "-",
        "radius_km": "0.219",
        "dataKind": "",
        "stId": "",
        "parkFlag": "0",
        "merchantFlag": ""
      },
      {
        "name": "CU 오벨리스크점 지하주차장",
        "telNo": "025889423",
        "latitude": "37.49532445",
        "longitude": "127.02701862",
        "address": "서울 서초구 서초동",
        "roadName": "서초대로74길",
        "buildingNo": "-",
        "radius_km": "0.22",
        "dataKind": "",
        "stId": "",
        "parkFlag": "0",
        "merchantFlag": ""
      },
      {
        "name": "CU 오벨리스크점",
        "telNo": "025889423",
        "latitude": "37.49532445",
        "longitude": "127.02707417",
        "address": "서울 서초구 서초동",
        "roadName": "서초대로74길",
        "buildingNo": "-",
        "radius_km": "0.22",
        "dataKind": "",
        "stId": "",
        "parkFlag": "1",
        "merchantFlag": ""
      }
    ]
  }
}