{
  "key": "248b2e311ef58cd6c09444d7e9c1a676eb295f85aa9600113366e480d65f864b",
  "tool": "PlaceSearch_kakao",
  "created_at": "2025-12-19T05:27:23.234114",
  "input_params": {
    "keyword": "Apple Store",
    "size": 5,
    "sort": "accuracy"
  },
  "raw_args": {
    "keyword": "Apple Store",
    "size": 5
  },
  "data": {
    "keyword": "Apple Store",
    "total_count": 25,
    "places": [
      {
        "name": "a#shop 현대백화점여의도점",
        "latitude": 37.52532437573652,
        "longitude": 126.92863443939514,
        "address": "서울 영등포구 여의도동 22",
        "road_address": "서울 영등포구 여의대로 108",
        "phone": "02-3277-0576",
        "category": "가정,생활 > 전자제품 > 전자제품판매 > a#shop",
        "distance": ""
      },
      {
        "name": "a#shop 현대백화점대구점",
        "latitude": 35.86631358962813,
        "longitude": 128.5906513971547,
        "address": "대구 중구 계산동2가 200",
        "road_address": "대구 중구 달구벌대로 2077",
        "phone": "053-245-3413",
        "category": "가정,생활 > 전자제품 > 전자제품판매 > a#shop",
        "distance": ""
      },
      {
        "name": "a#shop 현대백화점판교점",
        "latitude": 37.39294294093843,
        "longitude": 127.11226342344915,
        "address": "경기 성남시 분당구 백현동 541",
        "road_address": "경기 성남시 분당구 판교역로146번길 20",
        "phone": "031-5170-2359",
        "category": "가정,생활 > 전자제품 > 전자제품판매 > a#shop",
        "distance": ""
      },
      {
        "name": "a#shop 현대백화점일산점",
        "latitude": 37.668530491107404,
        "longitude": 126.75126491665362,
        "address": "경기 고양시 일산서구 대화동 2602",
        "road_address": "경기 고양시 일산서구 호수로 817",
        "phone": "031-822-3737",
        "category": "가정,생활 > 전자제품 > 전자제품판매 > a#shop",
        "distance": ""
      },
      {
        "name": "a#shop 현대백화점무역센터점",
        "latitude": 37.50840101038459,
        "longitude": 127.05966824338046,
        "address": "서울 강남구 삼성동 159-7",
        "road_address": "서울 강남구 테헤란로 517",
        "phone": "02-3467-8373",
        "category": "가정,생활 > 전자제품 > 전자제품판매 > a#shop",
        "distance": ""
      }
    ]
  }
}