{
  "key": "0120b096d4057ed7212c4e80ac1b2ab9dc280a0f19b2026ee743bdd3660db57b",
  "tool": "PlaceSearch_kakao",
  "created_at": "2025-12-19T02:49:01.150089",
  "input_params": {
    "keyword": "맛집",
    "radius": 1000,
    "sort": "accuracy",
    "x": 127.2284,
    "y": 37.6352
  },
  "raw_args": {
    "keyword": "맛집",
    "x": 127.2284,
    "y": 37.6352,
    "radius": 1000
  },
  "data": {
    "keyword": "맛집",
    "total_count": 14,
    "places": [
      {
        "name": "어랑손만두국",
        "latitude": 37.63628665040511,
        "longitude": 127.22423501355276,
        "address": "경기 남양주시 금곡동 14",
        "road_address": "경기 남양주시 경춘로 1084-25",
        "phone": "031-592-2959",
        "category": "음식점 > 한식",
        "distance": "386"
      },
      {
        "name": "키스톤 스피시즈",
        "latitude": 37.636560879941705,
        "longitude": 127.22547982828894,
        "address": "경기 남양주시 금곡동 14-1",
        "road_address": "경기 남양주시 경춘로 1104-2",
        "phone": "070-8887-1104",
        "category": "음식점 > 카페",
        "distance": "298"
      },
      {
        "name": "평내양평해장국 평내점",
        "latitude": 37.6402785992788,
        "longitude": 127.228620456545,
        "address": "경기 남양주시 평내동 360-1",
        "road_address": "경기 남양주시 경춘로 1158",
        "phone": "031-593-4634",
        "category": "음식점 > 한식 > 해장국",
        "distance": "563"
      },
      {
        "name": "당선양평해장국",
        "latitude": 37.6402470299375,
        "longitude": 127.228638488066,
        "address": "경기 남양주시 평내동 360",
        "road_address": "경기 남양주시 경춘로 1158",
        "phone": "031-593-4634",
        "category": "음식점 > 한식 > 해장국",
        "distance": "560"
      },
      {
        "name": "두부마을 평내점",
        "latitude": 37.6436976065087,
        "longitude": 127.231046637241,
        "address": "경기 남양주시 평내동 572-8",
        "road_address": "경기 남양주시 평내로 13",
        "phone": "031-559-2698",
        "category": "음식점 > 한식 > 두부전문점",
        "distance": "971"
      },
      {
        "name": "강창구찹쌀진순대 평내직영점",
        "latitude": 37.6437292541382,
        "longitude": 127.228676354372,
        "address": "경기 남양주시 평내동 398-1",
        "road_address": "경기 남양주시 경춘로 1195",
        "phone": "031-511-8700",
        "category": "음식점 > 한식 > 순대 > 강창구찹쌀진순대",
        "distance": "947"
      },
      {
        "name": "빠띠최",
        "latitude": 37.643293915633,
        "longitude": 127.231072580407,
        "address": "경기 남양주시 평내동 559-2",
        "road_address": "경기 남양주시 평내로20번길 2",
        "phone": "070-8888-8444",
        "category": "음식점 > 간식 > 제과,베이커리",
        "distance": "928"
      },
      {
        "name": "카페포레24",
        "latitude": 37.6411660388817,
        "longitude": 127.233238008499,
        "address": "경기 남양주시 평내동 562",
        "road_address": "경기 남양주시 평내로 48",
        "phone": "",
        "category": "음식점 > 카페",
        "distance": "787"
      },
      {
        "name": "코코브라운",
        "latitude": 37.6436591070797,
        "longitude": 127.230461854818,
        "address": "경기 남양주시 평내동 558-5",
        "road_address": "경기 남양주시 평내로 12",
        "phone": "",
        "category": "음식점 > 카페",
        "distance": "956"
      },
      {
        "name": "담아공방",
        "latitude": 37.6434246675159,
        "longitude": 127.231476356424,
        "address": "경기 남양주시 평내동 572-4",
        "road_address": "경기 남양주시 평내로 21",
        "phone": "0502-5551-1166",
        "category": "음식점 > 카페 > 테마카페 > 디저트카페",
        "distance": "952"
      },
      {
        "name": "구쯔커피 평내점",
        "latitude": 37.64368889374908,
        "longitude": 127.23135480491901,
        "address": "경기 남양주시 평내동 572-1",
        "road_address": "경기 남양주시 평내로 13-8",
        "phone": "010-9006-1702",
        "category": "음식점 > 카페",
        "distance": "977"
      },
      {
        "name": "살롱드에뽀끄",
        "latitude": 37.6435430094235,
        "longitude": 127.230395778289,
        "address": "경기 남양주시 평내동 558-6",
        "road_address": "경기 남양주시 평내로14번길 4-2",
        "phone": "",
        "category": "음식점 > 카페",
        "distance": "942"
      },
      {
        "name": "엠제이퀴진",
        "latitude": 37.643220352767166,
        "longitude": 127.23091032474393,
        "address": "경기 남양주시 평내동 559-3",
        "road_address": "경기 남양주시 평내로20번길 4",
        "phone": "",
        "category": "음식점 > 양식",
        "distance": "917"
      },
      {
        "name": "버블아이스",
        "latitude": 37.6438617573534,
        "longitude": 127.230036446104,
        "address": "경기 남양주시 평내동 558-2",
        "road_address": "경기 남양주시 평내로 6-1",
        "phone": "",
        "category": "음식점 > 간식 > 아이스크림",
        "distance": "972"
      }
    ]
  }
}