{
  "key": "10b19f7273339c6ffbd56120617c1eeff036efd4c42a62dfd3997a3dea6fea04",
  "tool": "PlaceSearch_kakao",
  "created_at": "2025-10-27T03:28:05.585155",
  "input_params": {
    "keyword": "카페",
    "page": 1,
    "size": 5,
    "sort": "accuracy",
    "x": 127.0563,
    "y": 37.514
  },
  "raw_args": {
    "keyword": "카페",
    "x": 127.0563,
    "y": 37.514,
    "page": 1,
    "size": 5
  },
  "data": {
    "keyword": "카페",
    "total_count": 149506,
    "places": [
      {
        "name": "북앤레스트",
        "latitude": 37.510950583703725,
        "longitude": 127.05655306806058,
        "address": "서울 강남구 삼성동 153-3",
        "road_address": "서울 강남구 삼성로104길 22",
        "phone": "02-3453-2356",
        "category": "음식점 > 카페 > 테마카페 > 북카페",
        "distance": "339"
      },
      {
        "name": "스타벅스 코엑스몰점",
        "latitude": 37.513418133469635,
        "longitude": 127.05900941362903,
        "address": "서울 강남구 삼성동 159",
        "road_address": "서울 강남구 영동대로 513",
        "phone": "1522-3232",
        "category": "음식점 > 카페 > 커피전문점 > 스타벅스",
        "distance": "248"
      },
      {
        "name": "카페희다 삼성점",
        "latitude": 37.5092364877372,
        "longitude": 127.057352547926,
        "address": "서울 강남구 삼성동 154-16",
        "road_address": "서울 강남구 삼성로96길 19",
        "phone": "02-556-3992",
        "category": "음식점 > 카페 > 테마카페 > 디저트카페",
        "distance": "536"
      },
      {
        "name": "클로리스 삼성중앙역점",
        "latitude": 37.5128799953639,
        "longitude": 127.053851217808,
        "address": "서울 강남구 삼성동 145-1",
        "road_address": "서울 강남구 봉은사로 502",
        "phone": "02-508-1998",
        "category": "음식점 > 카페 > 커피전문점",
        "distance": "249"
      },
      {
        "name": "기기커피 삼성점",
        "latitude": 37.510742905092,
        "longitude": 127.057480379038,
        "address": "서울 강남구 삼성동 153-43",
        "road_address": "서울 강남구 테헤란로87길 47",
        "phone": "",
        "category": "음식점 > 카페 > 커피전문점",
        "distance": "376"
      }
    ]
  }
}