{
  "key": "70c6dfc145a4c31f05fd475cdef333bb265399906b505127abfb8a622f0f45c2",
  "tool": "PlaceSearch_kakao",
  "created_at": "2025-10-27T16:52:44.614673",
  "input_params": {
    "keyword": "주차장",
    "radius": 2000,
    "size": 10,
    "sort": "accuracy",
    "x": 127.1065,
    "y": 37.4789
  },
  "raw_args": {
    "size": 10,
    "x": 127.1065,
    "y": 37.4789,
    "radius": 2000,
    "keyword": "주차장"
  },
  "data": {
    "keyword": "주차장",
    "total_count": 141,
    "places": [
      {
        "name": "단미그린비 주차장",
        "latitude": 37.479247298117,
        "longitude": 127.102696528241,
        "address": "서울 강남구 자곡동 286",
        "road_address": "",
        "phone": "",
        "category": "교통,수송 > 교통시설 > 주차장",
        "distance": "338"
      },
      {
        "name": "강남더샵라르고 주차장",
        "latitude": 37.4753332253963,
        "longitude": 127.104849342512,
        "address": "서울 강남구 자곡동 596",
        "road_address": "서울 강남구 자곡로 201",
        "phone": "",
        "category": "교통,수송 > 교통시설 > 주차장",
        "distance": "421"
      },
      {
        "name": "나이스파크 SRT수서역주차장",
        "latitude": 37.485287661440466,
        "longitude": 127.10575761538418,
        "address": "서울 강남구 수서동 199-3",
        "road_address": "",
        "phone": "",
        "category": "교통,수송 > 교통시설 > 주차장",
        "distance": "711"
      },
      {
        "name": "힐스테이트에코 주차장",
        "latitude": 37.4747122608998,
        "longitude": 127.105039532,
        "address": "서울 강남구 자곡동 659",
        "road_address": "서울 강남구 자곡로 202",
        "phone": "",
        "category": "교통,수송 > 교통시설 > 주차장",
        "distance": "482"
      },
      {
        "name": "강남훼미리타운상가 주차장",
        "latitude": 37.4738335942492,
        "longitude": 127.107248432437,
        "address": "서울 강남구 자곡동 56-117",
        "road_address": "서울 강남구 밤고개로 227",
        "phone": "",
        "category": "교통,수송 > 교통시설 > 주차장",
        "distance": "565"
      },
      {
        "name": "피자리움 주차장",
        "latitude": 37.4735270067323,
        "longitude": 127.108502845697,
        "address": "서울 강남구 율현동 196-34",
        "road_address": "",
        "phone": "",
        "category": "교통,수송 > 교통시설 > 주차장",
        "distance": "622"
      },
      {
        "name": "강남한양수자인아파트 지하주차장",
        "latitude": 37.4743069582761,
        "longitude": 127.112698159447,
        "address": "서울 강남구 자곡동 686",
        "road_address": "서울 강남구 자곡로 260",
        "phone": "",
        "category": "교통,수송 > 교통시설 > 주차장",
        "distance": "748"
      },
      {
        "name": "유탑유블레스 주차장",
        "latitude": 37.4735965915027,
        "longitude": 127.103243870675,
        "address": "서울 강남구 자곡동 651",
        "road_address": "서울 강남구 자곡로 180",
        "phone": "",
        "category": "교통,수송 > 교통시설 > 주차장",
        "distance": "655"
      },
      {
        "name": "수서역 공영주차장",
        "latitude": 37.487883110423276,
        "longitude": 127.0999550626791,
        "address": "서울 강남구 수서동 735",
        "road_address": "",
        "phone": "",
        "category": "교통,수송 > 교통시설 > 주차장 > 공영주차장",
        "distance": "1152"
      },
      {
        "name": "밤고개로21길 공영주차장",
        "latitude": 37.47356190710661,
        "longitude": 127.11448548727515,
        "address": "서울 강남구 율현동 527",
        "road_address": "",
        "phone": "1544-3113",
        "category": "교통,수송 > 교통시설 > 주차장 > 공영주차장",
        "distance": "922"
      }
    ]
  }
}