{
  "key": "ade094b7770be54b16d8f2e1350935483b19cacb910aefdd86f0b8ad1a395694",
  "tool": "PlaceSearch_kakao",
  "created_at": "2025-10-27T16:46:37.905179",
  "input_params": {
    "keyword": "대학",
    "page": 1,
    "radius": 2000,
    "size": 10,
    "sort": "distance",
    "x": 127.0442,
    "y": 37.5976
  },
  "raw_args": {
    "size": 10,
    "x": 127.0442,
    "y": 37.5976,
    "page": 1,
    "sort": "distance",
    "keyword": "대학",
    "radius": 2000
  },
  "data": {
    "keyword": "대학",
    "total_count": 562,
    "places": [
      {
        "name": "경희대학교 서울캠퍼스 미술대학",
        "latitude": 37.5957830757409,
        "longitude": 127.048595681971,
        "address": "서울 동대문구 회기동 1-5",
        "road_address": "서울 동대문구 경희대로 26",
        "phone": "02-961-0631",
        "category": "교육,학문 > 학교부속시설",
        "distance": "437"
      },
      {
        "name": "경희대학교 서울캠퍼스 미원관",
        "latitude": 37.5979991446617,
        "longitude": 127.049484907289,
        "address": "서울 동대문구 회기동 1-5",
        "road_address": "서울 동대문구 경희대로 26",
        "phone": "",
        "category": "교육,학문 > 학교부속시설",
        "distance": "468"
      },
      {
        "name": "서울대학교 사범대학부설중학교 행정실",
        "latitude": 37.595808197942,
        "longitude": 127.039188180289,
        "address": "서울 성북구 종암동 7-10",
        "road_address": "서울 성북구 월곡로 36",
        "phone": "",
        "category": "교육,학문 > 학교부속시설",
        "distance": "485"
      },
      {
        "name": "서울대학교사범대학 부설중학교",
        "latitude": 37.59580460074253,
        "longitude": 127.03916779620215,
        "address": "서울 성북구 종암동 7-10",
        "road_address": "서울 성북구 월곡로 36",
        "phone": "02-943-5812",
        "category": "교육,학문 > 학교 > 중학교",
        "distance": "486"
      },
      {
        "name": "서울대학교 사범대학부설중학교 교무실",
        "latitude": 37.59579019051193,
        "longitude": 127.03915080348524,
        "address": "서울 성북구 종암동 7-10",
        "road_address": "서울 성북구 월곡로 36",
        "phone": "02-943-5812",
        "category": "교육,학문 > 학교부속시설",
        "distance": "488"
      },
      {
        "name": "한국과학기술원 경영대학",
        "latitude": 37.5931133570962,
        "longitude": 127.046560328584,
        "address": "서울 동대문구 청량리동 207-43",
        "road_address": "서울 동대문구 회기로 85",
        "phone": "02-958-3211",
        "category": "교육,학문 > 학교부속시설",
        "distance": "540"
      },
      {
        "name": "KAIST 서울캠퍼스",
        "latitude": 37.5926754214934,
        "longitude": 127.04669593138594,
        "address": "서울 동대문구 청량리동 207-43",
        "road_address": "서울 동대문구 회기로 85",
        "phone": "",
        "category": "교육,학문 > 학교 > 대학교",
        "distance": "589"
      },
      {
        "name": "경희대학교 서울캠퍼스 국제교육원",
        "latitude": 37.5960560189711,
        "longitude": 127.050869614699,
        "address": "서울 동대문구 회기동 1-5",
        "road_address": "서울 동대문구 경희대로 26",
        "phone": "02-961-0081",
        "category": "교육,학문 > 학교부속시설",
        "distance": "613"
      },
      {
        "name": "경희대학교 주차장3",
        "latitude": 37.5945102397248,
        "longitude": 127.050116698782,
        "address": "서울 동대문구 회기동 1-5",
        "road_address": "서울 동대문구 경희대로 26",
        "phone": "",
        "category": "교통,수송 > 교통시설 > 주차장",
        "distance": "625"
      },
      {
        "name": "와플대학 동덕여대캠퍼스",
        "latitude": 37.6028711259359,
        "longitude": 127.041642510055,
        "address": "서울 성북구 하월곡동 92-7",
        "road_address": "서울 성북구 화랑로11길 12",
        "phone": "02-942-7526",
        "category": "음식점 > 간식 > 제과,베이커리 > 와플대학",
        "distance": "626"
      }
    ]
  }
}