{
  "key": "e01622da9b5bccf076fc8d7c3af16bc0e19879f9913dacb31daa0efca3df8832",
  "tool": "PlaceSearch_kakao",
  "created_at": "2025-12-19T02:49:12.735900",
  "input_params": {
    "keyword": "대학교",
    "radius": 2000,
    "sort": "accuracy",
    "x": 127.0219,
    "y": 37.5624
  },
  "raw_args": {
    "x": 127.0219,
    "y": 37.5624,
    "keyword": "대학교",
    "radius": 2000
  },
  "data": {
    "keyword": "대학교",
    "total_count": 150,
    "places": [
      {
        "name": "동국대학교 서울캠퍼스",
        "latitude": 37.55808646250296,
        "longitude": 127.00090541880259,
        "address": "서울 중구 필동3가 26-1",
        "road_address": "서울 중구 필동로1길 30",
        "phone": "02-2260-3114",
        "category": "교육,학문 > 학교 > 대학교",
        "distance": "1915"
      },
      {
        "name": "서울장로회신학",
        "latitude": 37.5747437255258,
        "longitude": 127.022561269005,
        "address": "서울 종로구 숭인동 1370",
        "road_address": "",
        "phone": "02-2238-6305",
        "category": "교육,학문 > 학교 > 대학교",
        "distance": "1371"
      },
      {
        "name": "한양대학교병원",
        "latitude": 37.559672992601826,
        "longitude": 127.04410614745778,
        "address": "서울 성동구 사근동 110",
        "road_address": "서울 성동구 왕십리로 222-1",
        "phone": "02-2290-8114",
        "category": "의료,건강 > 병원 > 대학병원",
        "distance": "1985"
      },
      {
        "name": "동국대학교 서울캠퍼스 이해랑예술극장",
        "latitude": 37.5583152728918,
        "longitude": 127.003309315842,
        "address": "서울 중구 장충동2가 192-5",
        "road_address": "서울 중구 필동로1길 30",
        "phone": "02-2260-8563",
        "category": "문화,예술 > 문화시설 > 공연장,연극극장",
        "distance": "1703"
      },
      {
        "name": "동국대학교 혜화관",
        "latitude": 37.5577530821104,
        "longitude": 127.001874208571,
        "address": "서울 중구 장충동2가 192-5",
        "road_address": "서울 중구 필동로1길 30",
        "phone": "",
        "category": "교육,학문 > 학교부속시설",
        "distance": "1842"
      },
      {
        "name": "와플대학 신금호역캠퍼스",
        "latitude": 37.55433940537313,
        "longitude": 127.01952211529778,
        "address": "서울 성동구 금호동2가 326",
        "road_address": "서울 성동구 금호산길 67",
        "phone": "02-2234-7922",
        "category": "음식점 > 간식 > 제과,베이커리 > 와플대학",
        "distance": "919"
      },
      {
        "name": "한양대학교병원 장례식장",
        "latitude": 37.5598516591496,
        "longitude": 127.04337963710033,
        "address": "서울 성동구 사근동 110",
        "road_address": "서울 성동구 왕십리로 222-1",
        "phone": "02-2290-9442",
        "category": "가정,생활 > 장례 > 장례식장",
        "distance": "1918"
      },
      {
        "name": "한양대학교 동문회관",
        "latitude": 37.5595549385814,
        "longitude": 127.04169082599,
        "address": "서울 성동구 행당동 15-1",
        "road_address": "서울 성동구 마조로 22-2",
        "phone": "",
        "category": "교육,학문 > 학교부속시설",
        "distance": "1776"
      },
      {
        "name": "동국대학교 경영관",
        "latitude": 37.5570106388401,
        "longitude": 127.002928987716,
        "address": "서울 중구 장충동2가 192-5",
        "road_address": "서울 중구 필동로1길 30",
        "phone": "",
        "category": "교육,학문 > 학교부속시설",
        "distance": "1779"
      },
      {
        "name": "동국대학교 문화관",
        "latitude": 37.55779360207944,
        "longitude": 127.00306483065141,
        "address": "서울 중구 필동3가 26-1",
        "road_address": "서울 중구 필동로1길 30",
        "phone": "",
        "category": "교육,학문 > 학교부속시설",
        "distance": "1740"
      },
      {
        "name": "동국대학교 학술관",
        "latitude": 37.5581170454403,
        "longitude": 127.003585459923,
        "address": "서울 중구 장충동2가 192-5",
        "road_address": "서울 중구 필동로1길 30",
        "phone": "",
        "category": "교육,학문 > 학교부속시설",
        "distance": "1686"
      },
      {
        "name": "성동구민대학",
        "latitude": 37.5593117369577,
        "longitude": 127.036009094802,
        "address": "서울 성동구 행당동 142-16",
        "road_address": "서울 성동구 왕십리로 281",
        "phone": "",
        "category": "교육,학문 > 문화센터",
        "distance": "1292"
      },
      {
        "name": "동국대학교 사회과학관",
        "latitude": 37.5576737789098,
        "longitude": 127.002675497806,
        "address": "서울 중구 장충동2가 192-5",
        "road_address": "서울 중구 필동로1길 30",
        "phone": "",
        "category": "교육,학문 > 학교부속시설",
        "distance": "1777"
      },
      {
        "name": "한양대학교 동문회관 주차장",
        "latitude": 37.5594327699952,
        "longitude": 127.041926623745,
        "address": "서울 성동구 사근동 110",
        "road_address": "서울 성동구 왕십리로 222",
        "phone": "",
        "category": "교통,수송 > 교통시설 > 주차장",
        "distance": "1799"
      },
      {
        "name": "동국대학교 이해랑문화예술극장",
        "latitude": 37.558289144415845,
        "longitude": 127.00329346981475,
        "address": "서울 중구 필동3가 26-1",
        "road_address": "서울 중구 필동로1길 30",
        "phone": "",
        "category": "문화,예술 > 문화시설 > 공연장,연극극장",
        "distance": "1705"
      }
    ]
  }
}