{
  "key": "e0fa76bab91e078cb40a63136234d61172a8182efadcc238b1e4724d38d5d1d7",
  "tool": "PlaceSearch_kakao",
  "created_at": "2025-12-14T14:26:20.836177",
  "input_params": {
    "keyword": "경희대학교",
    "page": 1,
    "radius": 5000,
    "size": 15,
    "sort": "distance",
    "x": 127.0479,
    "y": 37.5803
  },
  "raw_args": {
    "keyword": "경희대학교",
    "x": 127.0479,
    "y": 37.5803,
    "page": 1,
    "size": 15,
    "radius": 5000,
    "sort": "distance"
  },
  "data": {
    "keyword": "경희대학교",
    "total_count": 541,
    "places": [
      {
        "name": "경희사이버대학교 아카피스관",
        "latitude": 37.5884621720599,
        "longitude": 127.042481391654,
        "address": "서울 동대문구 청량리동 205-35",
        "road_address": "서울 동대문구 홍릉로 91",
        "phone": "02-3299-8793",
        "category": "교육,학문 > 학교 > 사이버대학",
        "distance": "1024"
      },
      {
        "name": "민족통일MJ캠퍼스경희대아파트",
        "latitude": 37.58863421714388,
        "longitude": 127.05365325990137,
        "address": "서울 동대문구 회기동 67-3",
        "road_address": "서울 동대문구 이문로 3",
        "phone": "",
        "category": "부동산 > 주거시설 > 아파트",
        "distance": "1055"
      },
      {
        "name": "민족통일MJ캠퍼스경희대2차아파트",
        "latitude": 37.5889214740911,
        "longitude": 127.054003328293,
        "address": "서울 동대문구 회기동 65-39",
        "road_address": "서울 동대문구 이문로 7",
        "phone": "",
        "category": "부동산 > 주거시설 > 아파트",
        "distance": "1098"
      },
      {
        "name": "태비박사 경희대태권도",
        "latitude": 37.5776242317501,
        "longitude": 127.060773997502,
        "address": "서울 동대문구 전농동 10",
        "road_address": "서울 동대문구 사가정로 148",
        "phone": "02-2214-7770",
        "category": "스포츠,레저 > 무예 > 태권도 > 태권도장",
        "distance": "1175"
      },
      {
        "name": "경희대국제과정앤드류스대학교",
        "latitude": 37.589577992931,
        "longitude": 127.054665036667,
        "address": "서울 동대문구 회기동 351",
        "road_address": "서울 동대문구 회기로26길 15",
        "phone": "02-3284-0501",
        "category": "교육,학문 > 학교부속시설",
        "distance": "1190"
      },
      {
        "name": "경희대효태권도",
        "latitude": 37.5702622573494,
        "longitude": 127.042027325135,
        "address": "서울 성동구 마장동 818",
        "road_address": "서울 성동구 마장로35길 76",
        "phone": "02-2282-6222",
        "category": "스포츠,레저 > 무예 > 태권도 > 태권도장",
        "distance": "1229"
      },
      {
        "name": "아임파이 경희대점",
        "latitude": 37.5913182751195,
        "longitude": 127.049525774546,
        "address": "서울 동대문구 회기동 60-139",
        "road_address": "서울 동대문구 회기로 116-1",
        "phone": "010-2609-1182",
        "category": "음식점 > 카페 > 테마카페 > 디저트카페",
        "distance": "1231"
      },
      {
        "name": "안씨네원조쭈꾸미 경희대직영점",
        "latitude": 37.5900410923171,
        "longitude": 127.05468802051045,
        "address": "서울 동대문구 회기동 75",
        "road_address": "서울 동대문구 이문로 17-26",
        "phone": "02-969-7668",
        "category": "음식점 > 한식 > 해물,생선",
        "distance": "1236"
      },
      {
        "name": "뮤즈타운 음악연습실 경희대점",
        "latitude": 37.5900501022365,
        "longitude": 127.054688027103,
        "address": "서울 동대문구 회기동 75",
        "road_address": "서울 동대문구 이문로 17-26",
        "phone": "010-4572-1174",
        "category": "서비스,산업 > 전문대행 > 공간대여",
        "distance": "1236"
      },
      {
        "name": "해피하우스 경희대점",
        "latitude": 37.5913279720984,
        "longitude": 127.050033040881,
        "address": "서울 동대문구 회기동 60-125",
        "road_address": "서울 동대문구 회기로 122",
        "phone": "02-960-0045",
        "category": "부동산 > 주거시설 > 고시원,고시텔",
        "distance": "1238"
      },
      {
        "name": "픽셀하우스 경희대점",
        "latitude": 37.5913387840001,
        "longitude": 127.050033048119,
        "address": "서울 동대문구 회기동 60-125",
        "road_address": "서울 동대문구 회기로 122",
        "phone": "",
        "category": "부동산 > 주거시설 > 고시원,고시텔",
        "distance": "1239"
      },
      {
        "name": "런드리익스프레스샵 경희대정문점",
        "latitude": 37.5913170784469,
        "longitude": 127.050225520579,
        "address": "서울 동대문구 회기동 60-122",
        "road_address": "서울 동대문구 회기로 124",
        "phone": "070-5118-0541",
        "category": "가정,생활 > 세탁소 > 셀프빨래방 > 런드리익스프레스",
        "distance": "1239"
      },
      {
        "name": "솔리드웍스 경희대점",
        "latitude": 37.59019615613555,
        "longitude": 127.05448659179427,
        "address": "서울 동대문구 회기동 62-1",
        "road_address": "서울 동대문구 회기로26길 6",
        "phone": "070-8065-1438",
        "category": "음식점 > 간식 > 아이스크림",
        "distance": "1243"
      },
      {
        "name": "월드베이프 경희대점",
        "latitude": 37.5911453030292,
        "longitude": 127.051586398264,
        "address": "서울 동대문구 회기동 105-31",
        "road_address": "서울 동대문구 회기로 136",
        "phone": "",
        "category": "서비스,산업 > 식품 > 담배 > 전자담배",
        "distance": "1247"
      },
      {
        "name": "펠어커피 경희대점",
        "latitude": 37.59116237728675,
        "longitude": 127.0516883147142,
        "address": "서울 동대문구 회기동 103-55",
        "road_address": "서울 동대문구 회기로 136-1",
        "phone": "070-4032-3824",
        "category": "음식점 > 카페 > 커피전문점",
        "distance": "1251"
      }
    ]
  }
}