{
  "key": "b40ac0c62c7d4d636a41c6cdf485ff5a49f1714eaca5d14b3dc40e00fdd393ef",
  "tool": "PlaceSearch_kakao",
  "created_at": "2025-12-15T13:57:53.995044",
  "input_params": {
    "keyword": "롯데월드 주차장",
    "size": 5,
    "sort": "accuracy"
  },
  "raw_args": {
    "keyword": "롯데월드 주차장",
    "size": 5,
    "sort": "accuracy"
  },
  "data": {
    "keyword": "롯데월드 주차장",
    "total_count": 412,
    "places": [
      {
        "name": "롯데월드 어드벤처",
        "latitude": 37.51113059993883,
        "longitude": 127.09811980036908,
        "address": "서울 송파구 잠실동 40-1",
        "road_address": "서울 송파구 올림픽로 240",
        "phone": "1661-2000",
        "category": "여행 > 관광,명소 > 테마파크",
        "distance": ""
      },
      {
        "name": "롯데호텔월드 어드벤처주차장",
        "latitude": 37.51021098266273,
        "longitude": 127.09883115796588,
        "address": "서울 송파구 잠실동 40-1",
        "road_address": "서울 송파구 올림픽로 240",
        "phone": "",
        "category": "교통,수송 > 교통시설 > 주차장",
        "distance": ""
      },
      {
        "name": "롯데월드 주차장",
        "latitude": 37.51043638474012,
        "longitude": 127.09865048664251,
        "address": "서울 송파구 잠실동 40-1",
        "road_address": "서울 송파구 올림픽로 240",
        "phone": "02-411-5574",
        "category": "교통,수송 > 교통시설 > 주차장",
        "distance": ""
      },
      {
        "name": "서호1공영주차장",
        "latitude": 37.51049739804304,
        "longitude": 127.10108346435801,
        "address": "서울 송파구 잠실동 47",
        "road_address": "",
        "phone": "",
        "category": "교통,수송 > 교통시설 > 주차장 > 공영주차장",
        "distance": ""
      },
      {
        "name": "서울놀이마당 공영주차장",
        "latitude": 37.508889239438,
        "longitude": 127.097711957814,
        "address": "서울 송파구 잠실동 47",
        "road_address": "서울 송파구 삼학사로 136",
        "phone": "02-2157-1093",
        "category": "교통,수송 > 교통시설 > 주차장 > 공영주차장",
        "distance": ""
      }
    ]
  }
}