{
  "key": "cea70ed3ffd28e92be955bd4f6fcb4fab3508d95bc438adf67d6988a62df3c78",
  "tool": "PlaceSearch_kakao",
  "created_at": "2025-10-27T02:11:55.214887",
  "input_params": {
    "keyword": "대학교",
    "page": 1,
    "size": 5,
    "sort": "accuracy",
    "x": 127.0343,
    "y": 37.5892
  },
  "raw_args": {
    "keyword": "대학교",
    "x": 127.0343,
    "y": 37.5892,
    "page": 1,
    "size": 5
  },
  "data": {
    "keyword": "대학교",
    "total_count": 26287,
    "places": [
      {
        "name": "고려대학교 서울캠퍼스",
        "latitude": 37.589526761187834,
        "longitude": 127.03231892661324,
        "address": "서울 성북구 안암동5가 1-2",
        "road_address": "서울 성북구 안암로 145",
        "phone": "02-3290-1114",
        "category": "교육,학문 > 학교 > 대학교",
        "distance": "178"
      },
      {
        "name": "성신여자대학교 돈암수정캠퍼스",
        "latitude": 37.5916680669509,
        "longitude": 127.022129316251,
        "address": "서울 성북구 돈암동 173-1",
        "road_address": "서울 성북구 보문로34다길 2",
        "phone": "02-920-7114",
        "category": "교육,학문 > 학교 > 대학교",
        "distance": "1109"
      },
      {
        "name": "KAIST 서울캠퍼스",
        "latitude": 37.5926754214934,
        "longitude": 127.04669593138594,
        "address": "서울 동대문구 청량리동 207-43",
        "road_address": "서울 동대문구 회기로 85",
        "phone": "",
        "category": "교육,학문 > 학교 > 대학교",
        "distance": "1160"
      },
      {
        "name": "경희대학교 서울캠퍼스",
        "latitude": 37.5971656623384,
        "longitude": 127.05173889409078,
        "address": "서울 동대문구 회기동 1-5",
        "road_address": "서울 동대문구 경희대로 26",
        "phone": "02-961-0114",
        "category": "교육,학문 > 학교 > 대학교",
        "distance": "1776"
      },
      {
        "name": "동덕여자대학교",
        "latitude": 37.6069903921957,
        "longitude": 127.041812418483,
        "address": "서울 성북구 하월곡동 23-1",
        "road_address": "서울 성북구 화랑로13길 60",
        "phone": "02-940-4000",
        "category": "교육,학문 > 학교 > 대학교",
        "distance": "2083"
      }
    ]
  }
}