{
  "key": "eb1dc6c8ad7efc18b085808e26b88fe80e2b8d609015e32c20f5b29ebebcd80c",
  "tool": "PlaceSearch_kakao",
  "created_at": "2025-10-26T22:20:51.340505",
  "input_params": {
    "keyword": "병원",
    "page": 1,
    "radius": 500,
    "size": 10,
    "sort": "distance",
    "x": 127.005631953011,
    "y": 37.5613821786352
  },
  "raw_args": {
    "keyword": "병원",
    "x": 127.005631953011,
    "y": 37.5613821786352,
    "page": 1,
    "size": 10,
    "radius": 500,
    "sort": "distance"
  },
  "data": {
    "keyword": "병원",
    "total_count": 15,
    "places": [
      {
        "name": "대한간호협회 병원간호사회",
        "latitude": 37.5609929211057,
        "longitude": 127.006170668824,
        "address": "서울 중구 장충동1가 56-13",
        "road_address": "서울 중구 장충단로 182",
        "phone": "02-2261-1711",
        "category": "사회,공공기관 > 단체,협회",
        "distance": "64"
      },
      {
        "name": "병원간호사회",
        "latitude": 37.5609460660025,
        "longitude": 127.006232914881,
        "address": "서울 중구 장충동1가 56-13",
        "road_address": "서울 중구 장충단로 182",
        "phone": "02-2261-1711",
        "category": "사회,공공기관 > 단체,협회 > 사회복지단체",
        "distance": "71"
      },
      {
        "name": "연세드림비뇨기과",
        "latitude": 37.5622795352666,
        "longitude": 127.006342814151,
        "address": "서울 중구 쌍림동 248-2",
        "road_address": "서울 중구 장충단로 195",
        "phone": "02-2263-8272",
        "category": "의료,건강 > 병원 > 비뇨기과",
        "distance": "117"
      },
      {
        "name": "장충한의원",
        "latitude": 37.56243991308358,
        "longitude": 127.00633490487202,
        "address": "서울 중구 쌍림동 248-1",
        "road_address": "서울 중구 장충단로 197",
        "phone": "02-2277-7975",
        "category": "의료,건강 > 병원 > 한의원",
        "distance": "132"
      },
      {
        "name": "수내과의원",
        "latitude": 37.5624381104218,
        "longitude": 127.006347354952,
        "address": "서울 중구 쌍림동 248-1",
        "road_address": "서울 중구 장충단로 197",
        "phone": "02-582-1122",
        "category": "의료,건강 > 병원 > 내과",
        "distance": "133"
      },
      {
        "name": "한사랑의원",
        "latitude": 37.5627480456049,
        "longitude": 127.006487729905,
        "address": "서울 중구 장충동1가 26-16",
        "road_address": "서울 중구 장충단로 201",
        "phone": "02-2277-4707",
        "category": "의료,건강 > 병원 > 일반의원",
        "distance": "169"
      },
      {
        "name": "민일치과의원",
        "latitude": 37.5633498736259,
        "longitude": 127.007139729491,
        "address": "서울 중구 장충동1가 26-11",
        "road_address": "서울 중구 장충단로 210",
        "phone": "02-2285-2828",
        "category": "의료,건강 > 병원 > 치과",
        "distance": "255"
      },
      {
        "name": "레이킴치과의원",
        "latitude": 37.56307614344,
        "longitude": 127.003191814126,
        "address": "서울 중구 쌍림동 151-9",
        "road_address": "서울 중구 퇴계로 282",
        "phone": "02-2266-2875",
        "category": "의료,건강 > 병원 > 치과",
        "distance": "286"
      },
      {
        "name": "뉴브레인의원",
        "latitude": 37.56391297649029,
        "longitude": 127.00746123193576,
        "address": "서울 중구 광희동2가 319",
        "road_address": "서울 중구 퇴계로 320",
        "phone": "02-2265-5110",
        "category": "의료,건강 > 병원 > 정신건강의학과",
        "distance": "323"
      },
      {
        "name": "선우엔조신경과의원",
        "latitude": 37.5639192843223,
        "longitude": 127.007447650224,
        "address": "서울 중구 광희동2가 319",
        "road_address": "서울 중구 퇴계로 320",
        "phone": "02-2268-1400",
        "category": "의료,건강 > 병원 > 신경과",
        "distance": "324"
      }
    ]
  }
}