{
  "key": "eba755f301c3f7cbbc01e71dcb2069bb39b45f01bd92c612869ce1324ef0f32a",
  "tool": "PlaceSearch_kakao",
  "created_at": "2025-10-27T07:37:52.253514",
  "input_params": {
    "keyword": "강남역 디저트 카페",
    "size": 5,
    "sort": "accuracy"
  },
  "raw_args": {
    "keyword": "강남역 디저트 카페",
    "size": 5,
    "sort": "accuracy"
  },
  "data": {
    "keyword": "강남역 디저트 카페",
    "total_count": 432,
    "places": [
      {
        "name": "장꼬방",
        "latitude": 37.498331428974,
        "longitude": 127.023807097178,
        "address": "서울 서초구 서초동 1316",
        "road_address": "서울 서초구 강남대로61길 27",
        "phone": "02-597-5511",
        "category": "음식점 > 카페 > 테마카페 > 디저트카페",
        "distance": ""
      },
      {
        "name": "썸띵어바웃커피",
        "latitude": 37.502824775159816,
        "longitude": 127.02779847587531,
        "address": "서울 강남구 역삼동 618-16",
        "road_address": "서울 강남구 강남대로102길 30",
        "phone": "",
        "category": "음식점 > 카페 > 테마카페 > 디저트카페",
        "distance": ""
      },
      {
        "name": "까치화방 강남역점",
        "latitude": 37.503303460371576,
        "longitude": 127.02670955234811,
        "address": "서울 강남구 역삼동 811-13",
        "road_address": "서울 강남구 봉은사로4길 23",
        "phone": "02-558-5533",
        "category": "음식점 > 카페 > 테마카페 > 디저트카페",
        "distance": ""
      },
      {
        "name": "크리에잇쿠키 역삼점",
        "latitude": 37.50292193725799,
        "longitude": 127.03511569524726,
        "address": "서울 강남구 역삼동 641-1",
        "road_address": "서울 강남구 테헤란로25길 36",
        "phone": "02-558-8890",
        "category": "음식점 > 카페 > 테마카페 > 디저트카페",
        "distance": ""
      },
      {
        "name": "소과당",
        "latitude": 37.499734261007006,
        "longitude": 127.02806874426594,
        "address": "서울 강남구 역삼동 818-1",
        "road_address": "서울 강남구 강남대로96길 12",
        "phone": "02-538-8188",
        "category": "음식점 > 카페 > 테마카페 > 디저트카페",
        "distance": ""
      }
    ]
  }
}