{
  "key": "ebb618c1be245112dc32b86d234932ef5243be39f5780e2fb8628aa147bb9558",
  "tool": "PlaceSearch_kakao",
  "created_at": "2025-10-27T01:46:20.136713",
  "input_params": {
    "keyword": "디저트 카페",
    "radius": 1000,
    "sort": "accuracy",
    "x": 127.0477,
    "y": 37.4979
  },
  "raw_args": {
    "keyword": "디저트 카페",
    "x": 127.0477,
    "y": 37.4979,
    "radius": 1000
  },
  "data": {
    "keyword": "디저트 카페",
    "total_count": 49,
    "places": [
      {
        "name": "껠끄쇼즈",
        "latitude": 37.4969939760406,
        "longitude": 127.056623962964,
        "address": "서울 강남구 대치동 1023-19",
        "road_address": "서울 강남구 도곡로70길 5",
        "phone": "",
        "category": "음식점 > 카페 > 테마카페 > 디저트카페",
        "distance": "795"
      },
      {
        "name": "나따오비까 대치점",
        "latitude": 37.49818433941,
        "longitude": 127.054421929553,
        "address": "서울 강남구 대치동 935-3",
        "road_address": "서울 강남구 선릉로64길 26",
        "phone": "02-558-8618",
        "category": "음식점 > 카페 > 테마카페 > 디저트카페",
        "distance": "595"
      },
      {
        "name": "모찌방",
        "latitude": 37.5025089426041,
        "longitude": 127.054909108028,
        "address": "서울 강남구 대치동 905-21",
        "road_address": "서울 강남구 삼성로75길 41",
        "phone": "070-4007-6851",
        "category": "음식점 > 카페 > 테마카페 > 디저트카페",
        "distance": "817"
      },
      {
        "name": "설빙 선릉점",
        "latitude": 37.503009242017356,
        "longitude": 127.04816001565429,
        "address": "서울 강남구 역삼동 708-32",
        "road_address": "서울 강남구 테헤란로52길 17",
        "phone": "02-564-9192",
        "category": "음식점 > 카페 > 테마카페 > 디저트카페 > 설빙",
        "distance": "568"
      },
      {
        "name": "소운빙 한티역점",
        "latitude": 37.499090739984176,
        "longitude": 127.0524559829081,
        "address": "서울 강남구 대치동 921-17",
        "road_address": "서울 강남구 선릉로68길 9",
        "phone": "02-539-3455",
        "category": "음식점 > 카페 > 테마카페 > 디저트카페",
        "distance": "440"
      },
      {
        "name": "설빙 서울대치점",
        "latitude": 37.49807141916888,
        "longitude": 127.05505739485612,
        "address": "서울 강남구 대치동 935-26",
        "road_address": "서울 강남구 선릉로62길 33",
        "phone": "",
        "category": "음식점 > 카페 > 테마카페 > 디저트카페 > 설빙",
        "distance": "651"
      },
      {
        "name": "시오베이커리카페",
        "latitude": 37.4969566222888,
        "longitude": 127.040008352584,
        "address": "서울 강남구 역삼동 733",
        "road_address": "서울 강남구 논현로76길 12",
        "phone": "",
        "category": "음식점 > 카페 > 테마카페 > 디저트카페",
        "distance": "688"
      },
      {
        "name": "오와케이크 선릉점",
        "latitude": 37.50018864951949,
        "longitude": 127.05135412447446,
        "address": "서울 강남구 대치동 908-20",
        "road_address": "서울 강남구 선릉로 340",
        "phone": "0503-7153-1853",
        "category": "음식점 > 카페 > 테마카페 > 디저트카페",
        "distance": "411"
      },
      {
        "name": "지유가오카핫초메 선릉점",
        "latitude": 37.502748306799845,
        "longitude": 127.0472777167518,
        "address": "서울 강남구 역삼동 709-5",
        "road_address": "서울 강남구 테헤란로52길 16",
        "phone": "070-8804-6226",
        "category": "음식점 > 카페 > 테마카페 > 디저트카페",
        "distance": "539"
      },
      {
        "name": "아임크레페",
        "latitude": 37.4987071334808,
        "longitude": 127.053963173063,
        "address": "서울 강남구 대치동 924-5",
        "road_address": "서울 강남구 도곡로63길 26",
        "phone": "010-7444-4895",
        "category": "음식점 > 카페 > 테마카페 > 디저트카페",
        "distance": "561"
      },
      {
        "name": "요거트아이스크림의정석 역삼점",
        "latitude": 37.499451640103366,
        "longitude": 127.04467007260565,
        "address": "서울 강남구 역삼동 711-6",
        "road_address": "서울 강남구 언주로 408",
        "phone": "070-4121-7731",
        "category": "음식점 > 카페 > 테마카페 > 디저트카페 > 요거트아이스크림의정석",
        "distance": "318"
      },
      {
        "name": "더스노우 대치본점",
        "latitude": 37.501212349697774,
        "longitude": 127.05099067114706,
        "address": "서울 강남구 대치동 907-1",
        "road_address": "서울 강남구 선릉로76길 4",
        "phone": "",
        "category": "음식점 > 카페 > 테마카페 > 디저트카페",
        "distance": "469"
      },
      {
        "name": "디저트39 대치점",
        "latitude": 37.4982455347761,
        "longitude": 127.05458029571,
        "address": "서울 강남구 대치동 935-4",
        "road_address": "서울 강남구 선릉로64길 28",
        "phone": "02-552-0702",
        "category": "음식점 > 카페 > 테마카페 > 디저트카페 > 디저트39",
        "distance": "609"
      },
      {
        "name": "모너트",
        "latitude": 37.499041222284255,
        "longitude": 127.05237113214687,
        "address": "서울 강남구 대치동 921-16",
        "road_address": "서울 강남구 선릉로68길 7",
        "phone": "070-4798-1213",
        "category": "음식점 > 카페 > 테마카페 > 디저트카페",
        "distance": "432"
      },
      {
        "name": "요거트월드 대치점",
        "latitude": 37.4980461071681,
        "longitude": 127.053275130486,
        "address": "서울 강남구 대치동 923-23",
        "road_address": "서울 강남구 선릉로64길 11-2",
        "phone": "",
        "category": "음식점 > 카페 > 테마카페 > 디저트카페 > 요거트월드",
        "distance": "493"
      }
    ]
  }
}