{
  "key": "df4ebaaed76d34958b0df9021df000d5bb4adbac2a6084007fd03906d56acc84",
  "tool": "PlaceSearch_kakao",
  "created_at": "2025-10-28T14:18:01.459778",
  "input_params": {
    "keyword": "홍대입구역",
    "sort": "accuracy"
  },
  "raw_args": {
    "keyword": "홍대입구역"
  },
  "data": {
    "keyword": "홍대입구역",
    "total_count": 109,
    "places": [
      {
        "name": "홍대입구역 2호선",
        "latitude": 37.5568707448873,
        "longitude": 126.923778562273,
        "address": "서울 마포구 동교동 165",
        "road_address": "서울 마포구 양화로 지하 160",
        "phone": "02-6110-2391",
        "category": "교통,수송 > 지하철,전철 > 수도권2호선",
        "distance": ""
      },
      {
        "name": "홍대입구역 공항철도",
        "latitude": 37.5573052656667,
        "longitude": 126.927010430346,
        "address": "서울 마포구 동교동 190-1",
        "road_address": "서울 마포구 양화로 지하 188",
        "phone": "1599-7788",
        "category": "교통,수송 > 지하철,전철 > 공항철도",
        "distance": ""
      },
      {
        "name": "홍대입구역 경의중앙선",
        "latitude": 37.5574494922411,
        "longitude": 126.927118938976,
        "address": "서울 마포구 동교동 190-1",
        "road_address": "서울 마포구 양화로 지하 188",
        "phone": "1544-7788",
        "category": "교통,수송 > 지하철,전철 > 경의중앙선",
        "distance": ""
      },
      {
        "name": "올리브영 홍대입구역점",
        "latitude": 37.556257950840184,
        "longitude": 126.92359923889052,
        "address": "서울 마포구 동교동 165-8",
        "road_address": "서울 마포구 양화로 156",
        "phone": "02-3144-3963",
        "category": "가정,생활 > 드럭스토어 > 올리브영",
        "distance": ""
      },
      {
        "name": "홍대입구역사거리",
        "latitude": 37.5552258198989,
        "longitude": 126.921480562378,
        "address": "서울 마포구 서교동",
        "road_address": "",
        "phone": "",
        "category": "교통,수송 > 도로시설 > 교차로",
        "distance": ""
      },
      {
        "name": "홍대입구역센트럴아르떼해모로아파트 (2026년11월예정)",
        "latitude": 37.5582581984261,
        "longitude": 126.922270755365,
        "address": "서울 마포구 동교동 200-2",
        "road_address": "",
        "phone": "",
        "category": "부동산 > 주거시설 > 아파트",
        "distance": ""
      },
      {
        "name": "어반포트 홍대입구역 연남동주차장",
        "latitude": 37.56026908459442,
        "longitude": 126.92626846972861,
        "address": "서울 마포구 동교동 113-10",
        "road_address": "",
        "phone": "",
        "category": "교통,수송 > 교통시설 > 주차장",
        "distance": ""
      },
      {
        "name": "스시이안앤 홍대입구역",
        "latitude": 37.5562086801027,
        "longitude": 126.919948280374,
        "address": "서울 마포구 서교동 445-3",
        "road_address": "서울 마포구 월드컵북로 15",
        "phone": "02-322-8253",
        "category": "음식점 > 일식 > 초밥,롤",
        "distance": ""
      },
      {
        "name": "목구멍 홍대입구역점",
        "latitude": 37.55673432210162,
        "longitude": 126.92048190537612,
        "address": "서울 마포구 동교동 206-3",
        "road_address": "서울 마포구 월드컵북로4길 8",
        "phone": "010-5960-2930",
        "category": "음식점 > 한식 > 육류,고기 > 목구멍",
        "distance": ""
      },
      {
        "name": "투루파킹 홍대입구역점 주차장",
        "latitude": 37.557901812078,
        "longitude": 126.927150188005,
        "address": "서울 마포구 동교동 172-2",
        "road_address": "",
        "phone": "1688-1054",
        "category": "교통,수송 > 교통시설 > 주차장",
        "distance": ""
      },
      {
        "name": "벌툰 봉화당 홍대입구역점",
        "latitude": 37.5564499530999,
        "longitude": 126.925146143059,
        "address": "서울 마포구 동교동 169-11",
        "road_address": "서울 마포구 어울마당로 137",
        "phone": "02-333-5111",
        "category": "가정,생활 > 여가시설 > 만화방 > 만화카페 > 벌툰",
        "distance": ""
      },
      {
        "name": "홍대입구역청년주택아파트 (예정)",
        "latitude": 37.5582118114075,
        "longitude": 126.92724155999,
        "address": "서울 마포구 동교동 173-2",
        "road_address": "",
        "phone": "",
        "category": "부동산 > 주거시설 > 아파트",
        "distance": ""
      },
      {
        "name": "준오헤어 홍대입구역점",
        "latitude": 37.5576531796696,
        "longitude": 126.92435270277,
        "address": "서울 마포구 동교동 156-2",
        "road_address": "서울 마포구 양화로 175",
        "phone": "02-336-6050",
        "category": "가정,생활 > 미용 > 미용실 > 준오헤어",
        "distance": ""
      },
      {
        "name": "홀리핏 홍대입구역점",
        "latitude": 37.5581255813661,
        "longitude": 126.92767398145,
        "address": "서울 마포구 동교동 174-11",
        "road_address": "서울 마포구 신촌로 12",
        "phone": "0502-5550-4029",
        "category": "스포츠,레저 > 스포츠시설 > 헬스클럽",
        "distance": ""
      },
      {
        "name": "하루필름 홍대입구역직영2호점",
        "latitude": 37.555567768276404,
        "longitude": 126.92357051840348,
        "address": "서울 마포구 동교동 164-13",
        "road_address": "서울 마포구 어울마당로 121",
        "phone": "0507-1335-9197",
        "category": "문화,예술 > 사진 > 사진관,포토스튜디오 > 즉석사진 > 하루필름",
        "distance": ""
      }
    ]
  }
}