{
  "key": "e1647a1088eb8ad1bb8cffffd0673a1da7a959d821fa6cddc01ba0e44f64091a",
  "tool": "PlaceSearch_kakao",
  "created_at": "2025-10-15T02:07:18.572798",
  "input_params": {
    "keyword": "애플 매장",
    "sort": "distance",
    "x": 127.027636,
    "y": 37.49795
  },
  "raw_args": {
    "keyword": "애플 매장",
    "x": 127.027636,
    "y": 37.49795,
    "sort": "distance"
  },
  "data": {
    "keyword": "애플 매장",
    "total_count": 2674,
    "places": [
      {
        "name": "애플수리점",
        "latitude": 37.4981646510397,
        "longitude": 127.028307900881,
        "address": "서울 강남구 역삼동 858",
        "road_address": "서울 강남구 강남대로 지하 396",
        "phone": "",
        "category": "가정,생활 > 전자제품 > 전자제품서비스센터 > 휴대폰수리",
        "distance": "64"
      },
      {
        "name": "애플산부인과의원 강남",
        "latitude": 37.49806055250073,
        "longitude": 127.02650525969585,
        "address": "서울 서초구 서초동 1317-20",
        "road_address": "서울 서초구 서초대로77길 3",
        "phone": "02-530-8500",
        "category": "의료,건강 > 병원 > 산부인과",
        "distance": "100"
      },
      {
        "name": "SGI서울보증 강남애플대리점",
        "latitude": 37.4970491280208,
        "longitude": 127.028627510825,
        "address": "서울 강남구 역삼동 825-2",
        "road_address": "서울 강남구 강남대로 382",
        "phone": "02-508-0121",
        "category": "금융,보험 > 금융서비스 > 보험사 > SGI서울보증",
        "distance": "132"
      },
      {
        "name": "픽스119 강남점",
        "latitude": 37.4988249229656,
        "longitude": 127.028991200714,
        "address": "서울 강남구 역삼동 822-4",
        "road_address": "서울 강남구 테헤란로 109",
        "phone": "02-565-1192",
        "category": "가정,생활 > 전자제품 > 전자제품서비스센터 > 휴대폰수리",
        "distance": "154"
      },
      {
        "name": "애플픽스 강남점",
        "latitude": 37.4989716525114,
        "longitude": 127.029534080161,
        "address": "서울 강남구 역삼동 822-7",
        "road_address": "서울 강남구 테헤란로 113",
        "phone": "",
        "category": "가정,생활 > 전자제품 > 전자제품판매 > 휴대폰판매",
        "distance": "202"
      },
      {
        "name": "애플퀵 강남역점",
        "latitude": 37.4992609172713,
        "longitude": 127.025485625667,
        "address": "서울 서초구 서초동 1307-7",
        "road_address": "서울 서초구 강남대로61길 10",
        "phone": "",
        "category": "가정,생활 > 전자제품 > 전자제품서비스센터 > 통신기기수리",
        "distance": "239"
      },
      {
        "name": "KT 애플 공인 AS센터 강남점",
        "latitude": 37.49861270380347,
        "longitude": 127.0308955125936,
        "address": "서울 강남구 역삼동 824-20",
        "road_address": "서울 강남구 테헤란로 120",
        "phone": "02-557-0267",
        "category": "가정,생활 > 전자제품 > 전자제품서비스센터 > 통신기기수리",
        "distance": "297"
      },
      {
        "name": "애플네일",
        "latitude": 37.4959440809299,
        "longitude": 127.030283762299,
        "address": "서울 강남구 역삼동 826-34",
        "road_address": "서울 강남구 테헤란로4길 38-4",
        "phone": "",
        "category": "가정,생활 > 미용 > 네일샵",
        "distance": "323"
      },
      {
        "name": "애플119 서초점",
        "latitude": 37.4947912084022,
        "longitude": 127.028614209963,
        "address": "서울 서초구 서초동 1328-11",
        "road_address": "서울 서초구 강남대로 359",
        "phone": "02-567-1192",
        "category": "가정,생활 > 전자제품 > 전자제품서비스센터 > 휴대폰수리",
        "distance": "360"
      },
      {
        "name": "클린애플 강남본점",
        "latitude": 37.4947840047287,
        "longitude": 127.028596114134,
        "address": "서울 서초구 서초동 1328-11",
        "road_address": "서울 서초구 강남대로 359",
        "phone": "",
        "category": "가정,생활 > 전자제품 > 전자제품서비스센터 > 휴대폰수리",
        "distance": "361"
      },
      {
        "name": "더애플",
        "latitude": 37.4947840047287,
        "longitude": 127.028596114134,
        "address": "서울 서초구 서초동 1328-11",
        "road_address": "서울 서초구 강남대로 359",
        "phone": "02-522-0577",
        "category": "가정,생활 > 전자제품 > 전자제품서비스센터 > 휴대폰수리",
        "distance": "361"
      },
      {
        "name": "애플24시응급센터",
        "latitude": 37.4951943582696,
        "longitude": 127.030613660089,
        "address": "서울 강남구 역삼동 826-37",
        "road_address": "서울 강남구 테헤란로4길 46",
        "phone": "02-565-3119",
        "category": "가정,생활 > 전자제품 > 전자제품서비스센터 > 휴대폰수리",
        "distance": "403"
      },
      {
        "name": "사운즈오브애플 강남",
        "latitude": 37.4983185074689,
        "longitude": 127.032636932434,
        "address": "서울 강남구 역삼동 823-40",
        "road_address": "서울 강남구 테헤란로10길 11",
        "phone": "",
        "category": "음식점 > 카페",
        "distance": "444"
      },
      {
        "name": "애플체리에듀",
        "latitude": 37.4980624615923,
        "longitude": 127.033211301409,
        "address": "서울 강남구 역삼동 823-33",
        "road_address": "서울 강남구 논현로85길 58",
        "phone": "02-501-2333",
        "category": "서비스,산업 > 전문대행 > 유학,어학연수",
        "distance": "493"
      },
      {
        "name": "컴닥터 컴퓨터수리 애플맥북수리",
        "latitude": 37.501834369279706,
        "longitude": 127.02464283114905,
        "address": "서울 서초구 서초동 1309-8",
        "road_address": "서울 서초구 강남대로69길 8",
        "phone": "070-4276-0151",
        "category": "가정,생활 > 전자제품 > 전자제품서비스센터 > 컴퓨터수리",
        "distance": "505"
      }
    ]
  }
}