{
  "key": "e1bc8ef46ecc2b23a4890eacd6f06801904c393a74f7dc2746630a489e82c777",
  "tool": "PlaceSearch_kakao",
  "created_at": "2025-10-27T04:09:09.462685",
  "input_params": {
    "keyword": "주차장",
    "page": 1,
    "radius": 1000,
    "size": 5,
    "sort": "accuracy",
    "x": 127.05,
    "y": 37.3513
  },
  "raw_args": {
    "keyword": "주차장",
    "x": 127.05,
    "y": 37.3513,
    "page": 1,
    "size": 5,
    "radius": 1000
  },
  "data": {
    "keyword": "주차장",
    "total_count": 7,
    "places": [
      {
        "name": "산사랑 주차장",
        "latitude": 37.3539512254488,
        "longitude": 127.046088268921,
        "address": "경기 용인시 수지구 고기동 369",
        "road_address": "",
        "phone": "",
        "category": "교통,수송 > 교통시설 > 주차장",
        "distance": "454"
      },
      {
        "name": "다이노스타 제1주차장",
        "latitude": 37.35618507934854,
        "longitude": 127.05210692039269,
        "address": "경기 용인시 수지구 고기동 257-5",
        "road_address": "경기 용인시 수지구 동천로 593",
        "phone": "070-4334-1100",
        "category": "교통,수송 > 교통시설 > 주차장",
        "distance": "573"
      },
      {
        "name": "코울러 제2주차장",
        "latitude": 37.3577702395903,
        "longitude": 127.053559599779,
        "address": "경기 용인시 수지구 고기동 249-3",
        "road_address": "경기 용인시 수지구 동천로 617",
        "phone": "",
        "category": "교통,수송 > 교통시설 > 주차장",
        "distance": "784"
      },
      {
        "name": "뮤지엄그라운드 주차장",
        "latitude": 37.35647948196,
        "longitude": 127.043791701499,
        "address": "경기 용인시 수지구 고기동 400-14",
        "road_address": "",
        "phone": "",
        "category": "교통,수송 > 교통시설 > 주차장",
        "distance": "795"
      },
      {
        "name": "웹할인 봇 주차장",
        "latitude": 37.355688063939986,
        "longitude": 127.04463552986391,
        "address": "경기 용인시 수지구 고기동 399-55",
        "road_address": "",
        "phone": "",
        "category": "교통,수송 > 교통시설 > 주차장",
        "distance": "680"
      }
    ]
  }
}