{
  "key": "e1f2bf51fbecc6ce5e7c6c7386aa57a23c063c628f6d183a6d723fae6ea2e55f",
  "tool": "PlaceSearch_kakao",
  "created_at": "2025-12-15T14:51:11.286626",
  "input_params": {
    "keyword": "병원",
    "page": 1,
    "size": 10,
    "sort": "accuracy",
    "x": 127.0045786211564,
    "y": 37.586336176926416
  },
  "raw_args": {
    "x": 127.0045786211564,
    "y": 37.586336176926416,
    "keyword": "병원",
    "size": 10,
    "page": 1,
    "sort": "accuracy"
  },
  "data": {
    "keyword": "병원",
    "total_count": 89026,
    "places": [
      {
        "name": "서울대학교병원",
        "latitude": 37.5795346620418,
        "longitude": 126.99900375369114,
        "address": "서울 종로구 연건동 28-21",
        "road_address": "서울 종로구 대학로 101",
        "phone": "1588-5700",
        "category": "의료,건강 > 병원 > 대학병원",
        "distance": "901"
      },
      {
        "name": "서울대학교어린이병원",
        "latitude": 37.57941303091713,
        "longitude": 127.00052076426887,
        "address": "서울 종로구 연건동 28-21",
        "road_address": "서울 종로구 대학로 101",
        "phone": "02-2072-1282",
        "category": "의료,건강 > 병원 > 소아청소년과",
        "distance": "847"
      },
      {
        "name": "성북탑정형외과신경외과의원",
        "latitude": 37.588724670780465,
        "longitude": 127.00546870594503,
        "address": "서울 성북구 성북동1가 35-33",
        "road_address": "서울 성북구 성북로 3",
        "phone": "02-764-7777",
        "category": "의료,건강 > 병원 > 정형외과",
        "distance": "276"
      },
      {
        "name": "서울대학교치과병원",
        "latitude": 37.57772817265934,
        "longitude": 126.99968302019634,
        "address": "서울 종로구 연건동 28-21",
        "road_address": "서울 종로구 대학로 101",
        "phone": "1522-2700",
        "category": "의료,건강 > 병원 > 치과",
        "distance": "1048"
      },
      {
        "name": "김용철마취통증의학과의원",
        "latitude": 37.5824980254507,
        "longitude": 126.998527082022,
        "address": "서울 종로구 명륜4가 188-4",
        "road_address": "서울 종로구 창경궁로 234",
        "phone": "02-742-0333",
        "category": "의료,건강 > 병원 > 정형외과",
        "distance": "683"
      },
      {
        "name": "속편한내과의원 돈암",
        "latitude": 37.590799294061355,
        "longitude": 127.01074296525755,
        "address": "서울 성북구 동소문동4가 75-2",
        "road_address": "서울 성북구 동소문로 47",
        "phone": "1661-1082",
        "category": "의료,건강 > 병원 > 내과",
        "distance": "736"
      },
      {
        "name": "혜화영상의학과",
        "latitude": 37.58280796325329,
        "longitude": 126.99823837826689,
        "address": "서울 종로구 명륜4가 195-7",
        "road_address": "서울 종로구 창경궁로 233",
        "phone": "02-766-6117",
        "category": "의료,건강 > 병원 > 영상의학과",
        "distance": "683"
      },
      {
        "name": "연세이비인후과",
        "latitude": 37.58883267258801,
        "longitude": 127.0075893972884,
        "address": "서울 성북구 동소문동2가 16",
        "road_address": "서울 성북구 동소문로 12",
        "phone": "02-766-7582",
        "category": "의료,건강 > 병원 > 이비인후과",
        "distance": "384"
      },
      {
        "name": "서울대학교병원 암병원",
        "latitude": 37.5787787078733,
        "longitude": 126.997599976339,
        "address": "서울 종로구 연건동 28-21",
        "road_address": "서울 종로구 대학로 101",
        "phone": "02-2072-0707",
        "category": "의료,건강 > 병원 > 대학병원",
        "distance": "1040"
      },
      {
        "name": "성북김준비뇨의학과의원",
        "latitude": 37.5887796381555,
        "longitude": 127.005319254539,
        "address": "서울 성북구 성북동1가 35-31",
        "road_address": "서울 성북구 성북로 5-1",
        "phone": "02-747-8277",
        "category": "의료,건강 > 병원 > 비뇨기과",
        "distance": "279"
      }
    ]
  }
}