{
  "key": "d031bbb2b5c84607fa54ffed972f48bccee9ae5731b81e6d57658dffe20c5053",
  "tool": "PlaceSearch_kakao",
  "created_at": "2025-10-27T16:38:33.504283",
  "input_params": {
    "keyword": "디저트 카페",
    "radius": 100,
    "size": 5,
    "sort": "accuracy",
    "x": 127.498356
  },
  "raw_args": {
    "x": 127.498356,
    "sort": "accuracy",
    "keyword": "디저트 카페",
    "size": 5,
    "radius": 100
  },
  "data": {
    "keyword": "디저트 카페",
    "total_count": 25233,
    "places": [
      {
        "name": "이진상회",
        "latitude": 37.2790013345091,
        "longitude": 127.400001873652,
        "address": "경기 이천시 마장면 장암리 325",
        "road_address": "경기 이천시 마장면 서이천로 648",
        "phone": "070-8888-8882",
        "category": "음식점 > 카페 > 테마카페 > 디저트카페",
        "distance": ""
      },
      {
        "name": "스페이스작",
        "latitude": 37.50857446637493,
        "longitude": 126.80854008684967,
        "address": "경기 부천시 오정구 작동 407",
        "road_address": "경기 부천시 오정구 까치로20번길 13-7",
        "phone": "032-683-0077",
        "category": "음식점 > 카페 > 테마카페 > 디저트카페",
        "distance": ""
      },
      {
        "name": "프릳츠 도화점",
        "latitude": 37.54101958095724,
        "longitude": 126.94907049011894,
        "address": "서울 마포구 도화동 179-9",
        "road_address": "서울 마포구 새창로2길 17",
        "phone": "02-3275-2045",
        "category": "음식점 > 카페 > 테마카페 > 디저트카페",
        "distance": ""
      },
      {
        "name": "헤이든",
        "latitude": 35.28242806810881,
        "longitude": 129.25667283485808,
        "address": "부산 기장군 일광읍 동백리 449",
        "road_address": "부산 기장군 일광읍 문오성길 22",
        "phone": "051-728-4717",
        "category": "음식점 > 카페 > 테마카페 > 디저트카페",
        "distance": ""
      },
      {
        "name": "곳베이커리",
        "latitude": 37.8433720577454,
        "longitude": 128.872627309735,
        "address": "강원특별자치도 강릉시 사천면 사천진리 262-7",
        "road_address": "강원특별자치도 강릉시 사천면 진리해변길 143",
        "phone": "",
        "category": "음식점 > 카페 > 테마카페 > 디저트카페",
        "distance": ""
      }
    ]
  }
}