{
  "key": "d0d2aca686d3706c830c5250e5a80eb5a782e3773d48611012208bb9278a4177",
  "tool": "PlaceSearch_kakao",
  "created_at": "2025-10-27T16:35:54.364816",
  "input_params": {
    "keyword": "파스타",
    "page": 1,
    "radius": 2000,
    "size": 5,
    "sort": "distance",
    "x": 127.02758,
    "y": 37.4979
  },
  "raw_args": {
    "size": 5,
    "x": 127.02758,
    "y": 37.4979,
    "page": 1,
    "sort": "distance",
    "keyword": "파스타",
    "radius": 2000
  },
  "data": {
    "keyword": "파스타",
    "total_count": 422,
    "places": [
      {
        "name": "로리스더프라임립",
        "latitude": 37.49808140984054,
        "longitude": 127.02590025308936,
        "address": "서울 서초구 서초동 1317-23",
        "road_address": "서울 서초구 서초대로 411",
        "phone": "02-590-2800",
        "category": "음식점 > 양식 > 스테이크,립",
        "distance": "149"
      },
      {
        "name": "더플라잉팬 레드",
        "latitude": 37.4980931286224,
        "longitude": 127.025874247186,
        "address": "서울 서초구 서초동 1317-27",
        "road_address": "서울 서초구 서초대로 411",
        "phone": "02-590-2488",
        "category": "음식점 > 양식",
        "distance": "152"
      },
      {
        "name": "닥터로빈시그니처 서초점",
        "latitude": 37.4966332657545,
        "longitude": 127.026914121286,
        "address": "서울 서초구 서초동 1320-10",
        "road_address": "서울 서초구 서초대로74길 11",
        "phone": "02-522-3101",
        "category": "음식점 > 양식 > 이탈리안",
        "distance": "152"
      },
      {
        "name": "파머스포케 강남역점",
        "latitude": 37.4976670570902,
        "longitude": 127.029285907809,
        "address": "서울 강남구 역삼동 825-20",
        "road_address": "서울 강남구 테헤란로4길 6",
        "phone": "0507-2090-9584",
        "category": "음식점 > 샐러드",
        "distance": "153"
      },
      {
        "name": "오늘와인 한잔 강남역1번출구점",
        "latitude": 37.4977283224454,
        "longitude": 127.029298371216,
        "address": "서울 강남구 역삼동 825-20",
        "road_address": "서울 강남구 테헤란로4길 6",
        "phone": "02-555-9132",
        "category": "음식점 > 술집 > 와인바",
        "distance": "153"
      }
    ]
  }
}