{
  "key": "4d032739a71a883247d5e1de69134ebf227abe8aecd9258cbd4cfe8b847d2cf8",
  "tool": "PlaceSearch_kakao",
  "created_at": "2025-10-26T12:20:39.724354",
  "input_params": {
    "keyword": "케이크",
    "radius": 1000,
    "size": 15,
    "sort": "distance",
    "x": 127.0276,
    "y": 37.4979
  },
  "raw_args": {
    "keyword": "케이크",
    "x": 127.0276,
    "y": 37.4979,
    "radius": 1000,
    "sort": "distance",
    "size": 15
  },
  "data": {
    "keyword": "케이크",
    "total_count": 122,
    "places": [
      {
        "name": "떡담 강남역점",
        "latitude": 37.4981646510397,
        "longitude": 127.028307900881,
        "address": "서울 강남구 역삼동 858",
        "road_address": "서울 강남구 강남대로 지하 396",
        "phone": "1644-8222",
        "category": "음식점 > 간식 > 떡,한과 > 메고지고",
        "distance": "68"
      },
      {
        "name": "가배도 강남역점",
        "latitude": 37.49873895490302,
        "longitude": 127.02675089982188,
        "address": "서울 서초구 서초동 1318-2",
        "road_address": "서울 서초구 강남대로 405",
        "phone": "02-595-4542",
        "category": "음식점 > 카페",
        "distance": "119"
      },
      {
        "name": "레이지레이디 케이크",
        "latitude": 37.497630184743244,
        "longitude": 127.02900657088206,
        "address": "서울 강남구 역삼동 825-20",
        "road_address": "서울 강남구 테헤란로4길 6",
        "phone": "02-554-8222",
        "category": "음식점 > 카페 > 테마카페 > 디저트카페",
        "distance": "127"
      },
      {
        "name": "파리바게뜨 신분당선강남역점",
        "latitude": 37.4967987599317,
        "longitude": 127.028162636765,
        "address": "서울 강남구 역삼동 858",
        "road_address": "서울 강남구 강남대로 지하 396",
        "phone": "02-555-8397",
        "category": "음식점 > 간식 > 제과,베이커리 > 파리바게뜨",
        "distance": "132"
      },
      {
        "name": "매머드익스프레스 강남해커스타운점",
        "latitude": 37.4985904092988,
        "longitude": 127.026213681243,
        "address": "서울 서초구 서초동 1317-11",
        "road_address": "서울 서초구 서초대로77길 9",
        "phone": "",
        "category": "음식점 > 카페 > 커피전문점 > 매머드익스프레스",
        "distance": "144"
      },
      {
        "name": "마룬 브레드앤와인",
        "latitude": 37.4977607721166,
        "longitude": 127.029244102498,
        "address": "서울 강남구 역삼동 825-20",
        "road_address": "서울 강남구 테헤란로4길 6",
        "phone": "",
        "category": "음식점 > 간식 > 제과,베이커리",
        "distance": "146"
      },
      {
        "name": "비유어거트",
        "latitude": 37.4977274262053,
        "longitude": 127.029279146213,
        "address": "서울 강남구 역삼동 825-20",
        "road_address": "서울 강남구 테헤란로4길 6",
        "phone": "0503-5260-5027",
        "category": "음식점 > 카페 > 테마카페 > 디저트카페",
        "distance": "149"
      },
      {
        "name": "디저트39 강남 테헤란로점",
        "latitude": 37.4977283224454,
        "longitude": 127.029298371216,
        "address": "서울 강남구 역삼동 825-20",
        "road_address": "서울 강남구 테헤란로4길 6",
        "phone": "02-555-0390",
        "category": "음식점 > 카페 > 테마카페 > 디저트카페 > 디저트39",
        "distance": "151"
      },
      {
        "name": "투썸플레이스 강남역중앙점",
        "latitude": 37.499418935961735,
        "longitude": 127.0279544066067,
        "address": "서울 강남구 역삼동 818-15",
        "road_address": "서울 강남구 테헤란로1길 16",
        "phone": "02-558-1125",
        "category": "음식점 > 카페 > 커피전문점 > 투썸플레이스",
        "distance": "171"
      },
      {
        "name": "BGT호두단팥빵 강남역점",
        "latitude": 37.4963554089509,
        "longitude": 127.028395423567,
        "address": "서울 강남구 역삼동 858",
        "road_address": "",
        "phone": "",
        "category": "음식점 > 간식 > 제과,베이커리",
        "distance": "185"
      },
      {
        "name": "소과당",
        "latitude": 37.499734261007006,
        "longitude": 127.02806874426594,
        "address": "서울 강남구 역삼동 818-1",
        "road_address": "서울 강남구 강남대로96길 12",
        "phone": "02-538-8188",
        "category": "음식점 > 카페 > 테마카페 > 디저트카페",
        "distance": "207"
      },
      {
        "name": "투썸플레이스 강남역KR타워점",
        "latitude": 37.4968740984736,
        "longitude": 127.029578488051,
        "address": "서울 강남구 역삼동 825-26",
        "road_address": "서울 강남구 강남대로84길 13",
        "phone": "02-555-0517",
        "category": "음식점 > 카페 > 커피전문점 > 투썸플레이스",
        "distance": "208"
      },
      {
        "name": "고디바 삼성타운점",
        "latitude": 37.4958330047953,
        "longitude": 127.027637567435,
        "address": "서울 서초구 서초동 1327-3",
        "road_address": "서울 서초구 서초대로78길 22",
        "phone": "02-517-3975",
        "category": "음식점 > 간식 > 초콜릿",
        "distance": "229"
      },
      {
        "name": "매머드익스프레스 국기원점",
        "latitude": 37.49956817011981,
        "longitude": 127.02932736229212,
        "address": "서울 강남구 역삼동 819-4",
        "road_address": "서울 강남구 테헤란로5길 11",
        "phone": "",
        "category": "음식점 > 카페 > 커피전문점 > 매머드익스프레스",
        "distance": "239"
      },
      {
        "name": "투썸플레이스 강남역더에셋점",
        "latitude": 37.49597576832155,
        "longitude": 127.0258508999607,
        "address": "서울 서초구 서초동 1321-20",
        "road_address": "서울 서초구 서초대로74길 14",
        "phone": "02-598-2388",
        "category": "음식점 > 카페 > 커피전문점 > 투썸플레이스",
        "distance": "263"
      }
    ]
  }
}