{
  "key": "3a52e6e214be680e4ef42be72962f648dd7edd5350993ec45aeb3a373e167905",
  "tool": "PlaceSearch_kakao",
  "created_at": "2025-12-19T06:56:11.331522",
  "input_params": {
    "keyword": "파스타",
    "radius": 500,
    "sort": "accuracy",
    "x": 127.02758,
    "y": 37.4979
  },
  "raw_args": {
    "keyword": "파스타",
    "radius": 500,
    "x": 127.02758,
    "y": 37.4979
  },
  "data": {
    "keyword": "파스타",
    "total_count": 68,
    "places": [
      {
        "name": "닥터로빈시그니처 서초점",
        "latitude": 37.4966332657545,
        "longitude": 127.026914121286,
        "address": "서울 서초구 서초동 1320-10",
        "road_address": "서울 서초구 서초대로74길 11",
        "phone": "02-522-3101",
        "category": "음식점 > 양식 > 이탈리안",
        "distance": "152"
      },
      {
        "name": "라그릴리아 SPC스퀘어점",
        "latitude": 37.49437283454316,
        "longitude": 127.02985341955451,
        "address": "서울 강남구 역삼동 831-23",
        "road_address": "서울 강남구 강남대로 352",
        "phone": "02-567-9192",
        "category": "음식점 > 양식 > 이탈리안 > 라그릴리아",
        "distance": "440"
      },
      {
        "name": "노리타",
        "latitude": 37.5008247672713,
        "longitude": 127.02682515299,
        "address": "서울 강남구 역삼동 815-4",
        "road_address": "서울 강남구 강남대로 428",
        "phone": "02-566-7776",
        "category": "음식점 > 양식 > 이탈리안",
        "distance": "331"
      },
      {
        "name": "마노디셰프 강남점",
        "latitude": 37.4998701131357,
        "longitude": 127.03237184760155,
        "address": "서울 강남구 역삼동 648-9",
        "road_address": "서울 강남구 테헤란로 129",
        "phone": "02-553-5311",
        "category": "음식점 > 양식 > 이탈리안",
        "distance": "476"
      },
      {
        "name": "벌툰 엔틱 강남역점",
        "latitude": 37.5007307950853,
        "longitude": 127.027978644718,
        "address": "서울 강남구 역삼동 817-35",
        "road_address": "서울 강남구 강남대로98길 16",
        "phone": "02-569-4976",
        "category": "가정,생활 > 여가시설 > 만화방 > 만화카페 > 벌툰",
        "distance": "315"
      },
      {
        "name": "더플라잉팬 레드",
        "latitude": 37.4980931286224,
        "longitude": 127.025874247186,
        "address": "서울 서초구 서초동 1317-27",
        "road_address": "서울 서초구 서초대로 411",
        "phone": "02-590-2488",
        "category": "음식점 > 양식",
        "distance": "152"
      },
      {
        "name": "로리스더프라임립",
        "latitude": 37.49808140984054,
        "longitude": 127.02590025308936,
        "address": "서울 서초구 서초동 1317-23",
        "road_address": "서울 서초구 서초대로 411",
        "phone": "02-590-2800",
        "category": "음식점 > 양식 > 스테이크,립",
        "distance": "149"
      },
      {
        "name": "아실라",
        "latitude": 37.5007307897262,
        "longitude": 127.02800126286,
        "address": "서울 강남구 역삼동 817-35",
        "road_address": "서울 강남구 강남대로98길 16",
        "phone": "02-508-4665",
        "category": "음식점 > 술집",
        "distance": "316"
      },
      {
        "name": "킴브로스피자&파스타 강남직영점",
        "latitude": 37.499850311124106,
        "longitude": 127.03229833094886,
        "address": "서울 강남구 역삼동 648-9",
        "road_address": "서울 강남구 테헤란로 129",
        "phone": "",
        "category": "음식점 > 양식 > 이탈리안",
        "distance": "469"
      },
      {
        "name": "벌툰 파리지앵 강남본점",
        "latitude": 37.50026197173603,
        "longitude": 127.02531519997575,
        "address": "서울 서초구 서초동 1307-18",
        "road_address": "서울 서초구 강남대로65길 7",
        "phone": "02-533-4976",
        "category": "가정,생활 > 여가시설 > 만화방 > 만화카페 > 벌툰",
        "distance": "329"
      },
      {
        "name": "왕스펍",
        "latitude": 37.5008246112399,
        "longitude": 127.02750369810458,
        "address": "서울 강남구 역삼동 619-28",
        "road_address": "서울 강남구 강남대로98길 11",
        "phone": "",
        "category": "음식점 > 술집 > 호프,요리주점",
        "distance": "324"
      },
      {
        "name": "먼데이블루스",
        "latitude": 37.4939696557259,
        "longitude": 127.027921843719,
        "address": "서울 서초구 서초동 1330",
        "road_address": "서울 서초구 강남대로53길 11",
        "phone": "02-521-0542",
        "category": "음식점 > 양식",
        "distance": "437"
      },
      {
        "name": "띠엘로",
        "latitude": 37.49926562402995,
        "longitude": 127.02854354059278,
        "address": "서울 강남구 역삼동 819-1",
        "road_address": "서울 강남구 강남대로94길 14",
        "phone": "0502-5552-4909",
        "category": "음식점 > 술집 > 와인바",
        "distance": "173"
      },
      {
        "name": "다락마을 강남킵유어포크점",
        "latitude": 37.4969893784424,
        "longitude": 127.029773039852,
        "address": "서울 강남구 역삼동 825-24",
        "road_address": "서울 강남구 강남대로84길 15",
        "phone": "",
        "category": "음식점 > 양식 > 이탈리안",
        "distance": "218"
      },
      {
        "name": "디오파스타돈까스",
        "latitude": 37.4975440599124,
        "longitude": 127.031087318381,
        "address": "서울 강남구 역삼동 824-25",
        "road_address": "서울 강남구 강남대로84길 33",
        "phone": "",
        "category": "음식점 > 일식 > 돈까스,우동",
        "distance": "312"
      }
    ]
  }
}