{
  "key": "3aea12a7648d59d4e156e89679a46d3e759333d373f27aec8d453c2f9cd16c24",
  "tool": "PlaceSearch_kakao",
  "created_at": "2025-12-15T08:30:29.014727",
  "input_params": {
    "keyword": "대학교",
    "radius": 2000,
    "sort": "accuracy",
    "x": 127.0222,
    "y": 37.5709
  },
  "raw_args": {
    "x": 127.0222,
    "y": 37.5709,
    "keyword": "대학교",
    "radius": 2000
  },
  "data": {
    "keyword": "대학교",
    "total_count": 296,
    "places": [
      {
        "name": "서울장로회신학",
        "latitude": 37.5747437255258,
        "longitude": 127.022561269005,
        "address": "서울 종로구 숭인동 1370",
        "road_address": "",
        "phone": "02-2238-6305",
        "category": "교육,학문 > 학교 > 대학교",
        "distance": "427"
      },
      {
        "name": "한성대학교",
        "latitude": 37.5825624632779,
        "longitude": 127.010225523923,
        "address": "서울 성북구 삼선동2가 389",
        "road_address": "서울 성북구 삼선교로16길 116",
        "phone": "02-760-4114",
        "category": "교육,학문 > 학교 > 대학교",
        "distance": "1671"
      },
      {
        "name": "한국방송통신대학교 대학본부",
        "latitude": 37.5792472133724,
        "longitude": 127.002907216688,
        "address": "서울 종로구 동숭동 169-1",
        "road_address": "서울 종로구 대학로 86",
        "phone": "1577-2853",
        "category": "교육,학문 > 학교 > 대학교",
        "distance": "1939"
      },
      {
        "name": "홍익대학교 대학로캠퍼스",
        "latitude": 37.5763820797777,
        "longitude": 127.001353932217,
        "address": "서울 종로구 연건동 128-8",
        "road_address": "서울 종로구 대학로 57",
        "phone": "02-742-0388",
        "category": "교육,학문 > 학교 > 대학교",
        "distance": "1939"
      },
      {
        "name": "홍익대학교 대학로DA동",
        "latitude": 37.5764000994574,
        "longitude": 127.001372045353,
        "address": "서울 종로구 연건동 128-8",
        "road_address": "서울 종로구 대학로 57",
        "phone": "",
        "category": "교육,학문 > 학교 > 대학교",
        "distance": "1938"
      },
      {
        "name": "나이스파크 경복대학교 산학협력관 주차장",
        "latitude": 37.57552357484288,
        "longitude": 127.02462294425484,
        "address": "서울 동대문구 신설동 101-9",
        "road_address": "",
        "phone": "",
        "category": "교통,수송 > 교통시설 > 주차장",
        "distance": "556"
      },
      {
        "name": "고려대학교 안암병원",
        "latitude": 37.5871135140285,
        "longitude": 127.02666361240254,
        "address": "서울 성북구 안암동5가 126-1",
        "road_address": "서울 성북구 고려대로 73",
        "phone": "1577-0083",
        "category": "의료,건강 > 병원 > 대학병원",
        "distance": "1842"
      },
      {
        "name": "동부대학약국",
        "latitude": 37.5750409830141,
        "longitude": 127.030841026214,
        "address": "서울 동대문구 용두동 118-99",
        "road_address": "서울 동대문구 무학로 122",
        "phone": "02-921-3212",
        "category": "의료,건강 > 약국",
        "distance": "891"
      },
      {
        "name": "고려대학교 창의관",
        "latitude": 37.583201531419796,
        "longitude": 127.02608481879136,
        "address": "서울 성북구 안암동5가 1-2",
        "road_address": "서울 성북구 안암로 145",
        "phone": "",
        "category": "교육,학문 > 학교부속시설",
        "distance": "1407"
      },
      {
        "name": "홍익대학교 대학로아트센터",
        "latitude": 37.5766307523723,
        "longitude": 127.001507896079,
        "address": "서울 종로구 연건동 128-8",
        "road_address": "서울 종로구 대학로 57",
        "phone": "02-742-0300",
        "category": "문화,예술 > 문화시설",
        "distance": "1935"
      },
      {
        "name": "고려대학교 신공학관",
        "latitude": 37.5824734380177,
        "longitude": 127.026492136072,
        "address": "서울 성북구 안암동5가 126-16",
        "road_address": "서울 성북구 안암로 145",
        "phone": "",
        "category": "교육,학문 > 학교부속시설",
        "distance": "1339"
      },
      {
        "name": "아시아태평양대학 한국캠퍼스",
        "latitude": 37.5767578818522,
        "longitude": 127.024887119734,
        "address": "서울 동대문구 신설동 76-34",
        "road_address": "서울 동대문구 한빛로 12",
        "phone": "1577-0967",
        "category": "교육,학문 > 학교 > 전문대학",
        "distance": "692"
      },
      {
        "name": "고려대학교 공학관",
        "latitude": 37.58364046134984,
        "longitude": 127.02541473309039,
        "address": "서울 성북구 안암동5가 1-2",
        "road_address": "서울 성북구 안암로 145",
        "phone": "02-3290-4323",
        "category": "교육,학문 > 학교부속시설",
        "distance": "1442"
      },
      {
        "name": "고려대학교 산학관",
        "latitude": 37.5842073898159,
        "longitude": 127.024450317998,
        "address": "서울 성북구 안암동5가 126-16",
        "road_address": "서울 성북구 안암로 145",
        "phone": "",
        "category": "교육,학문 > 학교부속시설",
        "distance": "1490"
      },
      {
        "name": "홍익대학교 대학로아트센터 대극장",
        "latitude": 37.576681207884405,
        "longitude": 127.00152148175482,
        "address": "서울 종로구 연건동 128-8",
        "road_address": "서울 종로구 대학로 57",
        "phone": "02-742-0300",
        "category": "문화,예술 > 문화시설 > 공연장,연극극장",
        "distance": "1936"
      }
    ]
  }
}