{
  "key": "7e915fefdd834967ebcd61227d3a769a7a3100a530019886d91c7a398ddf13b8",
  "tool": "CategorySearch_tmap",
  "created_at": "2025-10-27T07:05:23.074056",
  "input_params": {
    "categories": "병원",
    "centerLat": 37.5787021816403,
    "centerLon": 127.056416345149,
    "count": 20,
    "radius": 1
  },
  "raw_args": {
    "categories": "병원",
    "centerLon": 127.056416345149,
    "centerLat": 37.5787021816403,
    "radius": 1,
    "count": 20
  },
  "data": {
    "totalCount": 168,
    "count": 20,
    "page": 1,
    "pois": [
      {
        "name": "참빛치과의원",
        "telNo": "0222472872",
        "latitude": "37.57834312",
        "longitude": "127.05698576",
        "address": "서울 동대문구 전농동",
        "roadName": "전농로",
        "buildingNo": "-",
        "radius_km": "0.065",
        "dataKind": "",
        "stId": "",
        "parkFlag": "0",
        "merchantFlag": ""
      },
      {
        "name": "박이비인후과의원",
        "telNo": "0222120770",
        "latitude": "37.57795428",
        "longitude": "127.05704132",
        "address": "서울 동대문구 전농동",
        "roadName": "전농로",
        "buildingNo": "-",
        "radius_km": "0.1",
        "dataKind": "",
        "stId": "",
        "parkFlag": "0",
        "merchantFlag": ""
      },
      {
        "name": "이내과의원",
        "telNo": "0222448886",
        "latitude": "37.57845423",
        "longitude": "127.05776346",
        "address": "서울 동대문구 전농동",
        "roadName": "전농로16길",
        "buildingNo": "-",
        "radius_km": "0.123",
        "dataKind": "",
        "stId": "",
        "parkFlag": "0",
        "merchantFlag": ""
      },
      {
        "name": "위성호내과의원",
        "telNo": "0222158463",
        "latitude": "37.57814871",
        "longitude": "127.05762459",
        "address": "서울 동대문구 전농동",
        "roadName": "전농로",
        "buildingNo": "-",
        "radius_km": "0.124",
        "dataKind": "",
        "stId": "",
        "parkFlag": "0",
        "merchantFlag": ""
      },
      {
        "name": "조광의원",
        "telNo": "0222440264",
        "latitude": "37.57812094",
        "longitude": "127.05795790",
        "address": "서울 동대문구 전농동",
        "roadName": "사가정로13길",
        "buildingNo": "-",
        "radius_km": "0.152",
        "dataKind": "",
        "stId": "",
        "parkFlag": "0",
        "merchantFlag": ""
      },
      {
        "name": "서울우수치과의원",
        "telNo": "0222162340",
        "latitude": "37.57748211",
        "longitude": "127.05718021",
        "address": "서울 동대문구 전농동",
        "roadName": "사가정로",
        "buildingNo": "-",
        "radius_km": "0.152",
        "dataKind": "",
        "stId": "",
        "parkFlag": "0",
        "merchantFlag": ""
      },
      {
        "name": "현대중앙의원",
        "telNo": "0222449600",
        "latitude": "37.57700995",
        "longitude": "127.05729132",
        "address": "서울 동대문구 전농동",
        "roadName": "사가정로",
        "buildingNo": "-",
        "radius_km": "0.204",
        "dataKind": "",
        "stId": "",
        "parkFlag": "0",
        "merchantFlag": ""
      },
      {
        "name": "정석영비뇨기과의원",
        "telNo": "0222146280",
        "latitude": "37.57742659",
        "longitude": "127.05845787",
        "address": "서울 동대문구 전농동",
        "roadName": "사가정로",
        "buildingNo": "-",
        "radius_km": "0.23",
        "dataKind": "",
        "stId": "",
        "parkFlag": "1",
        "merchantFlag": ""
      },
      {
        "name": "정석영비뇨기과의원 주차장",
        "telNo": "0222146280",
        "latitude": "37.57753769",
        "longitude": "127.05851342",
        "address": "서울 동대문구 전농동",
        "roadName": "사가정로",
        "buildingNo": "-",
        "radius_km": "0.23",
        "dataKind": "",
        "stId": "",
        "parkFlag": "0",
        "merchantFlag": ""
      },
      {
        "name": "페리오플란트연세현치과의원",
        "telNo": "0222125732",
        "latitude": "37.57700996",
        "longitude": "127.05809680",
        "address": "서울 동대문구 전농동",
        "roadName": "전농로",
        "buildingNo": "-",
        "radius_km": "0.24",
        "dataKind": "",
        "stId": "",
        "parkFlag": "1",
        "merchantFlag": ""
      },
      {
        "name": "페리오플란트연세현치과의원 주차장",
        "telNo": "0222125732",
        "latitude": "37.57695441",
        "longitude": "127.05795793",
        "address": "서울 동대문구 전농동",
        "roadName": "전농로",
        "buildingNo": "-",
        "radius_km": "0.24",
        "dataKind": "",
        "stId": "",
        "parkFlag": "0",
        "merchantFlag": ""
      },
      {
        "name": "행복한성모정형외과의원 주차장",
        "telNo": "0222457731",
        "latitude": "37.57748214",
        "longitude": "127.05856897",
        "address": "서울 동대문구 전농동",
        "roadName": "사가정로",
        "buildingNo": "-",
        "radius_km": "0.246",
        "dataKind": "",
        "stId": "",
        "parkFlag": "0",
        "merchantFlag": ""
      },
      {
        "name": "행복한성모정형외과의원",
        "telNo": "0222457731",
        "latitude": "37.57725994",
        "longitude": "127.05851343",
        "address": "서울 동대문구 전농동",
        "roadName": "사가정로",
        "buildingNo": "-",
        "radius_km": "0.246",
        "dataKind": "",
        "stId": "",
        "parkFlag": "1",
        "merchantFlag": ""
      },
      {
        "name": "임명수치과의원",
        "telNo": "0222443047",
        "latitude": "37.57789877",
        "longitude": "127.05901336",
        "address": "서울 동대문구 전농동",
        "roadName": "전농로16길",
        "buildingNo": "-",
        "radius_km": "0.247",
        "dataKind": "",
        "stId": "",
        "parkFlag": "1",
        "merchantFlag": ""
      },
      {
        "name": "김성희이비인후과의원",
        "telNo": "0222470100",
        "latitude": "37.57684331",
        "longitude": "127.05798571",
        "address": "서울 동대문구 전농동",
        "roadName": "전농로",
        "buildingNo": "-",
        "radius_km": "0.249",
        "dataKind": "",
        "stId": "",
        "parkFlag": "1",
        "merchantFlag": ""
      },
      {
        "name": "삼성바른의원",
        "telNo": "0269514733",
        "latitude": "37.57684331",
        "longitude": "127.05798571",
        "address": "서울 동대문구 전농동",
        "roadName": "전농로",
        "buildingNo": "-",
        "radius_km": "0.249",
        "dataKind": "",
        "stId": "",
        "parkFlag": "0",
        "merchantFlag": ""
      },
      {
        "name": "유석천치과의원",
        "telNo": "0222460701",
        "latitude": "37.57684331",
        "longitude": "127.05801348",
        "address": "서울 동대문구 전농동",
        "roadName": "전농로",
        "buildingNo": "-",
        "radius_km": "0.251",
        "dataKind": "",
        "stId": "",
        "parkFlag": "0",
        "merchantFlag": ""
      },
      {
        "name": "서울이비인후과의원 주차장",
        "telNo": "0222148240",
        "latitude": "37.57750991",
        "longitude": "127.05856897",
        "address": "서울 동대문구 전농동",
        "roadName": "사가정로",
        "buildingNo": "-",
        "radius_km": "0.252",
        "dataKind": "",
        "stId": "",
        "parkFlag": "0",
        "merchantFlag": ""
      },
      {
        "name": "서울이비인후과의원",
        "telNo": "0222148240",
        "latitude": "37.57720439",
        "longitude": "127.05854120",
        "address": "서울 동대문구 전농동",
        "roadName": "사가정로",
        "buildingNo": "-",
        "radius_km": "0.252",
        "dataKind": "",
        "stId": "",
        "parkFlag": "1",
        "merchantFlag": ""
      },
      {
        "name": "민피부과의원",
        "telNo": "0222125300",
        "latitude": "37.57681554",
        "longitude": "127.05798571",
        "address": "서울 동대문구 전농동",
        "roadName": "전농로",
        "buildingNo": "-",
        "radius_km": "0.252",
        "dataKind": "",
        "stId": "",
        "parkFlag": "0",
        "merchantFlag": ""
      }
    ]
  }
}