{
  "key": "c542f837bf2314d2e1c0b9c0e26c450435aa8a24b0ad20a7d441f708513ded93",
  "tool": "PlaceSearch_kakao",
  "created_at": "2025-12-19T05:20:49.764055",
  "input_params": {
    "keyword": "대학교",
    "radius": 2000,
    "size": 15,
    "sort": "distance",
    "x": 127.0289,
    "y": 37.5824
  },
  "raw_args": {
    "keyword": "대학교",
    "x": 127.0289,
    "y": 37.5824,
    "radius": 2000,
    "size": 15,
    "sort": "distance"
  },
  "data": {
    "keyword": "대학교",
    "total_count": 450,
    "places": [
      {
        "name": "고려대학교 애기능학생회관매점",
        "latitude": 37.5824731922673,
        "longitude": 127.027565407114,
        "address": "서울 성북구 안암동5가 126-16",
        "road_address": "서울 성북구 안암로 145",
        "phone": "02-923-4294",
        "category": "교육,학문 > 학교부속시설",
        "distance": "118"
      },
      {
        "name": "고려대학교 송현스퀘어 학생회관",
        "latitude": 37.582428165814065,
        "longitude": 127.02746576202857,
        "address": "서울 성북구 안암동5가 1-2",
        "road_address": "서울 성북구 안암로 145",
        "phone": "",
        "category": "교육,학문 > 학교부속시설",
        "distance": "126"
      },
      {
        "name": "성북구노인대학",
        "latitude": 37.5833015545104,
        "longitude": 127.029834551327,
        "address": "서울 성북구 안암동5가 104-37",
        "road_address": "서울 성북구 안암로 79",
        "phone": "",
        "category": "교육,학문 > 학교부속시설",
        "distance": "129"
      },
      {
        "name": "고려대학교 서울캠퍼스 신공학관",
        "latitude": 37.5824554130656,
        "longitude": 127.02651477253,
        "address": "서울 성북구 안암동5가 1-2",
        "road_address": "서울 성북구 안암로 145",
        "phone": "",
        "category": "교육,학문 > 학교부속시설",
        "distance": "210"
      },
      {
        "name": "고려대학교 신공학관",
        "latitude": 37.5824734380177,
        "longitude": 127.026492136072,
        "address": "서울 성북구 안암동5가 126-16",
        "road_address": "서울 성북구 안암로 145",
        "phone": "",
        "category": "교육,학문 > 학교부속시설",
        "distance": "212"
      },
      {
        "name": "고려대학교 신소재공학부",
        "latitude": 37.5825139824671,
        "longitude": 127.026493282582,
        "address": "서울 성북구 안암동5가 126-16",
        "road_address": "서울 성북구 안암로 145",
        "phone": "02-3290-3821",
        "category": "교육,학문 > 학교부속시설",
        "distance": "213"
      },
      {
        "name": "고려대학교 로봇융합관",
        "latitude": 37.5818391447151,
        "longitude": 127.026464740122,
        "address": "서울 성북구 안암동5가 126-16",
        "road_address": "서울 성북구 안암로 145",
        "phone": "",
        "category": "교육,학문 > 학교부속시설",
        "distance": "224"
      },
      {
        "name": "고려대학교 환경실험관",
        "latitude": 37.5842318705685,
        "longitude": 127.027824190151,
        "address": "서울 성북구 안암동5가 126-16",
        "road_address": "서울 성북구 안암로 145",
        "phone": "",
        "category": "교육,학문 > 학교부속시설",
        "distance": "224"
      },
      {
        "name": "고려대학교 서울캠퍼스 정운오IT교양관",
        "latitude": 37.58446688161686,
        "longitude": 127.0284458404503,
        "address": "서울 성북구 안암동5가 1-2",
        "road_address": "서울 성북구 안암로 145",
        "phone": "",
        "category": "교육,학문 > 학교부속시설",
        "distance": "232"
      },
      {
        "name": "고려대학교 서울캠퍼스 스마트모빌리티학부",
        "latitude": 37.58450922146787,
        "longitude": 127.02847416089539,
        "address": "서울 성북구 안암동5가 1-2",
        "road_address": "서울 성북구 안암로 145",
        "phone": "",
        "category": "교육,학문 > 학교부속시설",
        "distance": "237"
      },
      {
        "name": "고려대학교 플러스에너지빌딩 혁신기술 연구센터",
        "latitude": 37.5830366346123,
        "longitude": 127.026152690322,
        "address": "서울 성북구 안암동5가 126-16",
        "road_address": "서울 성북구 안암로 145",
        "phone": "02-3290-4624",
        "category": "교육,학문 > 연구소",
        "distance": "252"
      },
      {
        "name": "고려대학교 서울캠퍼스 애기능생활관 학생식당",
        "latitude": 37.58443737551204,
        "longitude": 127.02748914364248,
        "address": "서울 성북구 안암동5가 1-2",
        "road_address": "서울 성북구 안암로 145",
        "phone": "02-3290-4351",
        "category": "음식점 > 구내식당",
        "distance": "258"
      },
      {
        "name": "고려대학교 뇌영상센터",
        "latitude": 37.58442837612447,
        "longitude": 127.02744385344748,
        "address": "서울 성북구 안암동5가 126-16",
        "road_address": "서울 성북구 안암로 145",
        "phone": "02-3290-3890",
        "category": "교육,학문 > 학교부속시설",
        "distance": "259"
      },
      {
        "name": "고려대학교 태양전지연구실",
        "latitude": 37.5831474688183,
        "longitude": 127.026098385761,
        "address": "서울 성북구 안암동5가 126-16",
        "road_address": "서울 성북구 안암로 145",
        "phone": "02-3290-3713",
        "category": "교육,학문 > 학교부속시설",
        "distance": "261"
      },
      {
        "name": "고려대학교 애기능생활관",
        "latitude": 37.5844626117563,
        "longitude": 127.027452923397,
        "address": "서울 성북구 안암동5가 126-16",
        "road_address": "서울 성북구 안암로 145",
        "phone": "",
        "category": "교육,학문 > 학교부속시설",
        "distance": "262"
      }
    ]
  }
}