{
  "key": "c5e3bfcd4607913ffe4947aa9cba1f5f28b948a5fb89e846e44739351b42da33",
  "tool": "PlaceSearch_kakao",
  "created_at": "2025-10-27T17:05:21.035882",
  "input_params": {
    "keyword": "대학교",
    "radius": 1500,
    "size": 10,
    "sort": "distance",
    "x": 127.0459,
    "y": 37.5881
  },
  "raw_args": {
    "keyword": "대학교",
    "x": 127.0459,
    "y": 37.5881,
    "radius": 1500,
    "size": 10,
    "sort": "distance"
  },
  "data": {
    "keyword": "대학교",
    "total_count": 429,
    "places": [
      {
        "name": "경희사이버대학교 아카피스관",
        "latitude": 37.5884621720599,
        "longitude": 127.042481391654,
        "address": "서울 동대문구 청량리동 205-35",
        "road_address": "서울 동대문구 홍릉로 91",
        "phone": "02-3299-8793",
        "category": "교육,학문 > 학교 > 사이버대학",
        "distance": "304"
      },
      {
        "name": "경희대학교 창업지원단 홍릉바이오의료창업센터",
        "latitude": 37.5916474483227,
        "longitude": 127.048778686935,
        "address": "서울 동대문구 회기동 60-113",
        "road_address": "서울 동대문구 회기로 111",
        "phone": "02-961-9514",
        "category": "교육,학문 > 학교부속시설",
        "distance": "468"
      },
      {
        "name": "경희대학교 행복기숙사 C동",
        "latitude": 37.59165014849029,
        "longitude": 127.04878548238662,
        "address": "서울 동대문구 회기동 60-113",
        "road_address": "서울 동대문구 회기로 111",
        "phone": "02-961-0376",
        "category": "부동산 > 주거시설 > 기숙사,기숙시설",
        "distance": "469"
      },
      {
        "name": "KAIST 서울캠퍼스",
        "latitude": 37.5926754214934,
        "longitude": 127.04669593138594,
        "address": "서울 동대문구 청량리동 207-43",
        "road_address": "서울 동대문구 회기로 85",
        "phone": "",
        "category": "교육,학문 > 학교 > 대학교",
        "distance": "512"
      },
      {
        "name": "한국과학기술원 경영대학",
        "latitude": 37.5931133570962,
        "longitude": 127.046560328584,
        "address": "서울 동대문구 청량리동 207-43",
        "road_address": "서울 동대문구 회기로 85",
        "phone": "02-958-3211",
        "category": "교육,학문 > 학교부속시설",
        "distance": "559"
      },
      {
        "name": "경희대학교병원 제2주차장",
        "latitude": 37.5936127501298,
        "longitude": 127.050356146877,
        "address": "서울 동대문구 회기동 109-5",
        "road_address": "서울 동대문구 경희대로1나길 56-3",
        "phone": "",
        "category": "교통,수송 > 교통시설 > 주차장",
        "distance": "727"
      },
      {
        "name": "경희의료원 장례식장",
        "latitude": 37.5936089598596,
        "longitude": 127.0507909518,
        "address": "서울 동대문구 회기동 1-5",
        "road_address": "서울 동대문구 경희대로 23",
        "phone": "02-958-9721",
        "category": "가정,생활 > 장례 > 장례식장",
        "distance": "748"
      },
      {
        "name": "경희대학교병원 의과학연구원",
        "latitude": 37.594012857849,
        "longitude": 127.050197892065,
        "address": "서울 동대문구 회기동 109-13",
        "road_address": "서울 동대문구 경희대로 23",
        "phone": "",
        "category": "의료,건강 > 병원부속시설",
        "distance": "758"
      },
      {
        "name": "경희대학교병원 응급의료센터",
        "latitude": 37.5936303189537,
        "longitude": 127.051402414504,
        "address": "서울 동대문구 회기동 1-5",
        "road_address": "서울 동대문구 경희대로 23",
        "phone": "02-958-8282",
        "category": "의료,건강 > 병원 > 응급실",
        "distance": "782"
      },
      {
        "name": "경희대국제과정앤드류스대학교",
        "latitude": 37.589577992931,
        "longitude": 127.054665036667,
        "address": "서울 동대문구 회기동 351",
        "road_address": "서울 동대문구 회기로26길 15",
        "phone": "02-3284-0501",
        "category": "교육,학문 > 학교부속시설",
        "distance": "791"
      }
    ]
  }
}