{
  "key": "b6020cfc0f504cbff7994b5dcbc0b05e59dcb83d59d1a86a972dd64d11839717",
  "tool": "PlaceSearch_kakao",
  "created_at": "2025-10-27T17:20:57.607759",
  "input_params": {
    "keyword": "주차장",
    "radius": 800,
    "size": 15,
    "sort": "distance",
    "x": 127.1115,
    "y": 37.394
  },
  "raw_args": {
    "keyword": "주차장",
    "x": 127.1115,
    "y": 37.394,
    "radius": 800,
    "size": 15,
    "sort": "distance"
  },
  "data": {
    "keyword": "주차장",
    "total_count": 59,
    "places": [
      {
        "name": "판교역 환승 공영주차장",
        "latitude": 37.39473508906209,
        "longitude": 127.11129375840602,
        "address": "경기 성남시 분당구 백현동 532-1",
        "road_address": "경기 성남시 분당구 분당내곡로 121",
        "phone": "031-701-5182",
        "category": "교통,수송 > 교통시설 > 주차장 > 공영주차장",
        "distance": "83"
      },
      {
        "name": "쏘카존 그레이츠 판교(GREITS PANGYO) 주차장",
        "latitude": 37.394347423914475,
        "longitude": 127.11248460350488,
        "address": "경기 성남시 분당구 백현동 535",
        "road_address": "경기 성남시 분당구 분당내곡로 117",
        "phone": "",
        "category": "교통,수송 > 교통시설 > 카셰어링 > 쏘카존",
        "distance": "95"
      },
      {
        "name": "판교공영주차장",
        "latitude": 37.39335344505844,
        "longitude": 127.11073610423651,
        "address": "경기 성남시 분당구 백현동 539",
        "road_address": "",
        "phone": "031-8017-2600",
        "category": "교통,수송 > 교통시설 > 주차장 > 공영주차장",
        "distance": "98"
      },
      {
        "name": "하이파킹 그레이츠판교 주차장",
        "latitude": 37.39442307204169,
        "longitude": 127.11252424231382,
        "address": "경기 성남시 분당구 백현동 535",
        "road_address": "경기 성남시 분당구 분당내곡로 117",
        "phone": "",
        "category": "교통,수송 > 교통시설 > 주차장",
        "distance": "102"
      },
      {
        "name": "그레이츠 판교 주차장",
        "latitude": 37.3944275782189,
        "longitude": 127.112523119742,
        "address": "경기 성남시 분당구 백현동 535",
        "road_address": "경기 성남시 분당구 분당내곡로 117",
        "phone": "",
        "category": "교통,수송 > 교통시설 > 주차장",
        "distance": "102"
      },
      {
        "name": "카카오T 힐스테이트판교역 주차장",
        "latitude": 37.3930608762999,
        "longitude": 127.110454481359,
        "address": "경기 성남시 분당구 백현동 539-1",
        "road_address": "경기 성남시 분당구 판교역로 138",
        "phone": "",
        "category": "교통,수송 > 교통시설 > 주차장",
        "distance": "139"
      },
      {
        "name": "힐스테이트판교역오피스텔 주차장",
        "latitude": 37.39306452678537,
        "longitude": 127.11040479807903,
        "address": "경기 성남시 분당구 백현동 539-1",
        "road_address": "경기 성남시 분당구 판교역로 138",
        "phone": "",
        "category": "교통,수송 > 교통시설 > 주차장",
        "distance": "142"
      },
      {
        "name": "현대백화점 판교점 주차장",
        "latitude": 37.39276023187682,
        "longitude": 127.11205423369015,
        "address": "경기 성남시 분당구 백현동 541",
        "road_address": "경기 성남시 분당구 판교역로146번길 20",
        "phone": "",
        "category": "교통,수송 > 교통시설 > 주차장",
        "distance": "146"
      },
      {
        "name": "카카오T 판교알파돔타워 주차장",
        "latitude": 37.39447054205603,
        "longitude": 127.10995287833975,
        "address": "경기 성남시 분당구 백현동 537",
        "road_address": "경기 성남시 분당구 판교역로 152",
        "phone": "",
        "category": "교통,수송 > 교통시설 > 주차장",
        "distance": "146"
      },
      {
        "name": "알파돔타워지하주차장 입출구",
        "latitude": 37.3944481665921,
        "longitude": 127.109791354619,
        "address": "경기 성남시 분당구 백현동 531-1",
        "road_address": "",
        "phone": "",
        "category": "교통,수송 > 입출구",
        "distance": "159"
      },
      {
        "name": "환승주차장삼거리",
        "latitude": 37.3937472857006,
        "longitude": 127.109668368234,
        "address": "경기 성남시 분당구 백현동",
        "road_address": "",
        "phone": "",
        "category": "교통,수송 > 도로시설 > 교차로",
        "distance": "164"
      },
      {
        "name": "카카오 T 힐스테이트 판교역 201동 주차장",
        "latitude": 37.3931280033625,
        "longitude": 127.109970115241,
        "address": "경기 성남시 분당구 백현동 539-1",
        "road_address": "경기 성남시 분당구 판교역로 138",
        "phone": "",
        "category": "교통,수송 > 교통시설 > 주차장",
        "distance": "166"
      },
      {
        "name": "카카오 T 판교테크원 주차장",
        "latitude": 37.395474938369574,
        "longitude": 127.11213055159179,
        "address": "경기 성남시 분당구 백현동 534",
        "road_address": "경기 성남시 분당구 분당내곡로 131",
        "phone": "",
        "category": "교통,수송 > 교통시설 > 주차장",
        "distance": "172"
      },
      {
        "name": "카카오판교아지트 주차장입구",
        "latitude": 37.3950318137811,
        "longitude": 127.110022586526,
        "address": "경기 성남시 분당구 백현동 532",
        "road_address": "경기 성남시 분당구 판교역로 166",
        "phone": "",
        "category": "교통,수송 > 입출구",
        "distance": "173"
      },
      {
        "name": "카카오 판교 아지트 주차장",
        "latitude": 37.3954296320512,
        "longitude": 127.110487319628,
        "address": "경기 성남시 분당구 백현동 532",
        "road_address": "경기 성남시 분당구 판교역로 166",
        "phone": "",
        "category": "교통,수송 > 교통시설 > 주차장",
        "distance": "181"
      }
    ]
  }
}