{
  "key": "b63ac304c966f51a8ae33466757e47bcbcaf543875ebe565de92a44fea4d5ca0",
  "tool": "PlaceSearch_kakao",
  "created_at": "2025-10-27T16:45:52.229397",
  "input_params": {
    "keyword": "강남역 스터디 카페",
    "radius": 1200,
    "size": 15,
    "sort": "distance",
    "x": 127.0276,
    "y": 37.4979
  },
  "raw_args": {
    "keyword": "강남역 스터디 카페",
    "x": 127.0276,
    "y": 37.4979,
    "radius": 1200,
    "size": 15,
    "sort": "distance"
  },
  "data": {
    "keyword": "강남역 스터디 카페",
    "total_count": 79,
    "places": [
      {
        "name": "할리스 강남역점",
        "latitude": 37.49871619356776,
        "longitude": 127.02777433522404,
        "address": "서울 강남구 역삼동 820-11",
        "road_address": "서울 강남구 강남대로 402",
        "phone": "02-555-0890",
        "category": "음식점 > 카페 > 커피전문점 > 할리스",
        "distance": "91"
      },
      {
        "name": "겟잡컨설팅",
        "latitude": 37.49668354230765,
        "longitude": 127.02769216149245,
        "address": "서울 서초구 서초동 1319-12",
        "road_address": "서울 서초구 강남대로 381",
        "phone": "02-336-0419",
        "category": "서비스,산업 > 전문대행 > 컨설팅",
        "distance": "135"
      },
      {
        "name": "예인스페이스",
        "latitude": 37.4986264294388,
        "longitude": 127.026304163871,
        "address": "서울 서초구 서초동 1317-11",
        "road_address": "서울 서초구 서초대로77길 9",
        "phone": "02-3481-1212",
        "category": "서비스,산업 > 전문대행 > 공간대여",
        "distance": "140"
      },
      {
        "name": "초심 강남역점",
        "latitude": 37.4990241663955,
        "longitude": 127.0284936899,
        "address": "서울 강남구 역삼동 819-9",
        "road_address": "서울 강남구 강남대로92길 13",
        "phone": "010-6739-7303",
        "category": "서비스,산업 > 전문대행 > 공간대여 > 스터디카페,스터디룸 > 초심",
        "distance": "147"
      },
      {
        "name": "메이지유위드비티랩",
        "latitude": 37.4988240236244,
        "longitude": 127.028984415096,
        "address": "서울 강남구 역삼동 822-4",
        "road_address": "서울 강남구 테헤란로 109",
        "phone": "",
        "category": "서비스,산업 > 전문대행 > 공간대여",
        "distance": "159"
      },
      {
        "name": "강남역스터디룸스터디카페 윙스터디",
        "latitude": 37.4981401024719,
        "longitude": 127.025313352798,
        "address": "서울 서초구 서초동 1316-28",
        "road_address": "서울 서초구 서초대로73길 7",
        "phone": "02-536-0333",
        "category": "서비스,산업 > 전문대행 > 공간대여 > 모임공간",
        "distance": "204"
      },
      {
        "name": "작심스터디카페 강남역점",
        "latitude": 37.4992654441264,
        "longitude": 127.029278615838,
        "address": "서울 강남구 역삼동 819-5",
        "road_address": "서울 강남구 테헤란로5길 7",
        "phone": "02-6205-7080",
        "category": "서비스,산업 > 전문대행 > 공간대여 > 스터디카페,스터디룸",
        "distance": "212"
      },
      {
        "name": "우주런 랭귀지 스페이스",
        "latitude": 37.4998209013725,
        "longitude": 127.027456963325,
        "address": "서울 강남구 역삼동 816-4",
        "road_address": "서울 강남구 강남대로96길 5",
        "phone": "0502-5550-4195",
        "category": "서비스,산업 > 전문대행 > 공간대여 > 스터디카페,스터디룸",
        "distance": "213"
      },
      {
        "name": "강남공간한켠 스터디룸모임공간",
        "latitude": 37.4983086090296,
        "longitude": 127.025227463506,
        "address": "서울 서초구 서초동 1316-29",
        "road_address": "서울 서초구 서초대로73길 9",
        "phone": "0502-5552-6690",
        "category": "서비스,산업 > 전문대행 > 공간대여 > 스터디카페,스터디룸",
        "distance": "214"
      },
      {
        "name": "모임전문공간 옐로스톤 강남점",
        "latitude": 37.4997466599925,
        "longitude": 127.028959892084,
        "address": "서울 강남구 역삼동 818-8",
        "road_address": "서울 강남구 강남대로94길 21",
        "phone": "02-554-8777",
        "category": "서비스,산업 > 전문대행 > 공간대여 > 모임공간",
        "distance": "237"
      },
      {
        "name": "강남역 포커스 스터디룸모임공간",
        "latitude": 37.4992510052205,
        "longitude": 127.025490145838,
        "address": "서울 서초구 서초동 1307-7",
        "road_address": "서울 서초구 강남대로61길 10",
        "phone": "0502-5550-4010",
        "category": "서비스,산업 > 전문대행 > 공간대여 > 스터디카페,스터디룸",
        "distance": "239"
      },
      {
        "name": "공튜디오 강남점",
        "latitude": 37.4992753292206,
        "longitude": 127.025504855614,
        "address": "서울 서초구 서초동 1307-7",
        "road_address": "서울 서초구 강남대로61길 10",
        "phone": "",
        "category": "서비스,산업 > 전문대행 > 공간대여 > 모임공간",
        "distance": "240"
      },
      {
        "name": "리움 스터디룸",
        "latitude": 37.4992618185143,
        "longitude": 127.025484495088,
        "address": "서울 서초구 서초동 1307-7",
        "road_address": "서울 서초구 강남대로61길 10",
        "phone": "0503-7153-0539",
        "category": "서비스,산업 > 전문대행 > 공간대여 > 스터디카페,스터디룸",
        "distance": "240"
      },
      {
        "name": "모임일주스터디룸",
        "latitude": 37.4992573147103,
        "longitude": 127.025478839133,
        "address": "서울 서초구 서초동 1307-7",
        "road_address": "서울 서초구 강남대로61길 10",
        "phone": "",
        "category": "서비스,산업 > 전문대행 > 공간대여 > 스터디카페,스터디룸",
        "distance": "240"
      },
      {
        "name": "브이커넥트 인터뷰센터 강남1호점",
        "latitude": 37.5000910184268,
        "longitude": 127.028240774235,
        "address": "서울 강남구 역삼동 817-18",
        "road_address": "서울 강남구 강남대로96길 15",
        "phone": "0507-1335-7349",
        "category": "서비스,산업 > 전문대행 > 공간대여",
        "distance": "249"
      }
    ]
  }
}