{
  "key": "b662c03dfc703a0b5e70ddcb59cfd09baf6f28820d20623741d2453bc0ad9bcf",
  "tool": "PlaceSearch_kakao",
  "created_at": "2025-10-26T08:26:38.686169",
  "input_params": {
    "keyword": "맛집",
    "radius": 1000,
    "sort": "accuracy",
    "x": 126.9215,
    "y": 37.4785
  },
  "raw_args": {
    "keyword": "맛집",
    "radius": 1000,
    "x": 126.9215,
    "y": 37.4785
  },
  "data": {
    "keyword": "맛집",
    "total_count": 1178,
    "places": [
      {
        "name": "문성골족발집",
        "latitude": 37.48064398960173,
        "longitude": 126.92793414750689,
        "address": "서울 관악구 신림동 1636-35",
        "road_address": "서울 관악구 신원로 16",
        "phone": "02-855-8789",
        "category": "음식점 > 한식 > 육류,고기 > 족발,보쌈",
        "distance": "616"
      },
      {
        "name": "한마루",
        "latitude": 37.4755352170664,
        "longitude": 126.91817242873,
        "address": "서울 관악구 신림동 601-20",
        "road_address": "서울 관악구 난우길 30",
        "phone": "02-863-1149",
        "category": "음식점 > 샤브샤브",
        "distance": "441"
      },
      {
        "name": "우묵배미 신림점",
        "latitude": 37.482888060331874,
        "longitude": 126.92173157345026,
        "address": "서울 관악구 신림동 1577-1",
        "road_address": "서울 관악구 남부순환로 1540",
        "phone": "02-854-8852",
        "category": "음식점 > 한식 > 육류,고기 > 삼겹살",
        "distance": "487"
      },
      {
        "name": "원조민속순대타운",
        "latitude": 37.48325742954093,
        "longitude": 126.92878301206055,
        "address": "서울 관악구 신림동 1640-31",
        "road_address": "서울 관악구 신림로59길 14",
        "phone": "",
        "category": "음식점 > 한식 > 순대",
        "distance": "832"
      },
      {
        "name": "서우얼큰칼국수",
        "latitude": 37.482940271110095,
        "longitude": 126.91640055731835,
        "address": "서울 관악구 신림동 525-29",
        "road_address": "서울 관악구 관천로11길 154",
        "phone": "02-859-6657",
        "category": "음식점 > 한식 > 국수 > 칼국수",
        "distance": "668"
      },
      {
        "name": "서울밥집",
        "latitude": 37.4831927211807,
        "longitude": 126.927571024602,
        "address": "서울 관악구 신림동 1639-57",
        "road_address": "서울 관악구 관천로 36-1",
        "phone": "",
        "category": "음식점 > 한식",
        "distance": "747"
      },
      {
        "name": "홍푸차이",
        "latitude": 37.48286976104655,
        "longitude": 126.91865060483941,
        "address": "서울 관악구 신림동 507-26",
        "road_address": "서울 관악구 남부순환로 1513",
        "phone": "02-856-5352",
        "category": "음식점 > 중식 > 중국요리",
        "distance": "546"
      },
      {
        "name": "디자이너리카페",
        "latitude": 37.485044830857,
        "longitude": 126.92412069161948,
        "address": "서울 관악구 신림동 1465-12",
        "road_address": "서울 관악구 관천로 71-1",
        "phone": "02-868-7112",
        "category": "음식점 > 카페",
        "distance": "762"
      },
      {
        "name": "소문난순대국",
        "latitude": 37.4817983608338,
        "longitude": 126.928228131074,
        "address": "서울 관악구 신림동 1587-34",
        "road_address": "서울 관악구 관천로 19",
        "phone": "02-856-0903",
        "category": "음식점 > 한식 > 순대",
        "distance": "698"
      },
      {
        "name": "한방오리탕",
        "latitude": 37.47523354323294,
        "longitude": 126.9184101673853,
        "address": "서울 관악구 신림동 601-12",
        "road_address": "서울 관악구 난우길 26",
        "phone": "02-830-2055",
        "category": "음식점 > 한식 > 육류,고기 > 오리",
        "distance": "454"
      },
      {
        "name": "미나리생삼겹",
        "latitude": 37.4844031402536,
        "longitude": 126.926701508609,
        "address": "서울 관악구 신림동 1433-139",
        "road_address": "서울 관악구 남부순환로 1585-3",
        "phone": "02-884-9292",
        "category": "음식점 > 한식 > 육류,고기 > 삼겹살",
        "distance": "800"
      },
      {
        "name": "신가네생선구이 신림점",
        "latitude": 37.48367345376562,
        "longitude": 126.92130110724257,
        "address": "서울 관악구 신림동 487-1",
        "road_address": "서울 관악구 남부순환로161길 9",
        "phone": "010-9082-7821",
        "category": "음식점 > 한식 > 해물,생선",
        "distance": "574"
      },
      {
        "name": "초밥아저씨",
        "latitude": 37.481398210032395,
        "longitude": 126.92805892148127,
        "address": "서울 관악구 신림동 1602-1",
        "road_address": "서울 관악구 신원로 23",
        "phone": "02-3281-2820",
        "category": "음식점 > 일식 > 초밥,롤",
        "distance": "663"
      },
      {
        "name": "포차1979 신림본점",
        "latitude": 37.4841822931333,
        "longitude": 126.925105235964,
        "address": "서울 관악구 신림동 1464-13",
        "road_address": "서울 관악구 관천로 59",
        "phone": "02-391-9292",
        "category": "음식점 > 술집 > 실내포장마차",
        "distance": "706"
      },
      {
        "name": "슈마나스",
        "latitude": 37.48340362597718,
        "longitude": 126.92201708901663,
        "address": "서울 관악구 신림동 465-29",
        "road_address": "서울 관악구 남부순환로 1543",
        "phone": "02-868-0089",
        "category": "음식점 > 간식 > 제과,베이커리",
        "distance": "546"
      }
    ]
  }
}