{
  "key": "b66849b5710acab3ed38484a4a871074da73d3292110ea133abb0e9ccdd7a1d4",
  "tool": "PlaceSearch_kakao",
  "created_at": "2025-12-19T02:36:02.843713",
  "input_params": {
    "keyword": "대학교",
    "radius": 2000,
    "sort": "accuracy",
    "x": 127.046592,
    "y": 37.580178
  },
  "raw_args": {
    "keyword": "대학교",
    "x": 127.046592,
    "y": 37.580178,
    "radius": 2000
  },
  "data": {
    "keyword": "대학교",
    "total_count": 538,
    "places": [
      {
        "name": "서울시립대학교",
        "latitude": 37.584828300773886,
        "longitude": 127.05773316246166,
        "address": "서울 동대문구 전농동 694",
        "road_address": "서울 동대문구 서울시립대로 163",
        "phone": "02-6490-6114",
        "category": "교육,학문 > 학교 > 대학교",
        "distance": "1111"
      },
      {
        "name": "고려대학교 서울캠퍼스",
        "latitude": 37.589526761187834,
        "longitude": 127.03231892661324,
        "address": "서울 성북구 안암동5가 1-2",
        "road_address": "서울 성북구 안암로 145",
        "phone": "02-3290-1114",
        "category": "교육,학문 > 학교 > 대학교",
        "distance": "1632"
      },
      {
        "name": "KAIST 서울캠퍼스",
        "latitude": 37.5926754214934,
        "longitude": 127.04669593138594,
        "address": "서울 동대문구 청량리동 207-43",
        "road_address": "서울 동대문구 회기로 85",
        "phone": "",
        "category": "교육,학문 > 학교 > 대학교",
        "distance": "1387"
      },
      {
        "name": "경희대학교 서울캠퍼스",
        "latitude": 37.5971656623384,
        "longitude": 127.05173889409078,
        "address": "서울 동대문구 회기동 1-5",
        "road_address": "서울 동대문구 경희대로 26",
        "phone": "02-961-0114",
        "category": "교육,학문 > 학교 > 대학교",
        "distance": "1939"
      },
      {
        "name": "서울시립대학교 정문",
        "latitude": 37.5834771622868,
        "longitude": 127.055113438416,
        "address": "서울 동대문구 전농동 694",
        "road_address": "서울 동대문구 서울시립대로 163",
        "phone": "",
        "category": "교통,수송 > 입출구",
        "distance": "836"
      },
      {
        "name": "서울시립대학교 법학관",
        "latitude": 37.5820664335478,
        "longitude": 127.056538890157,
        "address": "서울 동대문구 전농동 694",
        "road_address": "서울 동대문구 서울시립대로 163",
        "phone": "02-6490-6114",
        "category": "교육,학문 > 학교부속시설",
        "distance": "903"
      },
      {
        "name": "서울시립대학교 자작마루",
        "latitude": 37.582849741524335,
        "longitude": 127.0576886128878,
        "address": "서울 동대문구 전농동 694",
        "road_address": "서울 동대문구 서울시립대로 163",
        "phone": "",
        "category": "교육,학문 > 학교부속시설",
        "distance": "1024"
      },
      {
        "name": "카톨릭대학약국",
        "latitude": 37.579551697242124,
        "longitude": 127.0439910760298,
        "address": "서울 동대문구 전농동 620-15",
        "road_address": "서울 동대문구 왕산로 186",
        "phone": "02-957-9550",
        "category": "의료,건강 > 약국",
        "distance": "239"
      },
      {
        "name": "서울시립대학교 100주년기념관",
        "latitude": 37.58413916908455,
        "longitude": 127.05558943688139,
        "address": "서울 동대문구 전농동 694",
        "road_address": "서울 동대문구 서울시립대로 163",
        "phone": "",
        "category": "교육,학문 > 학교부속시설",
        "distance": "908"
      },
      {
        "name": "서울시립대학교 100주년 기념관 지하1층 주차장",
        "latitude": 37.5841662068658,
        "longitude": 127.055572474465,
        "address": "서울 동대문구 전농동 694",
        "road_address": "서울 동대문구 서울시립대로 163",
        "phone": "",
        "category": "교통,수송 > 교통시설 > 주차장",
        "distance": "908"
      },
      {
        "name": "서울시립대학교 미래관",
        "latitude": 37.5846430271125,
        "longitude": 127.05705258203,
        "address": "서울 동대문구 전농동 694",
        "road_address": "서울 동대문구 서울시립대로 163",
        "phone": "",
        "category": "교육,학문 > 학교부속시설",
        "distance": "1048"
      },
      {
        "name": "경희대학교 정문",
        "latitude": 37.5938315697917,
        "longitude": 127.052697920723,
        "address": "서울 동대문구 회기동 36-17",
        "road_address": "",
        "phone": "",
        "category": "교통,수송 > 입출구",
        "distance": "1608"
      },
      {
        "name": "서울시립대학교 자연과학관",
        "latitude": 37.5825408342904,
        "longitude": 127.059238278902,
        "address": "서울 동대문구 전농동 694",
        "road_address": "서울 동대문구 서울시립대로 163",
        "phone": "",
        "category": "교육,학문 > 학교부속시설",
        "distance": "1147"
      },
      {
        "name": "서울시립대학교 박물관",
        "latitude": 37.5831618495415,
        "longitude": 127.056938236381,
        "address": "서울 동대문구 전농동 694",
        "road_address": "서울 동대문구 서울시립대로 163",
        "phone": "",
        "category": "문화,예술 > 문화시설 > 박물관",
        "distance": "971"
      },
      {
        "name": "고려대학교 교우회관",
        "latitude": 37.5920395624461,
        "longitude": 127.035676113136,
        "address": "서울 성북구 종암동 29-26",
        "road_address": "서울 성북구 종암로 13",
        "phone": "1588-1905",
        "category": "교육,학문 > 학교부속시설",
        "distance": "1631"
      }
    ]
  }
}