{
  "key": "d3942cd9d8e34c3b1a7eccc704c9764cfa099de924bbf9a8ef29d05145ad842f",
  "tool": "PlaceSearch_kakao",
  "created_at": "2025-10-27T03:25:09.775820",
  "input_params": {
    "keyword": "맛집",
    "radius": 1000,
    "sort": "accuracy",
    "x": 127.0,
    "y": 37.6
  },
  "raw_args": {
    "keyword": "맛집",
    "x": 127.0,
    "y": 37.6,
    "radius": 1000
  },
  "data": {
    "keyword": "맛집",
    "total_count": 152,
    "places": [
      {
        "name": "키나",
        "latitude": 37.59647779802375,
        "longitude": 126.9971147601673,
        "address": "서울 성북구 성북동 31-1",
        "road_address": "서울 성북구 선잠로 46",
        "phone": "02-764-4580",
        "category": "음식점 > 한식",
        "distance": "466"
      },
      {
        "name": "금왕돈까스 본점",
        "latitude": 37.594830687215,
        "longitude": 126.994383644375,
        "address": "서울 성북구 성북동 256-2",
        "road_address": "서울 성북구 성북로 138",
        "phone": "02-763-9366",
        "category": "음식점 > 일식 > 돈까스,우동",
        "distance": "758"
      },
      {
        "name": "르한스",
        "latitude": 37.60413174073769,
        "longitude": 126.99852325816745,
        "address": "서울 성북구 정릉동 918",
        "road_address": "서울 성북구 정릉로10길 127",
        "phone": "02-941-1142",
        "category": "음식점 > 양식",
        "distance": "476"
      },
      {
        "name": "수연산방",
        "latitude": 37.59507217364634,
        "longitude": 126.99483655959386,
        "address": "서울 성북구 성북동 248",
        "road_address": "서울 성북구 성북로26길 8",
        "phone": "02-764-1736",
        "category": "음식점 > 카페 > 전통찻집",
        "distance": "711"
      },
      {
        "name": "오버스토리",
        "latitude": 37.5986897662228,
        "longitude": 126.999671607409,
        "address": "서울 성북구 성북동 8-28",
        "road_address": "서울 성북구 선잠로2다길 13-13",
        "phone": "010-7292-7893",
        "category": "음식점 > 카페 > 커피전문점",
        "distance": "148"
      },
      {
        "name": "쌍다리돼지불백 본점",
        "latitude": 37.593499076317705,
        "longitude": 126.99568816509354,
        "address": "서울 성북구 성북동 109-2",
        "road_address": "서울 성북구 성북로23길 4",
        "phone": "02-743-0325",
        "category": "음식점 > 한식 > 육류,고기",
        "distance": "815"
      },
      {
        "name": "성북동집",
        "latitude": 37.59444872112262,
        "longitude": 126.9956745224129,
        "address": "서울 성북구 성북동 91",
        "road_address": "서울 성북구 성북로24길 4",
        "phone": "02-747-6234",
        "category": "음식점 > 한식 > 국수 > 칼국수",
        "distance": "724"
      },
      {
        "name": "카페호비",
        "latitude": 37.5944424933685,
        "longitude": 127.000129084923,
        "address": "서울 성북구 성북동 56-3",
        "road_address": "서울 성북구 성북로16길 16-30",
        "phone": "02-464-7709",
        "category": "음식점 > 카페 > 테마카페 > 갤러리카페",
        "distance": "616"
      },
      {
        "name": "밀곳간 본점",
        "latitude": 37.59411272861095,
        "longitude": 126.99933759345231,
        "address": "서울 성북구 성북동 63-1",
        "road_address": "서울 성북구 성북로18길 19",
        "phone": "02-742-0525",
        "category": "음식점 > 간식 > 제과,베이커리",
        "distance": "655"
      },
      {
        "name": "서울왕돈까스 성북동본점",
        "latitude": 37.5924377844161,
        "longitude": 126.999279861329,
        "address": "서울 성북구 성북동 131-85",
        "road_address": "서울 성북구 창경궁로35다길 140",
        "phone": "02-766-9370",
        "category": "음식점 > 일식 > 돈까스,우동",
        "distance": "841"
      },
      {
        "name": "케이드",
        "latitude": 37.5940046111193,
        "longitude": 127.000286476263,
        "address": "서울 성북구 성북동 58-23",
        "road_address": "서울 성북구 성북로16길 14",
        "phone": "02-6953-3556",
        "category": "음식점 > 카페 > 테마카페 > 디저트카페",
        "distance": "665"
      },
      {
        "name": "국화정원",
        "latitude": 37.594585524449144,
        "longitude": 126.99268517372965,
        "address": "서울 성북구 성북동 264",
        "road_address": "서울 성북구 성북로 154",
        "phone": "02-741-0021",
        "category": "음식점 > 한식 > 한정식",
        "distance": "882"
      },
      {
        "name": "일상",
        "latitude": 37.5930936760877,
        "longitude": 126.997223591954,
        "address": "서울 성북구 성북동 100-1",
        "road_address": "서울 성북구 성북로 106",
        "phone": "",
        "category": "음식점 > 카페 > 커피전문점",
        "distance": "804"
      },
      {
        "name": "선동보리밥",
        "latitude": 37.59468566122507,
        "longitude": 126.99514231474274,
        "address": "서울 성북구 성북동 88",
        "road_address": "서울 성북구 성북로 134-4",
        "phone": "02-743-2096",
        "category": "음식점 > 한식",
        "distance": "729"
      },
      {
        "name": "샤뽀블랑",
        "latitude": 37.59295042842214,
        "longitude": 127.00230989459946,
        "address": "서울 성북구 성북동 161-14",
        "road_address": "서울 성북구 성북로 60",
        "phone": "02-741-6763",
        "category": "음식점 > 간식 > 제과,베이커리",
        "distance": "808"
      }
    ]
  }
}