{
  "key": "3b7e4660a7b34f04e52fb85e54fb27858dc6976d25cc662699d54fc60fa63830",
  "tool": "PlaceSearch_kakao",
  "created_at": "2025-10-27T08:27:04.383159",
  "input_params": {
    "keyword": "대학교",
    "sort": "accuracy",
    "x": 127.04773632414528,
    "y": 37.57997010526071
  },
  "raw_args": {
    "keyword": "대학교",
    "x": 127.04773632414528,
    "y": 37.57997010526071
  },
  "data": {
    "keyword": "대학교",
    "total_count": 26290,
    "places": [
      {
        "name": "서울시립대학교",
        "latitude": 37.584828300773886,
        "longitude": 127.05773316246166,
        "address": "서울 동대문구 전농동 694",
        "road_address": "서울 동대문구 서울시립대로 163",
        "phone": "02-6490-6114",
        "category": "교육,학문 > 학교 > 대학교",
        "distance": "1034"
      },
      {
        "name": "고려대학교 서울캠퍼스",
        "latitude": 37.589526761187834,
        "longitude": 127.03231892661324,
        "address": "서울 성북구 안암동5가 1-2",
        "road_address": "서울 성북구 안암로 145",
        "phone": "02-3290-1114",
        "category": "교육,학문 > 학교 > 대학교",
        "distance": "1726"
      },
      {
        "name": "KAIST 서울캠퍼스",
        "latitude": 37.5926754214934,
        "longitude": 127.04669593138594,
        "address": "서울 동대문구 청량리동 207-43",
        "road_address": "서울 동대문구 회기로 85",
        "phone": "",
        "category": "교육,학문 > 학교 > 대학교",
        "distance": "1413"
      },
      {
        "name": "경희대학교 서울캠퍼스",
        "latitude": 37.5971656623384,
        "longitude": 127.05173889409078,
        "address": "서울 동대문구 회기동 1-5",
        "road_address": "서울 동대문구 경희대로 26",
        "phone": "02-961-0114",
        "category": "교육,학문 > 학교 > 대학교",
        "distance": "1941"
      },
      {
        "name": "한국외국어대학교 서울캠퍼스",
        "latitude": 37.5975430443335,
        "longitude": 127.05784829549488,
        "address": "서울 동대문구 이문동 270-1",
        "road_address": "서울 동대문구 이문로 107",
        "phone": "02-2173-2114",
        "category": "교육,학문 > 학교 > 대학교",
        "distance": "2145"
      },
      {
        "name": "한양대학교 서울캠퍼스",
        "latitude": 37.5566436823703,
        "longitude": 127.04452650526459,
        "address": "서울 성동구 사근동 110",
        "road_address": "서울 성동구 왕십리로 222",
        "phone": "02-2220-0114",
        "category": "교육,학문 > 학교 > 대학교",
        "distance": "2604"
      },
      {
        "name": "동덕여자대학교",
        "latitude": 37.6069903921957,
        "longitude": 127.041812418483,
        "address": "서울 성북구 하월곡동 23-1",
        "road_address": "서울 성북구 화랑로13길 60",
        "phone": "02-940-4000",
        "category": "교육,학문 > 학교 > 대학교",
        "distance": "3044"
      },
      {
        "name": "한국예술종합학교 석관동캠퍼스",
        "latitude": 37.60656959296795,
        "longitude": 127.05697079689453,
        "address": "서울 성북구 석관동 409",
        "road_address": "서울 성북구 화랑로32길 146-37",
        "phone": "02-746-9000",
        "category": "교육,학문 > 학교 > 대학교",
        "distance": "3062"
      },
      {
        "name": "성신여자대학교 돈암수정캠퍼스",
        "latitude": 37.5916680669509,
        "longitude": 127.022129316251,
        "address": "서울 성북구 돈암동 173-1",
        "road_address": "서울 성북구 보문로34다길 2",
        "phone": "02-920-7114",
        "category": "교육,학문 > 학교 > 대학교",
        "distance": "2607"
      },
      {
        "name": "한양여자대학교",
        "latitude": 37.558968112905,
        "longitude": 127.049413811776,
        "address": "서울 성동구 사근동 110",
        "road_address": "서울 성동구 살곶이길 200",
        "phone": "02-2290-2114",
        "category": "교육,학문 > 학교 > 대학교",
        "distance": "2335"
      },
      {
        "name": "한성대학교",
        "latitude": 37.5825624632779,
        "longitude": 127.010225523923,
        "address": "서울 성북구 삼선동2가 389",
        "road_address": "서울 성북구 삼선교로16길 116",
        "phone": "02-760-4114",
        "category": "교육,학문 > 학교 > 대학교",
        "distance": "3325"
      },
      {
        "name": "세종대학교",
        "latitude": 37.550638892935346,
        "longitude": 127.0742595815513,
        "address": "서울 광진구 군자동 98",
        "road_address": "서울 광진구 능동로 209",
        "phone": "02-3408-3114",
        "category": "교육,학문 > 학교 > 대학교",
        "distance": "4010"
      },
      {
        "name": "한국방송통신대학교 서울지역대학",
        "latitude": 37.5473466763422,
        "longitude": 127.045852880825,
        "address": "서울 성동구 성수동1가 656-308",
        "road_address": "서울 성동구 아차산로 12",
        "phone": "02-460-6700",
        "category": "교육,학문 > 학교 > 대학교",
        "distance": "3624"
      },
      {
        "name": "가톨릭대학교 성신교정",
        "latitude": 37.586336176926416,
        "longitude": 127.0045786211564,
        "address": "서울 종로구 혜화동 90-1",
        "road_address": "서울 종로구 창경궁로 296-12",
        "phone": "02-740-9714",
        "category": "교육,학문 > 학교 > 대학교",
        "distance": "3876"
      },
      {
        "name": "한국방송통신대학교 대학본부",
        "latitude": 37.5792472133724,
        "longitude": 127.002907216688,
        "address": "서울 종로구 동숭동 169-1",
        "road_address": "서울 종로구 대학로 86",
        "phone": "1577-2853",
        "category": "교육,학문 > 학교 > 대학교",
        "distance": "3960"
      }
    ]
  }
}