{
  "key": "3bffead5cd8fc9dad120ee9ec625aaaf5e51f47a97dd75a05ec0604f87acaabd",
  "tool": "PlaceSearch_kakao",
  "created_at": "2025-10-27T01:53:38.288096",
  "input_params": {
    "keyword": "파스타",
    "page": 1,
    "size": 5,
    "sort": "accuracy",
    "x": 127.02758,
    "y": 37.4979
  },
  "raw_args": {
    "keyword": "파스타",
    "x": 127.02758,
    "y": 37.4979,
    "page": 1,
    "size": 5
  },
  "data": {
    "keyword": "파스타",
    "total_count": 29042,
    "places": [
      {
        "name": "노리타",
        "latitude": 37.5008247672713,
        "longitude": 127.02682515299,
        "address": "서울 강남구 역삼동 815-4",
        "road_address": "서울 강남구 강남대로 428",
        "phone": "02-566-7776",
        "category": "음식점 > 양식 > 이탈리안",
        "distance": "331"
      },
      {
        "name": "마노디셰프 강남점",
        "latitude": 37.4998701131357,
        "longitude": 127.03237184760155,
        "address": "서울 강남구 역삼동 648-9",
        "road_address": "서울 강남구 테헤란로 129",
        "phone": "02-553-5311",
        "category": "음식점 > 양식 > 이탈리안",
        "distance": "476"
      },
      {
        "name": "라그릴리아 SPC스퀘어점",
        "latitude": 37.49437283454316,
        "longitude": 127.02985341955451,
        "address": "서울 강남구 역삼동 831-23",
        "road_address": "서울 강남구 강남대로 352",
        "phone": "02-567-9192",
        "category": "음식점 > 양식 > 이탈리안 > 라그릴리아",
        "distance": "440"
      },
      {
        "name": "닥터로빈시그니처 서초점",
        "latitude": 37.4966332657545,
        "longitude": 127.026914121286,
        "address": "서울 서초구 서초동 1320-10",
        "road_address": "서울 서초구 서초대로74길 11",
        "phone": "02-522-3101",
        "category": "음식점 > 양식 > 이탈리안",
        "distance": "152"
      },
      {
        "name": "로리스더프라임립",
        "latitude": 37.49808140984054,
        "longitude": 127.02590025308936,
        "address": "서울 서초구 서초동 1317-23",
        "road_address": "서울 서초구 서초대로 411",
        "phone": "02-590-2800",
        "category": "음식점 > 양식 > 스테이크,립",
        "distance": "149"
      }
    ]
  }
}