{
  "key": "90036b9469339ce85e2401a1042bbef6bfa9c2fa092911987ff48e3daa6afa3f",
  "tool": "PlaceSearch_kakao",
  "created_at": "2025-10-26T22:25:09.389653",
  "input_params": {
    "keyword": "맛집",
    "radius": 1000,
    "sort": "accuracy",
    "x": 127.0845,
    "y": 37.6455
  },
  "raw_args": {
    "keyword": "맛집",
    "x": 127.0845,
    "y": 37.6455,
    "radius": 1000
  },
  "data": {
    "keyword": "맛집",
    "total_count": 267,
    "places": [
      {
        "name": "보노돈까스",
        "latitude": 37.64825336007032,
        "longitude": 127.08335379477093,
        "address": "서울 노원구 중계동 68-14",
        "road_address": "서울 노원구 중계로8길 128",
        "phone": "02-937-2518",
        "category": "음식점 > 일식 > 돈까스,우동",
        "distance": "322"
      },
      {
        "name": "이종구낙지세상 본점",
        "latitude": 37.64379520331191,
        "longitude": 127.08348138244453,
        "address": "서울 노원구 중계동 27",
        "road_address": "서울 노원구 중계로 90",
        "phone": "02-930-9284",
        "category": "음식점 > 한식 > 해물,생선",
        "distance": "209"
      },
      {
        "name": "예가",
        "latitude": 37.645959965167734,
        "longitude": 127.08263057697629,
        "address": "서울 노원구 중계동 43-10",
        "road_address": "서울 노원구 중계로8길 11",
        "phone": "02-935-2989",
        "category": "음식점 > 한식 > 해물,생선 > 추어",
        "distance": "172"
      },
      {
        "name": "브런힐",
        "latitude": 37.6462909621218,
        "longitude": 127.084697736663,
        "address": "서울 노원구 중계동 43-15",
        "road_address": "서울 노원구 중계로8길 48",
        "phone": "02-935-0000",
        "category": "음식점 > 카페",
        "distance": "89"
      },
      {
        "name": "1번지통닭 본점",
        "latitude": 37.6473802779113,
        "longitude": 127.082110912128,
        "address": "서울 노원구 중계동 58-18",
        "road_address": "서울 노원구 중계로12가길 2",
        "phone": "02-951-7279",
        "category": "음식점 > 치킨",
        "distance": "296"
      },
      {
        "name": "삼거리식당",
        "latitude": 37.64427260156518,
        "longitude": 127.08365527788041,
        "address": "서울 노원구 중계동 27-75",
        "road_address": "서울 노원구 중계로6길 1",
        "phone": "02-936-9573",
        "category": "음식점 > 한식",
        "distance": "155"
      },
      {
        "name": "중계고기파티",
        "latitude": 37.6476260194217,
        "longitude": 127.081136690432,
        "address": "서울 노원구 중계동 58-8",
        "road_address": "서울 노원구 중계로12길 6",
        "phone": "0507-1367-8915",
        "category": "음식점 > 한식 > 육류,고기",
        "distance": "379"
      },
      {
        "name": "산촌가든",
        "latitude": 37.64400130200904,
        "longitude": 127.08505998714823,
        "address": "서울 노원구 중계동 산 104-42",
        "road_address": "서울 노원구 중계로6가길 17",
        "phone": "02-930-8585",
        "category": "음식점 > 한식 > 사철탕,영양탕",
        "distance": "173"
      },
      {
        "name": "싹쓰리솥뚜껑김치삼겹살 중계점",
        "latitude": 37.6466262735463,
        "longitude": 127.080632499709,
        "address": "서울 노원구 중계동 311-22",
        "road_address": "서울 노원구 중계로 129",
        "phone": "02-934-5565",
        "category": "음식점 > 한식 > 육류,고기 > 삼겹살",
        "distance": "363"
      },
      {
        "name": "핫닭발",
        "latitude": 37.64492544598317,
        "longitude": 127.08290137244867,
        "address": "서울 노원구 중계동 27-3",
        "road_address": "서울 노원구 중계로 102",
        "phone": "02-951-6993",
        "category": "음식점 > 한식 > 육류,고기 > 닭요리",
        "distance": "155"
      },
      {
        "name": "라베이커리카페",
        "latitude": 37.645993482194,
        "longitude": 127.082372266008,
        "address": "서울 노원구 중계동 43-17",
        "road_address": "서울 노원구 중계로 116-6",
        "phone": "010-9935-6798",
        "category": "음식점 > 카페 > 테마카페 > 디저트카페",
        "distance": "195"
      },
      {
        "name": "60계치킨 서울중계점",
        "latitude": 37.64975503397503,
        "longitude": 127.08114920501842,
        "address": "서울 노원구 중계동 84-44",
        "road_address": "서울 노원구 중계로 164",
        "phone": "02-931-9991",
        "category": "음식점 > 치킨 > 60계치킨",
        "distance": "557"
      },
      {
        "name": "신민철초밥집",
        "latitude": 37.6498061579825,
        "longitude": 127.081485810242,
        "address": "서울 노원구 중계동 84-7",
        "road_address": "서울 노원구 중계로 162-11",
        "phone": "",
        "category": "음식점 > 일식 > 초밥,롤",
        "distance": "546"
      },
      {
        "name": "어부야",
        "latitude": 37.64621172459091,
        "longitude": 127.08207903178723,
        "address": "서울 노원구 중계동 62-7",
        "road_address": "서울 노원구 중계로 118-4",
        "phone": "",
        "category": "음식점 > 술집 > 실내포장마차",
        "distance": "228"
      },
      {
        "name": "마포숯불갈비",
        "latitude": 37.6479385422256,
        "longitude": 127.082605573684,
        "address": "서울 노원구 중계동 55-17",
        "road_address": "서울 노원구 중계로12가길 19",
        "phone": "",
        "category": "음식점 > 한식 > 육류,고기 > 갈비",
        "distance": "318"
      }
    ]
  }
}