{
  "key": "90a7247eb9f03d862eb36dfba46a3e98891860114f513f7b93891a0edd1560df",
  "tool": "PlaceSearch_kakao",
  "created_at": "2025-10-27T16:47:09.368893",
  "input_params": {
    "keyword": "대학교",
    "radius": 2000,
    "size": 10,
    "sort": "distance",
    "x": 127.0396,
    "y": 37.5977
  },
  "raw_args": {
    "keyword": "대학교",
    "size": 10,
    "x": 127.0396,
    "y": 37.5977,
    "radius": 2000,
    "sort": "distance"
  },
  "data": {
    "keyword": "대학교",
    "total_count": 596,
    "places": [
      {
        "name": "서울대학교 사범대학부설중학교 행정실",
        "latitude": 37.595808197942,
        "longitude": 127.039188180289,
        "address": "서울 성북구 종암동 7-10",
        "road_address": "서울 성북구 월곡로 36",
        "phone": "",
        "category": "교육,학문 > 학교부속시설",
        "distance": "213"
      },
      {
        "name": "서울대학교사범대학 부설중학교",
        "latitude": 37.59580460074253,
        "longitude": 127.03916779620215,
        "address": "서울 성북구 종암동 7-10",
        "road_address": "서울 성북구 월곡로 36",
        "phone": "02-943-5812",
        "category": "교육,학문 > 학교 > 중학교",
        "distance": "213"
      },
      {
        "name": "서울대학교 사범대학부설중학교 교무실",
        "latitude": 37.59579019051193,
        "longitude": 127.03915080348524,
        "address": "서울 성북구 종암동 7-10",
        "road_address": "서울 성북구 월곡로 36",
        "phone": "02-943-5812",
        "category": "교육,학문 > 학교부속시설",
        "distance": "215"
      },
      {
        "name": "서울대학교 사범대학 부설고등학교 교무실",
        "latitude": 37.59375232251192,
        "longitude": 127.03861981320205,
        "address": "서울 성북구 종암동 7-10",
        "road_address": "서울 성북구 월곡로 6",
        "phone": "02-913-7305",
        "category": "교육,학문 > 학교부속시설",
        "distance": "446"
      },
      {
        "name": "서울대학교사범대학 부설고등학교",
        "latitude": 37.59374871965702,
        "longitude": 127.03861641440025,
        "address": "서울 성북구 종암동 7-10",
        "road_address": "서울 성북구 월곡로 6",
        "phone": "02-913-7306",
        "category": "교육,학문 > 학교 > 고등학교",
        "distance": "446"
      },
      {
        "name": "서울대학교 부설학교진흥원",
        "latitude": 37.5928137882691,
        "longitude": 127.037694239802,
        "address": "서울 성북구 종암동 7-10",
        "road_address": "서울 성북구 월곡로 6",
        "phone": "02-6310-1470",
        "category": "교육,학문 > 학교부속시설",
        "distance": "567"
      },
      {
        "name": "서울대학교 사범대학 부설고등학교 행정실",
        "latitude": 37.59277771274756,
        "longitude": 127.03780631916672,
        "address": "서울 성북구 종암동 7-10",
        "road_address": "서울 성북구 월곡로 6",
        "phone": "02-913-7306",
        "category": "교육,학문 > 학교부속시설",
        "distance": "568"
      },
      {
        "name": "와플대학 동덕여대캠퍼스",
        "latitude": 37.6028711259359,
        "longitude": 127.041642510055,
        "address": "서울 성북구 하월곡동 92-7",
        "road_address": "서울 성북구 화랑로11길 12",
        "phone": "02-942-7526",
        "category": "음식점 > 간식 > 제과,베이커리 > 와플대학",
        "distance": "601"
      },
      {
        "name": "와플대학 종암캠퍼스",
        "latitude": 37.59782478823329,
        "longitude": 127.03270752294581,
        "address": "서울 성북구 종암동 53-20",
        "road_address": "서울 성북구 종암로19길 37",
        "phone": "02-6082-1114",
        "category": "음식점 > 간식 > 제과,베이커리 > 와플대학",
        "distance": "608"
      },
      {
        "name": "동덕여자대학교 제2생활관",
        "latitude": 37.600992541567095,
        "longitude": 127.03317546799266,
        "address": "서울 성북구 종암동 3-1343",
        "road_address": "서울 성북구 종암로 123",
        "phone": "02-940-4913",
        "category": "부동산 > 주거시설 > 기숙사,기숙시설",
        "distance": "674"
      }
    ]
  }
}