{
  "key": "90ecc0fab3f27172ea8f5b5524e1ee48f122d2ee4eea141ed3e488c7bf66497c",
  "tool": "PlaceSearch_kakao",
  "created_at": "2025-12-15T08:26:23.794459",
  "input_params": {
    "keyword": "경희대학교",
    "page": 1,
    "radius": 5000,
    "size": 5,
    "sort": "accuracy",
    "x": 127.04773632414528,
    "y": 37.57997010526071
  },
  "raw_args": {
    "keyword": "경희대학교",
    "x": 127.04773632414528,
    "y": 37.57997010526071,
    "page": 1,
    "size": 5,
    "radius": 5000,
    "sort": "accuracy"
  },
  "data": {
    "keyword": "경희대학교",
    "total_count": 543,
    "places": [
      {
        "name": "경희대학교 서울캠퍼스",
        "latitude": 37.5971656623384,
        "longitude": 127.05173889409078,
        "address": "서울 동대문구 회기동 1-5",
        "road_address": "서울 동대문구 경희대로 26",
        "phone": "02-961-0114",
        "category": "교육,학문 > 학교 > 대학교",
        "distance": "1941"
      },
      {
        "name": "경희대학교 서울캠퍼스 평화의전당",
        "latitude": 37.5986824730534,
        "longitude": 127.052773814646,
        "address": "서울 동대문구 회기동 1-5",
        "road_address": "서울 동대문구 경희대로 26",
        "phone": "02-961-9250",
        "category": "문화,예술 > 문화시설 > 공연장,연극극장",
        "distance": "2124"
      },
      {
        "name": "경희대학교 정문",
        "latitude": 37.5938315697917,
        "longitude": 127.052697920723,
        "address": "서울 동대문구 회기동 36-17",
        "road_address": "",
        "phone": "",
        "category": "교통,수송 > 입출구",
        "distance": "1599"
      },
      {
        "name": "경희대학교한방병원",
        "latitude": 37.5938571806208,
        "longitude": 127.051832850206,
        "address": "서울 동대문구 회기동 1-5",
        "road_address": "서울 동대문구 경희대로 23",
        "phone": "02-958-8114",
        "category": "의료,건강 > 병원 > 한방병원",
        "distance": "1583"
      },
      {
        "name": "경희대학교치과병원",
        "latitude": 37.59411424584499,
        "longitude": 127.05322238365355,
        "address": "서울 동대문구 회기동 1-5",
        "road_address": "서울 동대문구 경희대로 26",
        "phone": "02-958-8114",
        "category": "의료,건강 > 병원 > 치과",
        "distance": "1643"
      }
    ]
  }
}