{
  "key": "c9b8a5aba841f0e33a1dc3ae82c0fb66fd37e3fdf9ae90ccb29586c80be6ab79",
  "tool": "PlaceSearch_kakao",
  "created_at": "2025-10-27T18:59:34.267135",
  "input_params": {
    "keyword": "디저트",
    "page": 1,
    "radius": 1200,
    "size": 15,
    "sort": "accuracy",
    "x": 127.0276,
    "y": 37.4979
  },
  "raw_args": {
    "size": 15,
    "x": 127.0276,
    "y": 37.4979,
    "page": 1,
    "sort": "accuracy",
    "keyword": "디저트",
    "radius": 1200
  },
  "data": {
    "keyword": "디저트",
    "total_count": 148,
    "places": [
      {
        "name": "디저트39 강남 테헤란로점",
        "latitude": 37.4977283224454,
        "longitude": 127.029298371216,
        "address": "서울 강남구 역삼동 825-20",
        "road_address": "서울 강남구 테헤란로4길 6",
        "phone": "02-555-0390",
        "category": "음식점 > 카페 > 테마카페 > 디저트카페 > 디저트39",
        "distance": "151"
      },
      {
        "name": "썸띵어바웃커피",
        "latitude": 37.502824775159816,
        "longitude": 127.02779847587531,
        "address": "서울 강남구 역삼동 618-16",
        "road_address": "서울 강남구 강남대로102길 30",
        "phone": "",
        "category": "음식점 > 카페 > 테마카페 > 디저트카페",
        "distance": "546"
      },
      {
        "name": "룸카페 바니",
        "latitude": 37.499734261007006,
        "longitude": 127.02806874426594,
        "address": "서울 강남구 역삼동 818-1",
        "road_address": "서울 강남구 강남대로96길 12",
        "phone": "",
        "category": "음식점 > 카페 > 테마카페",
        "distance": "207"
      },
      {
        "name": "할리스 강남역점",
        "latitude": 37.49871619356776,
        "longitude": 127.02777433522404,
        "address": "서울 강남구 역삼동 820-11",
        "road_address": "서울 강남구 강남대로 402",
        "phone": "02-555-0890",
        "category": "음식점 > 카페 > 커피전문점 > 할리스",
        "distance": "91"
      },
      {
        "name": "코드케이 강남점",
        "latitude": 37.502652112596074,
        "longitude": 127.02635646822918,
        "address": "서울 강남구 역삼동 813-4",
        "road_address": "서울 강남구 봉은사로2길 31",
        "phone": "02-501-8245",
        "category": "음식점 > 카페 > 테마카페",
        "distance": "538"
      },
      {
        "name": "크리에잇쿠키 역삼점",
        "latitude": 37.50292193725799,
        "longitude": 127.03511569524726,
        "address": "서울 강남구 역삼동 641-1",
        "road_address": "서울 강남구 테헤란로25길 36",
        "phone": "02-558-8890",
        "category": "음식점 > 카페 > 테마카페 > 디저트카페",
        "distance": "867"
      },
      {
        "name": "주인장",
        "latitude": 37.500762077096,
        "longitude": 127.025094841817,
        "address": "서울 서초구 서초동 1308-11",
        "road_address": "서울 서초구 서초대로75길 36",
        "phone": "010-9963-9057",
        "category": "음식점 > 술집 > 호프,요리주점",
        "distance": "387"
      },
      {
        "name": "에이비카페",
        "latitude": 37.5028968235922,
        "longitude": 127.027934215372,
        "address": "서울 강남구 역삼동 618-15",
        "road_address": "서울 강남구 강남대로102길 32",
        "phone": "02-566-2052",
        "category": "음식점 > 카페",
        "distance": "555"
      },
      {
        "name": "애슐리퀸즈 강남역점",
        "latitude": 37.4920930104028,
        "longitude": 127.030926750248,
        "address": "서울 강남구 역삼동 832-5",
        "road_address": "서울 강남구 강남대로 324",
        "phone": "0507-1415-9514",
        "category": "음식점 > 패밀리레스토랑 > 애슐리",
        "distance": "708"
      },
      {
        "name": "팡뮤제 강남본점",
        "latitude": 37.4962481668029,
        "longitude": 127.032007284629,
        "address": "서울 강남구 역삼동 827-64",
        "road_address": "서울 강남구 테헤란로8길 40",
        "phone": "",
        "category": "음식점 > 간식 > 제과,베이커리",
        "distance": "430"
      },
      {
        "name": "퍼스트커피랩 강남역점",
        "latitude": 37.502692295323,
        "longitude": 127.027934139172,
        "address": "서울 강남구 역삼동 618-18",
        "road_address": "서울 강남구 봉은사로6길 39",
        "phone": "02-555-7679",
        "category": "음식점 > 간식 > 제과,베이커리",
        "distance": "532"
      },
      {
        "name": "스크렘",
        "latitude": 37.50372608718901,
        "longitude": 127.02646428623794,
        "address": "서울 강남구 역삼동 811",
        "road_address": "서울 강남구 봉은사로4길 17",
        "phone": "",
        "category": "음식점 > 카페",
        "distance": "654"
      },
      {
        "name": "어퍼앤언더",
        "latitude": 37.5027373946275,
        "longitude": 127.027726063481,
        "address": "서울 강남구 역삼동 618-17",
        "road_address": "서울 강남구 강남대로102길 28",
        "phone": "",
        "category": "음식점 > 카페 > 테마카페 > 디저트카페",
        "distance": "536"
      },
      {
        "name": "김영모과자점 서초동성당점",
        "latitude": 37.4937764144473,
        "longitude": 127.021317886112,
        "address": "서울 서초구 서초동 1635-1",
        "road_address": "서울 서초구 서초대로64길 41-4",
        "phone": "02-3473-5484",
        "category": "음식점 > 간식 > 제과,베이커리 > 김영모과자점",
        "distance": "720"
      },
      {
        "name": "크라프트카페",
        "latitude": 37.5033363584559,
        "longitude": 127.028585804312,
        "address": "서울 강남구 역삼동 618-4",
        "road_address": "서울 강남구 강남대로102길 38-5",
        "phone": "070-4667-2436",
        "category": "음식점 > 카페",
        "distance": "609"
      }
    ]
  }
}