{
  "key": "0da2d5dcced16daef0d6b9e9263e02d6182cbabf2a5a18af21987ce6b51885bc",
  "tool": "PlaceSearch_kakao",
  "created_at": "2025-10-27T03:18:31.427922",
  "input_params": {
    "keyword": "병원",
    "page": 1,
    "radius": 500,
    "size": 10,
    "sort": "accuracy",
    "x": 127.0316,
    "y": 37.5733
  },
  "raw_args": {
    "keyword": "병원",
    "x": 127.0316,
    "y": 37.5733,
    "page": 1,
    "size": 10,
    "radius": 500
  },
  "data": {
    "keyword": "병원",
    "total_count": 30,
    "places": [
      {
        "name": "서울특별시 동부병원",
        "latitude": 37.5753976288057,
        "longitude": 127.031402662859,
        "address": "서울 동대문구 용두동 118-20",
        "road_address": "서울 동대문구 무학로 124",
        "phone": "02-920-9114",
        "category": "의료,건강 > 병원 > 시도립병원",
        "distance": "233"
      },
      {
        "name": "왕십리휴병원",
        "latitude": 37.57207310750505,
        "longitude": 127.03083527438126,
        "address": "서울 동대문구 용두동 129-36",
        "road_address": "서울 동대문구 무학로 88",
        "phone": "02-927-6501",
        "category": "의료,건강 > 병원",
        "distance": "151"
      },
      {
        "name": "김승일마취과의원",
        "latitude": 37.573739784305,
        "longitude": 127.031456303211,
        "address": "서울 동대문구 용두동 122-52",
        "road_address": "서울 동대문구 천호대로 72",
        "phone": "02-927-2471",
        "category": "의료,건강 > 병원 > 통증클리닉",
        "distance": "50"
      },
      {
        "name": "보아스이비인후과의원",
        "latitude": 37.57770027919014,
        "longitude": 127.03247909660338,
        "address": "서울 동대문구 용두동 104-3",
        "road_address": "서울 동대문구 왕산로 86",
        "phone": "02-928-4124",
        "category": "의료,건강 > 병원 > 이비인후과",
        "distance": "494"
      },
      {
        "name": "성모수내과의원",
        "latitude": 37.5772521989384,
        "longitude": 127.03016156804,
        "address": "서울 동대문구 용두동 234-1",
        "road_address": "서울 동대문구 왕산로 60-1",
        "phone": "02-929-7555",
        "category": "의료,건강 > 병원 > 내과",
        "distance": "456"
      },
      {
        "name": "중앙정형외과의원",
        "latitude": 37.5768112037468,
        "longitude": 127.02817010224,
        "address": "서울 동대문구 용두동 236-59",
        "road_address": "서울 동대문구 왕산로 42",
        "phone": "02-953-2282",
        "category": "의료,건강 > 병원 > 정형외과",
        "distance": "493"
      },
      {
        "name": "백운당한의원",
        "latitude": 37.5760032663454,
        "longitude": 127.03075991587,
        "address": "서울 동대문구 용두동 119-41",
        "road_address": "서울 동대문구 무학로 132",
        "phone": "02-922-7799",
        "category": "의료,건강 > 병원 > 한의원",
        "distance": "309"
      },
      {
        "name": "서울아람치과의원",
        "latitude": 37.5776065751805,
        "longitude": 127.03248132004,
        "address": "서울 동대문구 용두동 104-3",
        "road_address": "서울 동대문구 왕산로 86",
        "phone": "02-6239-2875",
        "category": "의료,건강 > 병원 > 치과",
        "distance": "484"
      },
      {
        "name": "지영욱치과의원",
        "latitude": 37.577776194457,
        "longitude": 127.031625547736,
        "address": "서울 동대문구 용두동 112-5",
        "road_address": "서울 동대문구 왕산로 74-1",
        "phone": "02-926-2875",
        "category": "의료,건강 > 병원 > 치과",
        "distance": "496"
      },
      {
        "name": "서울특별시동부병원 응급실",
        "latitude": 37.575236223974876,
        "longitude": 127.03187578485763,
        "address": "서울 동대문구 용두동 118-20",
        "road_address": "서울 동대문구 무학로 124",
        "phone": "02-920-9114",
        "category": "의료,건강 > 병원 > 응급실",
        "distance": "216"
      }
    ]
  }
}