{
  "key": "0db9e55b6c9b55f2c20309a96bae137bbc4548d65eeb7a64005561b3c76884c1",
  "tool": "PlaceSearch_kakao",
  "created_at": "2025-10-26T12:06:22.955343",
  "input_params": {
    "keyword": "시흥시청 맛집",
    "page": 1,
    "size": 10,
    "sort": "accuracy"
  },
  "raw_args": {
    "keyword": "시흥시청 맛집",
    "page": 1,
    "size": 10,
    "sort": "accuracy"
  },
  "data": {
    "keyword": "시흥시청 맛집",
    "total_count": 819,
    "places": [
      {
        "name": "오 왕서방짬뽕",
        "latitude": 37.3811410423075,
        "longitude": 126.802261516649,
        "address": "경기 시흥시 장현동 547-5",
        "road_address": "경기 시흥시 새재로 19",
        "phone": "031-404-3700",
        "category": "음식점 > 중식 > 중국요리",
        "distance": ""
      },
      {
        "name": "컴포즈커피 시흥시청점",
        "latitude": 37.3815358716531,
        "longitude": 126.802370003914,
        "address": "경기 시흥시 장현동 547-1",
        "road_address": "경기 시흥시 새재로 23-2",
        "phone": "031-315-8080",
        "category": "음식점 > 카페 > 커피전문점 > 컴포즈커피",
        "distance": ""
      },
      {
        "name": "빽다방 시흥시청점",
        "latitude": 37.37902764329338,
        "longitude": 126.80358356744095,
        "address": "경기 시흥시 장현동 671-4",
        "road_address": "경기 시흥시 시청로 33",
        "phone": "070-8770-4793",
        "category": "음식점 > 카페 > 커피전문점 > 빽다방",
        "distance": ""
      },
      {
        "name": "파네보꾸덮밥 철판요리",
        "latitude": 37.3819161657596,
        "longitude": 126.800796143496,
        "address": "경기 시흥시 장현동 533-3",
        "road_address": "경기 시흥시 새재로17번길 17",
        "phone": "",
        "category": "음식점 > 철판요리",
        "distance": ""
      },
      {
        "name": "본도시락 시흥시청점",
        "latitude": 37.380911428998196,
        "longitude": 126.80073895866772,
        "address": "경기 시흥시 장현동 545-5",
        "road_address": "경기 시흥시 시청로68번길 10",
        "phone": "031-312-4282",
        "category": "음식점 > 도시락 > 본도시락",
        "distance": ""
      },
      {
        "name": "이루다제면소 시흥시청직영점",
        "latitude": 37.3785597641041,
        "longitude": 126.802352973934,
        "address": "경기 시흥시 장현동 673-2",
        "road_address": "경기 시흥시 시청전원마을길 3-1",
        "phone": "",
        "category": "음식점 > 일식 > 돈까스,우동",
        "distance": ""
      },
      {
        "name": "초심 시흥연성점",
        "latitude": 37.38163812897424,
        "longitude": 126.80209536071762,
        "address": "경기 시흥시 장현동 546-1",
        "road_address": "경기 시흥시 시청로68번길 26",
        "phone": "031-435-7778",
        "category": "음식점 > 한식 > 육류,고기 > 갈비",
        "distance": ""
      },
      {
        "name": "김가네낙지",
        "latitude": 37.3808977443241,
        "longitude": 126.80117369971,
        "address": "경기 시흥시 장현동 544-5",
        "road_address": "경기 시흥시 새재로7번길 6-1",
        "phone": "031-317-0688",
        "category": "음식점 > 한식 > 해물,생선",
        "distance": ""
      },
      {
        "name": "라스베이글 시흥시청지점",
        "latitude": 37.3789489796679,
        "longitude": 126.802876972082,
        "address": "경기 시흥시 장현동 671-2",
        "road_address": "경기 시흥시 시청로 37",
        "phone": "",
        "category": "음식점 > 카페",
        "distance": ""
      },
      {
        "name": "카페 리트",
        "latitude": 37.3772126740471,
        "longitude": 126.802316992173,
        "address": "경기 시흥시 장현동 681-4",
        "road_address": "경기 시흥시 시청전원마을길 53",
        "phone": "",
        "category": "음식점 > 카페",
        "distance": ""
      }
    ]
  }
}