{
  "key": "a08a7ed07befe66259580bf45b831e2f3660d1c79d5cd0535f06a1ae710087b4",
  "tool": "PlaceSearch_kakao",
  "created_at": "2025-12-16T02:58:11.392025",
  "input_params": {
    "keyword": "병원",
    "radius": 1000,
    "sort": "distance",
    "x": 127.032319,
    "y": 37.589527
  },
  "raw_args": {
    "keyword": "병원",
    "x": 127.032319,
    "y": 37.589527,
    "radius": 1000,
    "sort": "distance"
  },
  "data": {
    "keyword": "병원",
    "total_count": 104,
    "places": [
      {
        "name": "고려대학교의료원 안암병원 어린이집",
        "latitude": 37.59104095803628,
        "longitude": 127.03032225303645,
        "address": "서울 성북구 안암동5가 산 1-61",
        "road_address": "서울 성북구 안암로 145",
        "phone": "02-921-6585",
        "category": "교육,학문 > 유아교육 > 어린이집",
        "distance": "243"
      },
      {
        "name": "고려한의원",
        "latitude": 37.58673337190651,
        "longitude": 127.03343973601824,
        "address": "서울 동대문구 제기동 137-131",
        "road_address": "서울 동대문구 안암로 130",
        "phone": "02-926-2625",
        "category": "의료,건강 > 병원 > 한의원",
        "distance": "325"
      },
      {
        "name": "사람인치과의원",
        "latitude": 37.58649457438366,
        "longitude": 127.03022643585435,
        "address": "서울 성북구 안암동5가 99",
        "road_address": "서울 성북구 고려대로27길 4",
        "phone": "02-929-2857",
        "category": "의료,건강 > 병원 > 치과",
        "distance": "384"
      },
      {
        "name": "함주학원",
        "latitude": 37.5887236412074,
        "longitude": 127.036557675382,
        "address": "서울 동대문구 제기동 136-81",
        "road_address": "서울 동대문구 안암로26길 15",
        "phone": "",
        "category": "의료,건강 > 병원 > 한의원",
        "distance": "384"
      },
      {
        "name": "위드치과의원",
        "latitude": 37.586703778120906,
        "longitude": 127.02954153545198,
        "address": "서울 성북구 안암동5가 101-3",
        "road_address": "서울 성북구 개운사길 8",
        "phone": "02-925-2874",
        "category": "의료,건강 > 병원 > 치과",
        "distance": "398"
      },
      {
        "name": "고려대안암병원 주차장",
        "latitude": 37.5878006486128,
        "longitude": 127.02805649207909,
        "address": "서울 성북구 안암동5가 126-1",
        "road_address": "서울 성북구 고려대로 73",
        "phone": "",
        "category": "교통,수송 > 교통시설 > 주차장",
        "distance": "422"
      },
      {
        "name": "닥터민치과의원",
        "latitude": 37.58661737013556,
        "longitude": 127.02919051766116,
        "address": "서울 성북구 안암동5가 101-19",
        "road_address": "서울 성북구 개운사길 5",
        "phone": "02-925-2879",
        "category": "의료,건강 > 병원 > 치과",
        "distance": "425"
      },
      {
        "name": "에이치앤비의원",
        "latitude": 37.5864623976989,
        "longitude": 127.029197250362,
        "address": "서울 성북구 안암동5가 101-53",
        "road_address": "서울 성북구 고려대로 89",
        "phone": "02-923-5905",
        "category": "의료,건강 > 병원 > 일반의원",
        "distance": "437"
      },
      {
        "name": "서울의원",
        "latitude": 37.58609921620851,
        "longitude": 127.02952431357085,
        "address": "서울 성북구 안암동5가 101-51",
        "road_address": "서울 성북구 고려대로 92",
        "phone": "02-997-2682",
        "category": "의료,건강 > 병원 > 일반의원",
        "distance": "453"
      },
      {
        "name": "스타벅스 고대안암병원점",
        "latitude": 37.587014067220345,
        "longitude": 127.02811846846494,
        "address": "서울 성북구 안암동5가 126-1",
        "road_address": "서울 성북구 고려대로 73",
        "phone": "1522-3232",
        "category": "음식점 > 카페 > 커피전문점 > 스타벅스",
        "distance": "464"
      },
      {
        "name": "휴앤힐 정신건강의학과의원",
        "latitude": 37.5856694411943,
        "longitude": 127.029529804783,
        "address": "서울 성북구 안암동5가 102-50",
        "road_address": "서울 성북구 고려대로24길 11",
        "phone": "02-922-1183",
        "category": "의료,건강 > 병원 > 정신건강의학과",
        "distance": "494"
      },
      {
        "name": "고려대학교 안암병원 메디컴플렉스 신관",
        "latitude": 37.58726199086305,
        "longitude": 127.02747886021395,
        "address": "서울 성북구 안암동5가 126-1",
        "road_address": "서울 성북구 고려대로 73",
        "phone": "1577-0083",
        "category": "의료,건강 > 병원 > 대학병원",
        "distance": "495"
      },
      {
        "name": "동성제일한의원",
        "latitude": 37.585110331996155,
        "longitude": 127.03144070793093,
        "address": "서울 성북구 안암동5가 86-10",
        "road_address": "서울 성북구 안암로 105",
        "phone": "0502-5553-2736",
        "category": "의료,건강 > 병원 > 한의원",
        "distance": "496"
      },
      {
        "name": "이마트24 고려대안암병원신관점",
        "latitude": 37.587264697793486,
        "longitude": 127.02746187798242,
        "address": "서울 성북구 안암동5가 126-1",
        "road_address": "서울 성북구 고려대로 73",
        "phone": "",
        "category": "가정,생활 > 편의점 > 이마트24",
        "distance": "496"
      },
      {
        "name": "고려대학교 의과대학본관",
        "latitude": 37.5885082210814,
        "longitude": 127.02679431682276,
        "address": "서울 성북구 안암동5가 126-28",
        "road_address": "서울 성북구 고려대로 73",
        "phone": "02-2286-1125",
        "category": "교육,학문 > 학교부속시설",
        "distance": "500"
      }
    ]
  }
}