{
  "key": "ef4a9bb824cf199b3314c06363d3636ac0076ac608c2e128cf6b150686221dee",
  "tool": "PlaceSearch_kakao",
  "created_at": "2025-10-20T14:23:02.836739",
  "input_params": {
    "keyword": "병원",
    "radius": 2000,
    "sort": "distance",
    "x": 126.9799,
    "y": 37.5918
  },
  "raw_args": {
    "keyword": "병원",
    "x": 126.9799,
    "y": 37.5918,
    "radius": 2000,
    "sort": "distance"
  },
  "data": {
    "keyword": "병원",
    "total_count": 107,
    "places": [
      {
        "name": "한국중입자암치료센터 서울사무소",
        "latitude": 37.587588151928,
        "longitude": 126.9818539094858,
        "address": "서울 종로구 삼청동 20-7",
        "road_address": "서울 종로구 삼청로 138",
        "phone": "1877-7512",
        "category": "의료,건강 > 병원 > 의료센터",
        "distance": "498"
      },
      {
        "name": "감사원부속치과의원",
        "latitude": 37.587029043395,
        "longitude": 126.984736655845,
        "address": "서울 종로구 삼청동 25-23",
        "road_address": "서울 종로구 북촌로 112",
        "phone": "02-2011-3237",
        "category": "의료,건강 > 병원 > 치과",
        "distance": "680"
      },
      {
        "name": "우주연한의원",
        "latitude": 37.5830333375369,
        "longitude": 126.986358711955,
        "address": "서울 종로구 가회동 11-71",
        "road_address": "서울 종로구 북촌로12길 41",
        "phone": "02-745-7511",
        "category": "의료,건강 > 병원 > 한의원",
        "distance": "1128"
      },
      {
        "name": "선동물병원",
        "latitude": 37.5844511752992,
        "longitude": 126.969981577937,
        "address": "서울 종로구 신교동 70-10",
        "road_address": "서울 종로구 자하문로 95",
        "phone": "02-733-6030",
        "category": "가정,생활 > 반려동물 > 동물병원",
        "distance": "1196"
      },
      {
        "name": "동남정신과의원",
        "latitude": 37.5799197396747,
        "longitude": 126.981478780135,
        "address": "서울 종로구 소격동 125",
        "road_address": "서울 종로구 북촌로5길 64",
        "phone": "02-363-0412",
        "category": "의료,건강 > 병원 > 정신건강의학과",
        "distance": "1326"
      },
      {
        "name": "청남한의원",
        "latitude": 37.5803409769044,
        "longitude": 126.98479009834091,
        "address": "서울 종로구 가회동 170-4",
        "road_address": "서울 종로구 북촌로 39",
        "phone": "02-763-7510",
        "category": "의료,건강 > 병원 > 한의원",
        "distance": "1343"
      },
      {
        "name": "강남의원",
        "latitude": 37.5812511675774,
        "longitude": 126.971271219935,
        "address": "서울 종로구 창성동 158-6",
        "road_address": "서울 종로구 자하문로 58",
        "phone": "02-737-2880",
        "category": "의료,건강 > 병원 > 일반의원",
        "distance": "1397"
      },
      {
        "name": "하늘치과의원",
        "latitude": 37.5812691708979,
        "longitude": 126.971203285559,
        "address": "서울 종로구 창성동 158-5",
        "road_address": "서울 종로구 자하문로 58",
        "phone": "02-737-2804",
        "category": "의료,건강 > 병원 > 치과",
        "distance": "1398"
      },
      {
        "name": "곽내과의원",
        "latitude": 37.581253855387715,
        "longitude": 126.97120895207867,
        "address": "서울 종로구 창성동 158-6",
        "road_address": "서울 종로구 자하문로 58",
        "phone": "02-735-5135",
        "category": "의료,건강 > 병원 > 내과",
        "distance": "1399"
      },
      {
        "name": "자비손한의원",
        "latitude": 37.57994933469983,
        "longitude": 126.98723891971615,
        "address": "서울 종로구 계동 125-2",
        "road_address": "서울 종로구 계동2길 9",
        "phone": "02-747-3399",
        "category": "의료,건강 > 병원 > 한의원",
        "distance": "1466"
      },
      {
        "name": "늘고운한의원",
        "latitude": 37.57876611740531,
        "longitude": 126.9854074058041,
        "address": "서울 종로구 재동 49-6",
        "road_address": "서울 종로구 북촌로 22",
        "phone": "02-766-5447",
        "category": "의료,건강 > 병원 > 한의원",
        "distance": "1526"
      },
      {
        "name": "최치원치과의원",
        "latitude": 37.5879003395694,
        "longitude": 126.996576152298,
        "address": "서울 종로구 명륜1가 15",
        "road_address": "서울 종로구 명륜길 2",
        "phone": "02-747-2875",
        "category": "의료,건강 > 병원 > 치과",
        "distance": "1535"
      },
      {
        "name": "김패밀리의원",
        "latitude": 37.58712457879887,
        "longitude": 126.99637465391372,
        "address": "서울 종로구 명륜3가 7-2",
        "road_address": "서울 종로구 성균관로 49-1",
        "phone": "02-765-1777",
        "category": "의료,건강 > 병원 > 피부과",
        "distance": "1545"
      },
      {
        "name": "안국의원",
        "latitude": 37.578184747205,
        "longitude": 126.983659591403,
        "address": "서울 종로구 안국동 52-5",
        "road_address": "서울 종로구 윤보선길 48",
        "phone": "02-326-1101",
        "category": "의료,건강 > 병원 > 안과",
        "distance": "1547"
      },
      {
        "name": "서촌정신건강의학과의원",
        "latitude": 37.578865754728,
        "longitude": 126.973047250332,
        "address": "서울 종로구 통의동 20-7",
        "road_address": "서울 종로구 효자로7길 14",
        "phone": "02-730-7352",
        "category": "의료,건강 > 병원 > 정신건강의학과",
        "distance": "1558"
      }
    ]
  }
}