{
  "key": "175985824960ac1845ed8f8616eb3f3545517324e0a5cd04e8371327721f860d",
  "tool": "PlaceSearch_kakao",
  "created_at": "2025-12-19T05:17:28.461231",
  "input_params": {
    "keyword": "파스타",
    "radius": 500,
    "size": 10,
    "sort": "accuracy",
    "x": 127.02758,
    "y": 37.4979
  },
  "raw_args": {
    "keyword": "파스타",
    "x": 127.02758,
    "y": 37.4979,
    "size": 10,
    "sort": "accuracy",
    "radius": 500
  },
  "data": {
    "keyword": "파스타",
    "total_count": 68,
    "places": [
      {
        "name": "닥터로빈시그니처 서초점",
        "latitude": 37.4966332657545,
        "longitude": 127.026914121286,
        "address": "서울 서초구 서초동 1320-10",
        "road_address": "서울 서초구 서초대로74길 11",
        "phone": "02-522-3101",
        "category": "음식점 > 양식 > 이탈리안",
        "distance": "152"
      },
      {
        "name": "라그릴리아 SPC스퀘어점",
        "latitude": 37.49437283454316,
        "longitude": 127.02985341955451,
        "address": "서울 강남구 역삼동 831-23",
        "road_address": "서울 강남구 강남대로 352",
        "phone": "02-567-9192",
        "category": "음식점 > 양식 > 이탈리안 > 라그릴리아",
        "distance": "440"
      },
      {
        "name": "노리타",
        "latitude": 37.5008247672713,
        "longitude": 127.02682515299,
        "address": "서울 강남구 역삼동 815-4",
        "road_address": "서울 강남구 강남대로 428",
        "phone": "02-566-7776",
        "category": "음식점 > 양식 > 이탈리안",
        "distance": "331"
      },
      {
        "name": "마노디셰프 강남점",
        "latitude": 37.4998701131357,
        "longitude": 127.03237184760155,
        "address": "서울 강남구 역삼동 648-9",
        "road_address": "서울 강남구 테헤란로 129",
        "phone": "02-553-5311",
        "category": "음식점 > 양식 > 이탈리안",
        "distance": "476"
      },
      {
        "name": "벌툰 엔틱 강남역점",
        "latitude": 37.5007307950853,
        "longitude": 127.027978644718,
        "address": "서울 강남구 역삼동 817-35",
        "road_address": "서울 강남구 강남대로98길 16",
        "phone": "02-569-4976",
        "category": "가정,생활 > 여가시설 > 만화방 > 만화카페 > 벌툰",
        "distance": "315"
      },
      {
        "name": "더플라잉팬 레드",
        "latitude": 37.4980931286224,
        "longitude": 127.025874247186,
        "address": "서울 서초구 서초동 1317-27",
        "road_address": "서울 서초구 서초대로 411",
        "phone": "02-590-2488",
        "category": "음식점 > 양식",
        "distance": "152"
      },
      {
        "name": "로리스더프라임립",
        "latitude": 37.49808140984054,
        "longitude": 127.02590025308936,
        "address": "서울 서초구 서초동 1317-23",
        "road_address": "서울 서초구 서초대로 411",
        "phone": "02-590-2800",
        "category": "음식점 > 양식 > 스테이크,립",
        "distance": "149"
      },
      {
        "name": "아실라",
        "latitude": 37.5007307897262,
        "longitude": 127.02800126286,
        "address": "서울 강남구 역삼동 817-35",
        "road_address": "서울 강남구 강남대로98길 16",
        "phone": "02-508-4665",
        "category": "음식점 > 술집",
        "distance": "316"
      },
      {
        "name": "킴브로스피자&파스타 강남직영점",
        "latitude": 37.499850311124106,
        "longitude": 127.03229833094886,
        "address": "서울 강남구 역삼동 648-9",
        "road_address": "서울 강남구 테헤란로 129",
        "phone": "",
        "category": "음식점 > 양식 > 이탈리안",
        "distance": "469"
      },
      {
        "name": "벌툰 파리지앵 강남본점",
        "latitude": 37.50026197173603,
        "longitude": 127.02531519997575,
        "address": "서울 서초구 서초동 1307-18",
        "road_address": "서울 서초구 강남대로65길 7",
        "phone": "02-533-4976",
        "category": "가정,생활 > 여가시설 > 만화방 > 만화카페 > 벌툰",
        "distance": "329"
      }
    ]
  }
}