{
  "key": "17a9cf500e93d3d6674eda9d941d12fd6843847f729ffc0a5138cd9c2310ea9d",
  "tool": "PlaceSearch_kakao",
  "created_at": "2025-10-26T11:21:52.687444",
  "input_params": {
    "keyword": "디저트 카페",
    "radius": 500,
    "size": 5,
    "sort": "distance",
    "x": 127.02682596950103,
    "y": 37.503107014775864
  },
  "raw_args": {
    "keyword": "디저트 카페",
    "x": 127.02682596950103,
    "y": 37.503107014775864,
    "size": 5,
    "radius": 500,
    "sort": "distance"
  },
  "data": {
    "keyword": "디저트 카페",
    "total_count": 33,
    "places": [
      {
        "name": "까치화방 강남역점",
        "latitude": 37.503303460371576,
        "longitude": 127.02670955234811,
        "address": "서울 강남구 역삼동 811-13",
        "road_address": "서울 강남구 봉은사로4길 23",
        "phone": "02-558-5533",
        "category": "음식점 > 카페 > 테마카페 > 디저트카페",
        "distance": "24"
      },
      {
        "name": "본부케",
        "latitude": 37.5030692402211,
        "longitude": 127.02652625623,
        "address": "서울 강남구 역삼동 810-10",
        "road_address": "서울 강남구 강남대로106길 11",
        "phone": "02-567-3365",
        "category": "음식점 > 카페",
        "distance": "26"
      },
      {
        "name": "아란로빈",
        "latitude": 37.5028961296973,
        "longitude": 127.027044165443,
        "address": "서울 강남구 역삼동 812-7",
        "road_address": "서울 강남구 봉은사로4길 31-3",
        "phone": "0507-1352-9306",
        "category": "음식점 > 카페",
        "distance": "30"
      },
      {
        "name": "한과와락",
        "latitude": 37.50292854125962,
        "longitude": 127.02715161646698,
        "address": "서울 강남구 역삼동 812-6",
        "road_address": "서울 강남구 봉은사로4길 31-5",
        "phone": "010-9744-6204",
        "category": "음식점 > 간식 > 떡,한과",
        "distance": "34"
      },
      {
        "name": "스크렘",
        "latitude": 37.50372608718901,
        "longitude": 127.02646428623794,
        "address": "서울 강남구 역삼동 811",
        "road_address": "서울 강남구 봉은사로4길 17",
        "phone": "",
        "category": "음식점 > 카페",
        "distance": "75"
      }
    ]
  }
}