{
  "key": "2872d3e11e23d8931dc8c45f48db1aba95bc1e20ac111e15264fba52f8bbf472",
  "tool": "PlaceSearch_kakao",
  "created_at": "2025-10-27T10:59:34.644751",
  "input_params": {
    "keyword": "카페",
    "radius": 1000,
    "sort": "accuracy",
    "x": 126.9787,
    "y": 37.5665
  },
  "raw_args": {
    "keyword": "카페",
    "x": 126.9787,
    "y": 37.5665,
    "radius": 1000,
    "sort": "accuracy"
  },
  "data": {
    "keyword": "카페",
    "total_count": 1017,
    "places": [
      {
        "name": "덕수궁 리에제와플",
        "latitude": 37.5647929393394,
        "longitude": 126.976452473606,
        "address": "서울 중구 태평로2가 365",
        "road_address": "서울 중구 덕수궁길 5",
        "phone": "02-318-5202",
        "category": "음식점 > 카페",
        "distance": "274"
      },
      {
        "name": "카페이마",
        "latitude": 37.5697306216335,
        "longitude": 126.977610035652,
        "address": "서울 종로구 세종로 139-8",
        "road_address": "서울 종로구 세종대로 152",
        "phone": "02-2020-2088",
        "category": "음식점 > 카페",
        "distance": "371"
      },
      {
        "name": "가배도 시청점",
        "latitude": 37.5634315063944,
        "longitude": 126.976314815893,
        "address": "서울 중구 태평로2가 329-12",
        "road_address": "서울 중구 세종대로 79",
        "phone": "0507-1390-2542",
        "category": "음식점 > 카페",
        "distance": "400"
      },
      {
        "name": "팀홀튼 서울시청점",
        "latitude": 37.56572510054965,
        "longitude": 126.97928643033805,
        "address": "서울 중구 을지로1가 188-3",
        "road_address": "서울 중구 을지로 16",
        "phone": "070-7450-1017",
        "category": "음식점 > 카페 > 커피전문점 > 팀홀튼",
        "distance": "100"
      },
      {
        "name": "블루보틀 광화문 카페",
        "latitude": 37.5694821789103,
        "longitude": 126.978868833851,
        "address": "서울 종로구 서린동 149",
        "road_address": "서울 종로구 청계천로 11",
        "phone": "1533-6906",
        "category": "음식점 > 카페 > 커피전문점 > 블루보틀",
        "distance": "331"
      },
      {
        "name": "롯데호텔서울 페닌슐라 라운지&바",
        "latitude": 37.56536318873118,
        "longitude": 126.98100246603234,
        "address": "서울 중구 을지로1가 140-1",
        "road_address": "서울 중구 을지로 30",
        "phone": "02-317-7131",
        "category": "음식점 > 카페",
        "distance": "239"
      },
      {
        "name": "쇼코엘 광화문점",
        "latitude": 37.56840092713372,
        "longitude": 126.97855219904167,
        "address": "서울 중구 무교동 97",
        "road_address": "서울 중구 세종대로 136",
        "phone": "02-3789-3245",
        "category": "음식점 > 카페",
        "distance": "211"
      },
      {
        "name": "마이시크릿덴",
        "latitude": 37.5647964965887,
        "longitude": 126.97621930624,
        "address": "서울 중구 태평로2가 367-1",
        "road_address": "서울 중구 덕수궁길 9",
        "phone": "",
        "category": "음식점 > 카페",
        "distance": "289"
      },
      {
        "name": "투썸플레이스 서소문점",
        "latitude": 37.563983689667346,
        "longitude": 126.9756875891481,
        "address": "서울 중구 서소문동 21-1",
        "road_address": "서울 중구 서소문로 135",
        "phone": "02-773-2388",
        "category": "음식점 > 카페 > 커피전문점 > 투썸플레이스",
        "distance": "385"
      },
      {
        "name": "포비 광화문점",
        "latitude": 37.5707345233255,
        "longitude": 126.97865114278854,
        "address": "서울 종로구 청진동 246",
        "road_address": "서울 종로구 종로3길 17",
        "phone": "02-2251-8125",
        "category": "음식점 > 카페",
        "distance": "470"
      },
      {
        "name": "스타벅스 을지로국제빌딩점",
        "latitude": 37.5670482592095,
        "longitude": 126.98234221842628,
        "address": "서울 중구 다동 111",
        "road_address": "서울 중구 남대문로 109",
        "phone": "1522-3232",
        "category": "음식점 > 카페 > 커피전문점 > 스타벅스",
        "distance": "327"
      },
      {
        "name": "스타벅스 시청점",
        "latitude": 37.566351383923966,
        "longitude": 126.97981258973314,
        "address": "서울 중구 을지로1가 50",
        "road_address": "서울 중구 을지로 19",
        "phone": "1522-3232",
        "category": "음식점 > 카페 > 커피전문점 > 스타벅스",
        "distance": "99"
      },
      {
        "name": "적당",
        "latitude": 37.566527245158646,
        "longitude": 126.98081427481779,
        "address": "서울 중구 을지로1가 87",
        "road_address": "서울 중구 을지로 29",
        "phone": "070-7543-8928",
        "category": "음식점 > 카페",
        "distance": "186"
      },
      {
        "name": "카페비온디앤",
        "latitude": 37.56369323514144,
        "longitude": 126.97861919651966,
        "address": "서울 중구 북창동 1-2",
        "road_address": "서울 중구 세종대로18길 28",
        "phone": "0503-7151-6714",
        "category": "음식점 > 카페",
        "distance": "311"
      },
      {
        "name": "라운드앤드",
        "latitude": 37.5660606555229,
        "longitude": 126.972363673049,
        "address": "서울 중구 정동 11-3",
        "road_address": "서울 중구 정동길 35",
        "phone": "",
        "category": "음식점 > 카페 > 테마카페 > 디저트카페",
        "distance": "562"
      }
    ]
  }
}