{
  "key": "28acae6c6344ab9fddf0de912d775fef75bb88778a7127d01e5db0d761927daf",
  "tool": "PlaceSearch_kakao",
  "created_at": "2025-10-26T18:24:21.242061",
  "input_params": {
    "keyword": "디저트 카페",
    "radius": 800,
    "sort": "accuracy",
    "x": 126909251,
    "y": 375215741
  },
  "raw_args": {
    "keyword": "디저트 카페",
    "x": 126909251,
    "y": 375215741,
    "radius": 800,
    "sort": "accuracy"
  },
  "data": {
    "keyword": "디저트 카페",
    "total_count": 25245,
    "places": [
      {
        "name": "홍만당 명동본점",
        "latitude": 37.5631545168875,
        "longitude": 126.984964502429,
        "address": "서울 중구 명동2가 32-8",
        "road_address": "서울 중구 명동8길 11-6",
        "phone": "02-777-4422",
        "category": "음식점 > 카페 > 테마카페 > 디저트카페",
        "distance": ""
      },
      {
        "name": "라운드앤드",
        "latitude": 37.5660606555229,
        "longitude": 126.972363673049,
        "address": "서울 중구 정동 11-3",
        "road_address": "서울 중구 정동길 35",
        "phone": "",
        "category": "음식점 > 카페 > 테마카페 > 디저트카페",
        "distance": ""
      },
      {
        "name": "크리에잇쿠키 광화문SFC몰점",
        "latitude": 37.5683990186442,
        "longitude": 126.977973783615,
        "address": "서울 중구 태평로1가 84",
        "road_address": "서울 중구 세종대로 136",
        "phone": "02-3789-8710",
        "category": "음식점 > 카페 > 테마카페 > 디저트카페",
        "distance": ""
      },
      {
        "name": "백미당 광화문점",
        "latitude": 37.5710715451676,
        "longitude": 126.978927247256,
        "address": "서울 종로구 청진동 246",
        "road_address": "서울 종로구 종로3길 17",
        "phone": "02-2251-8340",
        "category": "음식점 > 카페 > 테마카페 > 디저트카페",
        "distance": ""
      },
      {
        "name": "커피원",
        "latitude": 37.5713514457996,
        "longitude": 126.972986567923,
        "address": "서울 종로구 신문로1가 238",
        "road_address": "서울 종로구 새문안로3길 12",
        "phone": "",
        "category": "음식점 > 카페 > 테마카페 > 디저트카페",
        "distance": ""
      },
      {
        "name": "혜민당",
        "latitude": 37.56647779917071,
        "longitude": 126.98861308151253,
        "address": "서울 중구 을지로2가 101-37",
        "road_address": "서울 중구 삼일대로12길 16-9",
        "phone": "070-8833-4242",
        "category": "음식점 > 카페 > 테마카페 > 디저트카페",
        "distance": ""
      },
      {
        "name": "퀸즈베이커리카페",
        "latitude": 37.56098673510883,
        "longitude": 126.97914286957348,
        "address": "서울 중구 남창동 1-1",
        "road_address": "서울 중구 남대문로 30",
        "phone": "02-757-6543",
        "category": "음식점 > 카페 > 테마카페 > 디저트카페",
        "distance": ""
      },
      {
        "name": "설빙 명동점",
        "latitude": 37.5648337685592,
        "longitude": 126.983429341674,
        "address": "서울 중구 을지로2가 199-1",
        "road_address": "서울 중구 명동3길 27",
        "phone": "02-774-7994",
        "category": "음식점 > 카페 > 테마카페 > 디저트카페 > 설빙",
        "distance": ""
      },
      {
        "name": "노티드 종각하이커점",
        "latitude": 37.5685275835951,
        "longitude": 126.981617433085,
        "address": "서울 중구 다동 10",
        "road_address": "서울 중구 청계천로 40",
        "phone": "070-4205-0080",
        "category": "음식점 > 카페 > 테마카페 > 디저트카페 > 노티드",
        "distance": ""
      },
      {
        "name": "담장옆에 국화꽃 안녕인사동점",
        "latitude": 37.574467229476,
        "longitude": 126.983553993714,
        "address": "서울 종로구 관훈동 155-2",
        "road_address": "서울 종로구 인사동길 49",
        "phone": "02-6954-2979",
        "category": "음식점 > 카페 > 테마카페 > 디저트카페",
        "distance": ""
      },
      {
        "name": "빌리엔젤 종각역점",
        "latitude": 37.57194516915755,
        "longitude": 126.98233879838558,
        "address": "서울 종로구 공평동 144",
        "road_address": "서울 종로구 삼봉로 94",
        "phone": "02-2160-8488",
        "category": "음식점 > 카페 > 테마카페 > 디저트카페",
        "distance": ""
      },
      {
        "name": "설빙 서울종각점",
        "latitude": 37.56994720606352,
        "longitude": 126.98561287805883,
        "address": "서울 종로구 종로2가 84-1",
        "road_address": "서울 종로구 종로 74",
        "phone": "02-732-6777",
        "category": "음식점 > 카페 > 테마카페 > 디저트카페 > 설빙",
        "distance": ""
      },
      {
        "name": "브루클린커피 을지로",
        "latitude": 37.5668546649895,
        "longitude": 126.983162896074,
        "address": "서울 중구 수하동 65-1",
        "road_address": "서울 중구 남대문로10길 6",
        "phone": "",
        "category": "음식점 > 카페 > 테마카페 > 디저트카페",
        "distance": ""
      },
      {
        "name": "청수당 베이커리",
        "latitude": 37.57388138546145,
        "longitude": 126.98978471926921,
        "address": "서울 종로구 익선동 144",
        "road_address": "서울 종로구 돈화문로11나길 31-9",
        "phone": "",
        "category": "음식점 > 카페 > 테마카페 > 디저트카페",
        "distance": ""
      },
      {
        "name": "콤포타블 광화문",
        "latitude": 37.572257499199694,
        "longitude": 126.9803441619531,
        "address": "서울 종로구 청진동 1",
        "road_address": "서울 종로구 종로5길 46",
        "phone": "070-4148-6505",
        "category": "음식점 > 카페 > 테마카페 > 디저트카페",
        "distance": ""
      }
    ]
  }
}