{
  "key": "0023b84b9c5b4bec77869f8bd368d30611e092befa2fcd41b8a2b6523f4f3a84",
  "tool": "PlaceSearch_kakao",
  "created_at": "2025-12-16T00:35:25.654241",
  "input_params": {
    "keyword": "카페",
    "page": 1,
    "radius": 500,
    "size": 5,
    "sort": "distance",
    "x": 127.028,
    "y": 37.497
  },
  "raw_args": {
    "size": 5,
    "x": 127.028,
    "y": 37.497,
    "page": 1,
    "sort": "distance",
    "keyword": "카페",
    "radius": 500
  },
  "data": {
    "keyword": "카페",
    "total_count": 219,
    "places": [
      {
        "name": "스타벅스 강남역신분당역사점",
        "latitude": 37.49701321401818,
        "longitude": 127.02810165133745,
        "address": "서울 강남구 역삼동 858",
        "road_address": "",
        "phone": "1522-3232",
        "category": "음식점 > 카페 > 커피전문점 > 스타벅스",
        "distance": "9"
      },
      {
        "name": "카페 리퍼크",
        "latitude": 37.4970473257339,
        "longitude": 127.028628640989,
        "address": "서울 강남구 역삼동 825-11",
        "road_address": "서울 강남구 강남대로 382",
        "phone": "0507-1366-8208",
        "category": "음식점 > 카페",
        "distance": "55"
      },
      {
        "name": "스타벅스 강남R점",
        "latitude": 37.4976744709989,
        "longitude": 127.028443419181,
        "address": "서울 강남구 역삼동 825",
        "road_address": "서울 강남구 강남대로 390",
        "phone": "1522-3232",
        "category": "음식점 > 카페 > 커피전문점 > 스타벅스",
        "distance": "84"
      },
      {
        "name": "KKD 강남역점",
        "latitude": 37.4965742558101,
        "longitude": 127.02879921792,
        "address": "서울 강남구 역삼동 825-8",
        "road_address": "서울 강남구 강남대로 376",
        "phone": "",
        "category": "음식점 > 카페",
        "distance": "85"
      },
      {
        "name": "공차 강남역점",
        "latitude": 37.49798908894673,
        "longitude": 127.0277424016828,
        "address": "서울 강남구 역삼동 858",
        "road_address": "서울 강남구 강남대로 지하 396",
        "phone": "02-569-7344",
        "category": "음식점 > 카페 > 공차",
        "distance": "111"
      }
    ]
  }
}