{
  "key": "955730a50c67452fe9856da1aa10737052699e2dfb2d75796202158d0ad115e7",
  "tool": "PlaceSearch_kakao",
  "created_at": "2025-10-27T16:38:14.433671",
  "input_params": {
    "keyword": "조용한 카페",
    "size": 5,
    "sort": "accuracy",
    "x": 127.027698,
    "y": 37.498472
  },
  "raw_args": {
    "keyword": "조용한 카페",
    "x": 127.027698,
    "y": 37.498472,
    "size": 5,
    "sort": "accuracy"
  },
  "data": {
    "keyword": "조용한 카페",
    "total_count": 51,
    "places": [
      {
        "name": "조용한 사진관카페",
        "latitude": 36.1309842527656,
        "longitude": 127.10188373673152,
        "address": "충남 논산시 연무읍 동산리 888-1",
        "road_address": "충남 논산시 연무읍 안심로140번길 35",
        "phone": "010-5186-4353",
        "category": "음식점 > 카페",
        "distance": "151900"
      },
      {
        "name": "월정조용한카페앤펍",
        "latitude": 33.5562557023024,
        "longitude": 126.793621689659,
        "address": "제주특별자치도 제주시 구좌읍 월정리 600",
        "road_address": "제주특별자치도 제주시 구좌읍 월정1길 64-1",
        "phone": "010-4332-5794",
        "category": "음식점 > 카페",
        "distance": "437905"
      },
      {
        "name": "카페베이직먼트",
        "latitude": 37.5218261892523,
        "longitude": 127.037135872075,
        "address": "서울 강남구 논현동 92-7",
        "road_address": "서울 강남구 언주로150길 35",
        "phone": "0507-1379-6960",
        "category": "음식점 > 카페",
        "distance": "2723"
      },
      {
        "name": "옻칠갤러리카페",
        "latitude": 37.55679689448855,
        "longitude": 126.92244316808761,
        "address": "서울 마포구 동교동 158-16",
        "road_address": "서울 마포구 월드컵북로2길 33",
        "phone": "02-338-3636",
        "category": "음식점 > 카페",
        "distance": "11334"
      },
      {
        "name": "가성비카페",
        "latitude": 37.6079803617007,
        "longitude": 127.057344474933,
        "address": "서울 성북구 석관동 340-213",
        "road_address": "서울 성북구 화랑로32길 54-5",
        "phone": "010-9180-6592",
        "category": "음식점 > 카페 > 테마카페 > 무인카페",
        "distance": "12433"
      }
    ]
  }
}