{
  "key": "7950c8e274f781f702e0bae747857d78fd804be797ef87847c861b579b6ee56e",
  "tool": "PlaceSearch_kakao",
  "created_at": "2025-12-14T15:40:48.961413",
  "input_params": {
    "keyword": "강남역 카페",
    "radius": 1000,
    "size": 5,
    "sort": "accuracy",
    "x": 127.028,
    "y": 37.497
  },
  "raw_args": {
    "keyword": "강남역 카페",
    "x": 127.028,
    "y": 37.497,
    "radius": 1000,
    "sort": "accuracy",
    "size": 5
  },
  "data": {
    "keyword": "강남역 카페",
    "total_count": 609,
    "places": [
      {
        "name": "비트포비아 강남던전점",
        "latitude": 37.497583697643,
        "longitude": 127.031112213726,
        "address": "서울 강남구 역삼동 824-25",
        "road_address": "서울 강남구 강남대로84길 33",
        "phone": "02-555-4360",
        "category": "음식점 > 카페 > 테마카페",
        "distance": "282"
      },
      {
        "name": "스타벅스 몬테소리점",
        "latitude": 37.4983415831768,
        "longitude": 127.026874023027,
        "address": "서울 서초구 서초동 1318-8",
        "road_address": "서울 서초구 강남대로 399",
        "phone": "1522-3232",
        "category": "음식점 > 카페 > 커피전문점 > 스타벅스",
        "distance": "179"
      },
      {
        "name": "키이스케이프 강남 더오름",
        "latitude": 37.4966142182906,
        "longitude": 127.03109824138642,
        "address": "서울 강남구 역삼동 827-37",
        "road_address": "서울 강남구 테헤란로6길 30",
        "phone": "010-3776-6082",
        "category": "음식점 > 카페 > 테마카페",
        "distance": "277"
      },
      {
        "name": "쉼스토리",
        "latitude": 37.49454553431844,
        "longitude": 127.03099334872962,
        "address": "서울 강남구 역삼동 831-35",
        "road_address": "서울 강남구 역삼로3길 17",
        "phone": "070-7778-6441",
        "category": "음식점 > 카페 > 테마카페",
        "distance": "379"
      },
      {
        "name": "커피빈 강남역12번출구점",
        "latitude": 37.4988455657308,
        "longitude": 127.029316901779,
        "address": "서울 강남구 역삼동 822-5",
        "road_address": "서울 강남구 테헤란로 111",
        "phone": "02-569-5838",
        "category": "음식점 > 카페 > 커피전문점 > 커피빈",
        "distance": "235"
      }
    ]
  }
}