{
  "key": "437f47fcfa6e089fa8e8d69b3947361a3abaa43b259efde91f1df922575084c2",
  "tool": "PlaceSearch_kakao",
  "created_at": "2025-10-26T12:06:50.952084",
  "input_params": {
    "keyword": "강남역 애플 매장",
    "size": 5,
    "sort": "accuracy"
  },
  "raw_args": {
    "keyword": "강남역 애플 매장",
    "size": 5
  },
  "data": {
    "keyword": "강남역 애플 매장",
    "total_count": 36,
    "places": [
      {
        "name": "Apple 강남",
        "latitude": 37.5036902997713,
        "longitude": 127.025310702725,
        "address": "서울 강남구 역삼동 809",
        "road_address": "서울 강남구 강남대로 464",
        "phone": "080-500-0456",
        "category": "가정,생활 > 전자제품 > 전자제품서비스센터 > 통신기기수리 > Apple 공인서비스센터",
        "distance": ""
      },
      {
        "name": "애플",
        "latitude": 37.5012982208869,
        "longitude": 127.041029624075,
        "address": "서울 강남구 역삼동 719-18",
        "road_address": "서울 강남구 언주로87길 24",
        "phone": "010-3144-1175",
        "category": "가정,생활 > 유흥시설 > 유흥주점",
        "distance": ""
      },
      {
        "name": "KT 애플 공인 AS센터 강남점",
        "latitude": 37.49861270380347,
        "longitude": 127.0308955125936,
        "address": "서울 강남구 역삼동 824-20",
        "road_address": "서울 강남구 테헤란로 120",
        "phone": "02-557-0267",
        "category": "가정,생활 > 전자제품 > 전자제품서비스센터 > 통신기기수리",
        "distance": ""
      },
      {
        "name": "애플뮤직",
        "latitude": 37.503472061874646,
        "longitude": 127.03335167319348,
        "address": "서울 강남구 역삼동 626-31",
        "road_address": "서울 강남구 논현로99길 24",
        "phone": "02-2263-2616",
        "category": "문화,예술 > 음악 > 음반,레코드샵",
        "distance": ""
      },
      {
        "name": "애플산부인과의원 강남",
        "latitude": 37.49806055250073,
        "longitude": 127.02650525969585,
        "address": "서울 서초구 서초동 1317-20",
        "road_address": "서울 서초구 서초대로77길 3",
        "phone": "02-530-8500",
        "category": "의료,건강 > 병원 > 산부인과",
        "distance": ""
      }
    ]
  }
}