{
  "key": "43b5f22c58b277b056dc36269f365caa3a6ca6436b5f9bc1433c4e89596ac777",
  "tool": "PlaceSearch_kakao",
  "created_at": "2025-10-27T09:04:17.425668",
  "input_params": {
    "keyword": "맛집",
    "radius": 1000,
    "sort": "accuracy",
    "x": 126.9389,
    "y": 37.4957
  },
  "raw_args": {
    "keyword": "맛집",
    "radius": 1000,
    "x": 126.9389,
    "y": 37.4957
  },
  "data": {
    "keyword": "맛집",
    "total_count": 486,
    "places": [
      {
        "name": "플란츠앤플라",
        "latitude": 37.496046666974465,
        "longitude": 126.939049041216,
        "address": "서울 동작구 상도동 279-461",
        "road_address": "서울 동작구 성대로16길 67-5",
        "phone": "",
        "category": "음식점 > 카페 > 테마카페",
        "distance": "40"
      },
      {
        "name": "정선메밀고을",
        "latitude": 37.495779581747556,
        "longitude": 126.94371620365858,
        "address": "서울 동작구 상도동 214-201",
        "road_address": "서울 동작구 양녕로26길 63",
        "phone": "",
        "category": "음식점 > 한식",
        "distance": "426"
      },
      {
        "name": "시골집 상도점",
        "latitude": 37.4961074984323,
        "longitude": 126.943611920525,
        "address": "서울 동작구 상도동 215-3",
        "road_address": "서울 동작구 양녕로26길 56",
        "phone": "02-821-8889",
        "category": "음식점 > 한식 > 쌈밥",
        "distance": "419"
      },
      {
        "name": "동해해물탕",
        "latitude": 37.4968681627307,
        "longitude": 126.944063688127,
        "address": "서울 동작구 상도동 214-291",
        "road_address": "서울 동작구 양녕로22가길 67",
        "phone": "02-814-7700",
        "category": "음식점 > 한식 > 해물,생선 > 매운탕,해물탕",
        "distance": "474"
      },
      {
        "name": "반올림피자 상도점",
        "latitude": 37.498204040910124,
        "longitude": 126.9453168254118,
        "address": "서울 동작구 상도동 212-38",
        "road_address": "서울 동작구 양녕로28길 30",
        "phone": "02-812-8883",
        "category": "음식점 > 양식 > 피자 > 반올림피자",
        "distance": "631"
      },
      {
        "name": "또와분식",
        "latitude": 37.49918843142237,
        "longitude": 126.94443967260509,
        "address": "서울 동작구 상도동 211-386",
        "road_address": "서울 동작구 양녕로30길 4",
        "phone": "02-825-6902",
        "category": "음식점 > 분식",
        "distance": "624"
      },
      {
        "name": "BHC치킨 상도점",
        "latitude": 37.49897251168837,
        "longitude": 126.9395883549523,
        "address": "서울 동작구 상도동 235-35",
        "road_address": "서울 동작구 성대로 167",
        "phone": "0503-7150-1844",
        "category": "음식점 > 치킨 > BHC치킨",
        "distance": "368"
      },
      {
        "name": "소림마라 동작점",
        "latitude": 37.49850171645452,
        "longitude": 126.93367313527294,
        "address": "서울 동작구 상도동 256-1",
        "road_address": "서울 동작구 성대로 52",
        "phone": "02-3280-3526",
        "category": "음식점 > 중식 > 중국요리 > 소림마라",
        "distance": "557"
      },
      {
        "name": "카페카작",
        "latitude": 37.4952854417363,
        "longitude": 126.942906903812,
        "address": "서울 동작구 상도동 214-449",
        "road_address": "서울 동작구 양녕로 156",
        "phone": "02-6337-2642",
        "category": "음식점 > 카페 > 커피전문점",
        "distance": "357"
      },
      {
        "name": "서하국수",
        "latitude": 37.4972887563808,
        "longitude": 126.943692453914,
        "address": "서울 동작구 상도동 210-31",
        "road_address": "서울 동작구 양녕로24길 6-1",
        "phone": "070-8211-3897",
        "category": "음식점 > 한식 > 국수",
        "distance": "459"
      },
      {
        "name": "참나무한방통닭구이",
        "latitude": 37.4990051598264,
        "longitude": 126.94366402398,
        "address": "서울 동작구 상도동 208-19",
        "road_address": "서울 동작구 양녕로29길 4",
        "phone": "02-6396-5592",
        "category": "음식점 > 치킨",
        "distance": "558"
      },
      {
        "name": "백억커피 신대방삼거리점",
        "latitude": 37.4990431770554,
        "longitude": 126.933594625528,
        "address": "서울 동작구 상도동 255-4",
        "road_address": "서울 동작구 성대로 43",
        "phone": "",
        "category": "음식점 > 카페",
        "distance": "597"
      },
      {
        "name": "두리김밥&반찬",
        "latitude": 37.498453133828995,
        "longitude": 126.93380096685637,
        "address": "서울 동작구 상도동 256-1",
        "road_address": "서울 동작구 성대로 52",
        "phone": "02-536-7688",
        "category": "음식점 > 분식",
        "distance": "544"
      },
      {
        "name": "스쿨푸드 상도점",
        "latitude": 37.4977647644386,
        "longitude": 126.935427754523,
        "address": "서울 동작구 상도동 264-35",
        "road_address": "서울 동작구 성대로 87",
        "phone": "02-825-1508",
        "category": "음식점 > 분식 > 스쿨푸드",
        "distance": "382"
      },
      {
        "name": "젠",
        "latitude": 37.49639058871462,
        "longitude": 126.94397810036669,
        "address": "서울 동작구 상도동 214-295",
        "road_address": "서울 동작구 양녕로26길 49",
        "phone": "",
        "category": "음식점 > 카페",
        "distance": "455"
      }
    ]
  }
}