{
  "key": "4865a9a78f9c61896edb4f8bb464a2932d5b8650133c545346fde6ddfb7a0039",
  "tool": "PlaceSearch_kakao",
  "created_at": "2025-10-20T13:01:51.216692",
  "input_params": {
    "keyword": "병원",
    "radius": 2000,
    "sort": "distance",
    "x": 126.978729,
    "y": 37.595565
  },
  "raw_args": {
    "keyword": "병원",
    "x": 126.978729,
    "y": 37.595565,
    "radius": 2000,
    "sort": "distance"
  },
  "data": {
    "keyword": "병원",
    "total_count": 42,
    "places": [
      {
        "name": "한국중입자암치료센터 서울사무소",
        "latitude": 37.587588151928,
        "longitude": 126.9818539094858,
        "address": "서울 종로구 삼청동 20-7",
        "road_address": "서울 종로구 삼청로 138",
        "phone": "1877-7512",
        "category": "의료,건강 > 병원 > 의료센터",
        "distance": "927"
      },
      {
        "name": "감사원부속치과의원",
        "latitude": 37.587029043395,
        "longitude": 126.984736655845,
        "address": "서울 종로구 삼청동 25-23",
        "road_address": "서울 종로구 북촌로 112",
        "phone": "02-2011-3237",
        "category": "의료,건강 > 병원 > 치과",
        "distance": "1085"
      },
      {
        "name": "부암치과의원",
        "latitude": 37.5978019247694,
        "longitude": 126.963089112047,
        "address": "서울 종로구 부암동 129-8",
        "road_address": "서울 종로구 자하문로 266",
        "phone": "02-394-0028",
        "category": "의료,건강 > 병원 > 치과",
        "distance": "1403"
      },
      {
        "name": "부암한의원",
        "latitude": 37.5978091256124,
        "longitude": 126.963066460993,
        "address": "서울 종로구 부암동 129-8",
        "road_address": "서울 종로구 자하문로 266",
        "phone": "02-394-2723",
        "category": "의료,건강 > 병원 > 한의원",
        "distance": "1405"
      },
      {
        "name": "선동물병원",
        "latitude": 37.5844511752992,
        "longitude": 126.969981577937,
        "address": "서울 종로구 신교동 70-10",
        "road_address": "서울 종로구 자하문로 95",
        "phone": "02-733-6030",
        "category": "가정,생활 > 반려동물 > 동물병원",
        "distance": "1455"
      },
      {
        "name": "로이병원",
        "latitude": 37.606740546197884,
        "longitude": 126.96898733884757,
        "address": "서울 종로구 평창동 158-1",
        "road_address": "서울 종로구 평창문화로 75",
        "phone": "1644-7541",
        "category": "의료,건강 > 병원 > 재활의학과",
        "distance": "1509"
      },
      {
        "name": "옹상욱치과",
        "latitude": 37.6068747662308,
        "longitude": 126.968883091993,
        "address": "서울 종로구 평창동 158-1",
        "road_address": "서울 종로구 평창문화로 75",
        "phone": "02-379-0014",
        "category": "의료,건강 > 병원 > 치과",
        "distance": "1527"
      },
      {
        "name": "월드펫동물병원",
        "latitude": 37.60689813563194,
        "longitude": 126.9686701698834,
        "address": "서울 종로구 평창동 158-2",
        "road_address": "서울 종로구 평창문화로 75",
        "phone": "02-379-7575",
        "category": "가정,생활 > 반려동물 > 동물병원",
        "distance": "1540"
      },
      {
        "name": "우주연한의원",
        "latitude": 37.5830333375369,
        "longitude": 126.986358711955,
        "address": "서울 종로구 가회동 11-71",
        "road_address": "서울 종로구 북촌로12길 41",
        "phone": "02-745-7511",
        "category": "의료,건강 > 병원 > 한의원",
        "distance": "1545"
      },
      {
        "name": "스템스치과의원",
        "latitude": 37.6061787533953,
        "longitude": 126.967225399416,
        "address": "서울 종로구 평창동 220",
        "road_address": "서울 종로구 평창12길 3",
        "phone": "02-379-2804",
        "category": "의료,건강 > 병원 > 치과",
        "distance": "1555"
      },
      {
        "name": "평창한의원",
        "latitude": 37.6061065996903,
        "longitude": 126.966958160928,
        "address": "서울 종로구 평창동 182-22",
        "road_address": "서울 종로구 평창11길 6",
        "phone": "02-3216-1075",
        "category": "의료,건강 > 병원 > 한의원",
        "distance": "1565"
      },
      {
        "name": "신영연세의원",
        "latitude": 37.60601190592102,
        "longitude": 126.96663883804405,
        "address": "서울 종로구 평창동 337",
        "road_address": "서울 종로구 평창11길 3",
        "phone": "02-379-6713",
        "category": "의료,건강 > 병원 > 일반의원",
        "distance": "1576"
      },
      {
        "name": "평창다인치과",
        "latitude": 37.605313381214735,
        "longitude": 126.96573995406402,
        "address": "서울 종로구 평창동 323-4",
        "road_address": "서울 종로구 평창문화로 39",
        "phone": "02-394-5275",
        "category": "의료,건강 > 병원 > 치과",
        "distance": "1576"
      },
      {
        "name": "세검정연세가정의학과의원",
        "latitude": 37.601621718478505,
        "longitude": 126.96180870852284,
        "address": "서울 종로구 신영동 105-30",
        "road_address": "서울 종로구 세검정로6길 104",
        "phone": "02-396-6104",
        "category": "의료,건강 > 병원 > 가정의학과",
        "distance": "1638"
      },
      {
        "name": "북악동물병원",
        "latitude": 37.5988966119062,
        "longitude": 126.960262122556,
        "address": "서울 종로구 홍지동 127-7",
        "road_address": "서울 종로구 자하문로 293",
        "phone": "02-391-4575",
        "category": "가정,생활 > 반려동물 > 동물병원",
        "distance": "1672"
      }
    ]
  }
}