{
  "key": "5464a8aafcd87fdfee63955007ebd12e403fc7122dc10d1dc954631c9f4238ca",
  "tool": "PlaceSearch_kakao",
  "created_at": "2025-10-26T11:53:49.059731",
  "input_params": {
    "keyword": "맛집",
    "radius": 1000,
    "sort": "accuracy",
    "x": 126.9587,
    "y": 37.4835
  },
  "raw_args": {
    "keyword": "맛집",
    "radius": 1000,
    "x": 126.9587,
    "y": 37.4835
  },
  "data": {
    "keyword": "맛집",
    "total_count": 1355,
    "places": [
      {
        "name": "남도음식전문점",
        "latitude": 37.48536121675981,
        "longitude": 126.95647803896468,
        "address": "서울 관악구 봉천동 36-20",
        "road_address": "서울 관악구 관악로28길 7",
        "phone": "02-884-5458",
        "category": "음식점 > 한식 > 해물,생선",
        "distance": "285"
      },
      {
        "name": "빽돈 샤로수길점",
        "latitude": 37.4799119952814,
        "longitude": 126.954301415673,
        "address": "서울 관악구 봉천동 1602-18",
        "road_address": "서울 관악구 관악로16길 32-2",
        "phone": "02-6405-7787",
        "category": "음식점 > 한식 > 육류,고기",
        "distance": "556"
      },
      {
        "name": "숙이네조개전골 서울대입구점",
        "latitude": 37.4798942062041,
        "longitude": 126.954902902007,
        "address": "서울 관악구 봉천동 1601-11",
        "road_address": "서울 관악구 관악로16길 41",
        "phone": "02-878-4645",
        "category": "음식점 > 한식 > 해물,생선 > 조개",
        "distance": "522"
      },
      {
        "name": "완산정",
        "latitude": 37.4816596773221,
        "longitude": 126.953594844657,
        "address": "서울 관악구 봉천동 858-2",
        "road_address": "서울 관악구 봉천로 484",
        "phone": "02-878-3400",
        "category": "음식점 > 한식 > 해장국",
        "distance": "495"
      },
      {
        "name": "낙성곱창 본점",
        "latitude": 37.481456627811575,
        "longitude": 126.9550919065923,
        "address": "서울 관악구 봉천동 1667-49",
        "road_address": "서울 관악구 봉천로 495-3",
        "phone": "02-872-1118",
        "category": "음식점 > 한식 > 육류,고기 > 곱창,막창",
        "distance": "391"
      },
      {
        "name": "킷사서울",
        "latitude": 37.47919458101109,
        "longitude": 126.95375917295634,
        "address": "서울 관악구 봉천동 1603-3",
        "road_address": "서울 관악구 남부순환로226길 31",
        "phone": "02-878-7444",
        "category": "음식점 > 일식",
        "distance": "647"
      },
      {
        "name": "청기와타운 서울대점",
        "latitude": 37.48050114981834,
        "longitude": 126.95402971235566,
        "address": "서울 관악구 봉천동 1600-1",
        "road_address": "서울 관악구 남부순환로 1838",
        "phone": "02-3285-1474",
        "category": "음식점 > 한식 > 육류,고기 > 갈비",
        "distance": "530"
      },
      {
        "name": "만석곱창",
        "latitude": 37.4817537896467,
        "longitude": 126.954644002802,
        "address": "서울 관악구 봉천동 1667-20",
        "road_address": "서울 관악구 봉천로 491-1",
        "phone": "02-876-2496",
        "category": "음식점 > 한식 > 육류,고기 > 곱창,막창",
        "distance": "407"
      },
      {
        "name": "쟝블랑제리",
        "latitude": 37.477157623199,
        "longitude": 126.961968234363,
        "address": "서울 관악구 봉천동 1660-7",
        "road_address": "서울 관악구 낙성대역길 8",
        "phone": "02-889-5170",
        "category": "음식점 > 간식 > 제과,베이커리",
        "distance": "760"
      },
      {
        "name": "티라노",
        "latitude": 37.4783303233591,
        "longitude": 126.955613839455,
        "address": "서울 관악구 봉천동 1613-7",
        "road_address": "서울 관악구 남부순환로230길 39",
        "phone": "",
        "category": "음식점 > 카페 > 커피전문점",
        "distance": "635"
      },
      {
        "name": "어부사시가",
        "latitude": 37.47899656141045,
        "longitude": 126.95427936155424,
        "address": "서울 관악구 봉천동 1603-15",
        "road_address": "서울 관악구 관악로14길 31",
        "phone": "02-877-9288",
        "category": "음식점 > 한식 > 해물,생선",
        "distance": "634"
      },
      {
        "name": "봉천곱창",
        "latitude": 37.4821282479171,
        "longitude": 126.953712140048,
        "address": "서울 관악구 봉천동 851-29",
        "road_address": "서울 관악구 봉천로 481",
        "phone": "",
        "category": "음식점 > 한식 > 육류,고기 > 곱창,막창",
        "distance": "466"
      },
      {
        "name": "미가면옥",
        "latitude": 37.4860903247864,
        "longitude": 126.957003385194,
        "address": "서울 관악구 봉천동 37-86",
        "road_address": "서울 관악구 관악로 246",
        "phone": "",
        "category": "음식점 > 한식 > 냉면",
        "distance": "324"
      },
      {
        "name": "다이히로",
        "latitude": 37.479628923239595,
        "longitude": 126.95877872073122,
        "address": "서울 관악구 봉천동 1674-14",
        "road_address": "서울 관악구 행운1길 3",
        "phone": "02-882-4402",
        "category": "음식점 > 일식",
        "distance": "429"
      },
      {
        "name": "아우네장터",
        "latitude": 37.4814976988861,
        "longitude": 126.954115028744,
        "address": "서울 관악구 봉천동 1666-1",
        "road_address": "서울 관악구 봉천로 490",
        "phone": "02-879-0465",
        "category": "음식점 > 한식 > 순대",
        "distance": "462"
      }
    ]
  }
}