{
  "key": "54afe523896e5ba8c4a0b3bf81696eced99762d17a41d938aec6213ce978ee4d",
  "tool": "PlaceSearch_kakao",
  "created_at": "2025-10-26T11:47:58.188083",
  "input_params": {
    "keyword": "대학교",
    "radius": 1000,
    "sort": "accuracy",
    "x": 126.973592,
    "y": 37.580479
  },
  "raw_args": {
    "keyword": "대학교",
    "x": 126.973592,
    "y": 37.580479,
    "radius": 1000
  },
  "data": {
    "keyword": "대학교",
    "total_count": 28,
    "places": [
      {
        "name": "배화여자대학교",
        "latitude": 37.579119784607926,
        "longitude": 126.96588554632058,
        "address": "서울 종로구 필운동 12",
        "road_address": "서울 종로구 필운대로1길 34",
        "phone": "02-399-0700",
        "category": "교육,학문 > 학교 > 전문대학",
        "distance": "696"
      },
      {
        "name": "배화여자대학교 주차장",
        "latitude": 37.5789217133671,
        "longitude": 126.966399604981,
        "address": "서울 종로구 누하동 149",
        "road_address": "서울 종로구 필운대로1길 34",
        "phone": "",
        "category": "교통,수송 > 교통시설 > 주차장",
        "distance": "658"
      },
      {
        "name": "배화여자대학교 기념관",
        "latitude": 37.5791560321644,
        "longitude": 126.966612333036,
        "address": "서울 종로구 누하동 149",
        "road_address": "서울 종로구 필운대로1길 34",
        "phone": "",
        "category": "교육,학문 > 학교부속시설",
        "distance": "633"
      },
      {
        "name": "국민대학교 동문회관",
        "latitude": 37.5793466880338,
        "longitude": 126.97219574138,
        "address": "서울 종로구 통의동 91-26",
        "road_address": "서울 종로구 자하문로10길 14",
        "phone": "",
        "category": "부동산 > 빌딩",
        "distance": "175"
      },
      {
        "name": "배화여자대학교 부속 배화유치원",
        "latitude": 37.57902581652171,
        "longitude": 126.96816335492834,
        "address": "서울 종로구 필운동 12",
        "road_address": "서울 종로구 필운대로1길 34",
        "phone": "02-737-1433",
        "category": "교육,학문 > 유아교육 > 유치원",
        "distance": "505"
      },
      {
        "name": "배화여자대학교 대강당",
        "latitude": 37.57858215172189,
        "longitude": 126.96679938308277,
        "address": "서울 종로구 필운동 12",
        "road_address": "서울 종로구 필운대로1길 34",
        "phone": "",
        "category": "교육,학문 > 학교부속시설",
        "distance": "635"
      },
      {
        "name": "배화여자대학교 정심관",
        "latitude": 37.5791738684199,
        "longitude": 126.965969296494,
        "address": "서울 종로구 필운동 12",
        "road_address": "서울 종로구 필운대로1길 34",
        "phone": "",
        "category": "교육,학문 > 학교부속시설",
        "distance": "688"
      },
      {
        "name": "배화여자대학교 운동장",
        "latitude": 37.5784536185584,
        "longitude": 126.967916804755,
        "address": "서울 종로구 누하동 149",
        "road_address": "서울 종로구 필운대로1길 34",
        "phone": "",
        "category": "스포츠,레저 > 스포츠시설 > 운동장",
        "distance": "549"
      },
      {
        "name": "동방불교대학",
        "latitude": 37.5773030759307,
        "longitude": 126.980383590053,
        "address": "서울 종로구 사간동 112",
        "road_address": "서울 종로구 율곡로1길 31",
        "phone": "02-745-2030",
        "category": "교육,학문 > 학교 > 종교학교",
        "distance": "696"
      },
      {
        "name": "배화여자대학교 도서관",
        "latitude": 37.578824528961654,
        "longitude": 126.96683437016719,
        "address": "서울 종로구 누하동 149",
        "road_address": "서울 종로구 필운대로1길 34",
        "phone": "02-399-0744",
        "category": "교육,학문 > 학습시설 > 도서관",
        "distance": "624"
      },
      {
        "name": "배화여자대학교 평생교육원",
        "latitude": 37.5783994387227,
        "longitude": 126.967477580635,
        "address": "서울 종로구 필운동 12",
        "road_address": "서울 종로구 필운대로1길 34",
        "phone": "02-397-0552",
        "category": "교육,학문 > 교육단체 > 평생교육원,사회교육원",
        "distance": "587"
      },
      {
        "name": "배화여자대학교 산학협력단",
        "latitude": 37.579147035984015,
        "longitude": 126.96666101701571,
        "address": "서울 종로구 누하동 149",
        "road_address": "서울 종로구 필운대로1길 34",
        "phone": "02-399-0860",
        "category": "교육,학문 > 학교부속시설",
        "distance": "629"
      },
      {
        "name": "배화여자대학교 테니스장",
        "latitude": 37.5781827554947,
        "longitude": 126.965901822916,
        "address": "서울 종로구 필운동 1-1",
        "road_address": "",
        "phone": "",
        "category": "스포츠,레저 > 테니스 > 테니스장",
        "distance": "725"
      },
      {
        "name": "배화여자대학교 팔각정",
        "latitude": 37.5784710145331,
        "longitude": 126.965697916718,
        "address": "서울 종로구 필운동 산 1-5",
        "road_address": "서울 종로구 필운대로1길 55",
        "phone": "",
        "category": "교육,학문 > 학교부속시설",
        "distance": "731"
      },
      {
        "name": "배화여자대학교 원격평생교육원",
        "latitude": 37.5791560934415,
        "longitude": 126.966829694729,
        "address": "서울 종로구 필운동 12",
        "road_address": "서울 종로구 필운대로1길 34",
        "phone": "02-6490-9430",
        "category": "교육,학문 > 교육단체 > 평생교육원,사회교육원",
        "distance": "614"
      }
    ]
  }
}