{
  "key": "8dfc53eb6cec1bc66d2a2636ae0d77052c7c8f25d58878021af1159b44205918",
  "tool": "PlaceSearch_kakao",
  "created_at": "2025-12-19T05:26:11.694929",
  "input_params": {
    "keyword": "병원",
    "radius": 1000,
    "sort": "distance",
    "x": 127.056,
    "y": 37.582
  },
  "raw_args": {
    "keyword": "병원",
    "x": 127.056,
    "y": 37.582,
    "radius": 1000,
    "sort": "distance"
  },
  "data": {
    "keyword": "병원",
    "total_count": 133,
    "places": [
      {
        "name": "서울인치과의원",
        "latitude": 37.583049914877776,
        "longitude": 127.05353943331397,
        "address": "서울 동대문구 전농동 124-66",
        "road_address": "서울 동대문구 전농로 211",
        "phone": "02-933-7528",
        "category": "의료,건강 > 병원 > 치과",
        "distance": "246"
      },
      {
        "name": "위성호내과의원",
        "latitude": 37.5782168486551,
        "longitude": 127.057654472277,
        "address": "서울 동대문구 전농동 295-102",
        "road_address": "서울 동대문구 전농로 148",
        "phone": "02-2215-8463",
        "category": "의료,건강 > 병원 > 내과",
        "distance": "444"
      },
      {
        "name": "박이비인후과의원",
        "latitude": 37.57798638162113,
        "longitude": 127.05726938924956,
        "address": "서울 동대문구 전농동 295-52",
        "road_address": "서울 동대문구 전농로 147",
        "phone": "02-2212-0770",
        "category": "의료,건강 > 병원 > 이비인후과",
        "distance": "459"
      },
      {
        "name": "조광의원",
        "latitude": 37.5781194016578,
        "longitude": 127.057939680419,
        "address": "서울 동대문구 전농동 295-16",
        "road_address": "서울 동대문구 사가정로13길 3",
        "phone": "02-2244-0264",
        "category": "의료,건강 > 병원 > 일반의원",
        "distance": "463"
      },
      {
        "name": "보스톤클래식치과",
        "latitude": 37.5841970401883,
        "longitude": 127.051144586177,
        "address": "서울 동대문구 전농동 591-92",
        "road_address": "서울 동대문구 왕산로 214",
        "phone": "",
        "category": "의료,건강 > 병원",
        "distance": "493"
      },
      {
        "name": "내인당한의원",
        "latitude": 37.578126096087,
        "longitude": 127.058976667771,
        "address": "서울 동대문구 전농동 36-5",
        "road_address": "서울 동대문구 전농로16길 30",
        "phone": "02-2244-3085",
        "category": "의료,건강 > 병원 > 한의원",
        "distance": "503"
      },
      {
        "name": "서울우수치과의원",
        "latitude": 37.5775323158825,
        "longitude": 127.057196589159,
        "address": "서울 동대문구 전농동 295-320",
        "road_address": "서울 동대문구 사가정로 111-2",
        "phone": "02-2216-2340",
        "category": "의료,건강 > 병원 > 치과",
        "distance": "506"
      },
      {
        "name": "주주동물병원",
        "latitude": 37.5778632559685,
        "longitude": 127.058473820219,
        "address": "서울 동대문구 전농동 38-24",
        "road_address": "서울 동대문구 사가정로 121",
        "phone": "02-2244-1081",
        "category": "가정,생활 > 반려동물 > 동물병원",
        "distance": "508"
      },
      {
        "name": "다산한의원",
        "latitude": 37.57820473214254,
        "longitude": 127.05273671694353,
        "address": "서울 동대문구 전농동 221-6",
        "road_address": "서울 동대문구 전농로23길 76",
        "phone": "02-2215-7575",
        "category": "의료,건강 > 병원 > 한의원",
        "distance": "510"
      },
      {
        "name": "임명수치과의원",
        "latitude": 37.57791164317684,
        "longitude": 127.05900932875326,
        "address": "서울 동대문구 전농동 38-37",
        "road_address": "서울 동대문구 사가정로 127",
        "phone": "02-2244-3047",
        "category": "의료,건강 > 병원 > 치과",
        "distance": "525"
      },
      {
        "name": "전농튼튼마취통증의학과의원",
        "latitude": 37.5772567518287,
        "longitude": 127.056906570137,
        "address": "서울 동대문구 전농동 295-316",
        "road_address": "서울 동대문구 사가정로 109",
        "phone": "02-2217-5555",
        "category": "의료,건강 > 병원 > 정형외과",
        "distance": "532"
      },
      {
        "name": "플러스덴치과의원",
        "latitude": 37.57733800124807,
        "longitude": 127.05842359862999,
        "address": "서울 동대문구 전농동 32-4",
        "road_address": "서울 동대문구 사가정로 122",
        "phone": "02-2215-2275",
        "category": "의료,건강 > 병원 > 치과",
        "distance": "559"
      },
      {
        "name": "토마스신경과의원",
        "latitude": 37.5774954411584,
        "longitude": 127.058894661534,
        "address": "서울 동대문구 전농동 10",
        "road_address": "서울 동대문구 사가정로 148",
        "phone": "02-3394-4430",
        "category": "의료,건강 > 병원 > 신경과",
        "distance": "561"
      },
      {
        "name": "현대중앙의원",
        "latitude": 37.5770205118528,
        "longitude": 127.057277705991,
        "address": "서울 동대문구 전농동 295-81",
        "road_address": "서울 동대문구 사가정로 110",
        "phone": "02-2244-9600",
        "category": "의료,건강 > 병원 > 일반의원",
        "distance": "563"
      },
      {
        "name": "광덕 한의원",
        "latitude": 37.5835614635798,
        "longitude": 127.049919155387,
        "address": "서울 동대문구 전농동 602-30",
        "road_address": "서울 동대문구 왕산로 256",
        "phone": "02-966-1759",
        "category": "의료,건강 > 병원 > 한의원",
        "distance": "564"
      }
    ]
  }
}