{
  "key": "9120f9c67c6d84b59add18cee5e7b5faf28e3085f8faccbaf3a34fc458c01d87",
  "tool": "PlaceSearch_kakao",
  "created_at": "2025-12-15T13:57:09.775472",
  "input_params": {
    "keyword": "맛집",
    "radius": 1000,
    "size": 10,
    "sort": "accuracy"
  },
  "raw_args": {
    "keyword": "맛집",
    "radius": 1000,
    "size": 10,
    "sort": "accuracy"
  },
  "data": {
    "keyword": "맛집",
    "total_count": 729047,
    "places": [
      {
        "name": "부일숯불갈비",
        "latitude": 37.51814582607549,
        "longitude": 126.90863540904311,
        "address": "서울 영등포구 영등포동3가 23-11",
        "road_address": "서울 영등포구 영중로6길 23-8",
        "phone": "02-2636-9462",
        "category": "음식점 > 한식 > 육류,고기 > 갈비",
        "distance": ""
      },
      {
        "name": "연돈",
        "latitude": 33.25884970372605,
        "longitude": 126.40610781515082,
        "address": "제주특별자치도 서귀포시 색달동 2132-2",
        "road_address": "제주특별자치도 서귀포시 색달로 10",
        "phone": "0507-1386-7060",
        "category": "음식점 > 일식 > 돈까스,우동",
        "distance": ""
      },
      {
        "name": "이재모피자 본점",
        "latitude": 35.10204215079571,
        "longitude": 129.030747190728,
        "address": "부산 중구 신창동1가 2-1",
        "road_address": "부산 중구 광복중앙로 31",
        "phone": "051-245-1478",
        "category": "음식점 > 양식 > 피자",
        "distance": ""
      },
      {
        "name": "또순이네 양평동점",
        "latitude": 37.5357808716531,
        "longitude": 126.89529689817451,
        "address": "서울 영등포구 양평동4가 81",
        "road_address": "서울 영등포구 선유로47길 16",
        "phone": "02-2672-2255",
        "category": "음식점 > 한식 > 육류,고기",
        "distance": ""
      },
      {
        "name": "성심당 본점",
        "latitude": 36.32765802936324,
        "longitude": 127.42727719121109,
        "address": "대전 중구 은행동 145-1",
        "road_address": "대전 중구 대종로480번길 15",
        "phone": "1588-8069",
        "category": "음식점 > 간식 > 제과,베이커리",
        "distance": ""
      },
      {
        "name": "해운대암소갈비집",
        "latitude": 35.163113604157466,
        "longitude": 129.16646470006606,
        "address": "부산 해운대구 중동 1225-1",
        "road_address": "부산 해운대구 해운대해변로 333",
        "phone": "051-746-0033",
        "category": "음식점 > 한식 > 육류,고기 > 갈비",
        "distance": ""
      },
      {
        "name": "색달식당 순살갈치조림 서귀포본점",
        "latitude": 33.24181180447894,
        "longitude": 126.38624334061187,
        "address": "제주특별자치도 서귀포시 하예동 350",
        "road_address": "제주특별자치도 서귀포시 예래로 255-18",
        "phone": "064-738-1741",
        "category": "음식점 > 한식 > 해물,생선",
        "distance": ""
      },
      {
        "name": "신촌형제갈비",
        "latitude": 37.5577365137263,
        "longitude": 126.937422275343,
        "address": "서울 서대문구 창천동 31-26",
        "road_address": "서울 서대문구 명물1길 2",
        "phone": "02-365-0001",
        "category": "음식점 > 한식 > 육류,고기 > 갈비",
        "distance": ""
      },
      {
        "name": "신설오름",
        "latitude": 33.505431701275214,
        "longitude": 126.54157000027617,
        "address": "제주특별자치도 제주시 일도이동 409-5",
        "road_address": "제주특별자치도 제주시 고마로17길 2",
        "phone": "064-758-0143",
        "category": "음식점 > 한식",
        "distance": ""
      },
      {
        "name": "디라이프 스타일키친 광화문점",
        "latitude": 37.56842610180289,
        "longitude": 126.97826128583668,
        "address": "서울 중구 태평로1가 84",
        "road_address": "서울 중구 세종대로 136",
        "phone": "02-6273-0100",
        "category": "음식점 > 양식",
        "distance": ""
      }
    ]
  }
}