{
  "key": "f023142aada727684f82f86e6ed9a93a5a994e4f2fc122ecb37a5a1867fa7af1",
  "tool": "PlaceSearch_kakao",
  "created_at": "2025-10-27T17:23:43.589366",
  "input_params": {
    "keyword": "강남역 카페",
    "radius": 500,
    "size": 10,
    "sort": "accuracy"
  },
  "raw_args": {
    "keyword": "강남역 카페",
    "size": 10,
    "radius": 500
  },
  "data": {
    "keyword": "강남역 카페",
    "total_count": 2893,
    "places": [
      {
        "name": "할리스 강남역점",
        "latitude": 37.49871619356776,
        "longitude": 127.02777433522404,
        "address": "서울 강남구 역삼동 820-11",
        "road_address": "서울 강남구 강남대로 402",
        "phone": "02-555-0890",
        "category": "음식점 > 카페 > 커피전문점 > 할리스",
        "distance": ""
      },
      {
        "name": "스타벅스 강남비젼타워점",
        "latitude": 37.49649026006633,
        "longitude": 127.0296167853337,
        "address": "서울 강남구 역삼동 826-26",
        "road_address": "서울 강남구 테헤란로2길 27",
        "phone": "1522-3232",
        "category": "음식점 > 카페 > 커피전문점 > 스타벅스",
        "distance": ""
      },
      {
        "name": "셀렉티드닉스",
        "latitude": 37.4962223486255,
        "longitude": 127.030837985875,
        "address": "서울 강남구 역삼동 827-13",
        "road_address": "서울 강남구 테헤란로4길 37",
        "phone": "",
        "category": "음식점 > 카페",
        "distance": ""
      },
      {
        "name": "알베르",
        "latitude": 37.50305626160175,
        "longitude": 127.02810278517197,
        "address": "서울 강남구 역삼동 618-11",
        "road_address": "서울 강남구 강남대로102길 34",
        "phone": "02-566-6181",
        "category": "음식점 > 카페",
        "distance": ""
      },
      {
        "name": "셀렉티드마롱",
        "latitude": 37.4961925947187,
        "longitude": 127.030917132353,
        "address": "서울 강남구 역삼동 827-13",
        "road_address": "서울 강남구 테헤란로4길 37",
        "phone": "070-4284-5104",
        "category": "음식점 > 카페",
        "distance": ""
      },
      {
        "name": "스타벅스 몬테소리점",
        "latitude": 37.4983415831768,
        "longitude": 127.026874023027,
        "address": "서울 서초구 서초동 1318-8",
        "road_address": "서울 서초구 강남대로 399",
        "phone": "1522-3232",
        "category": "음식점 > 카페 > 커피전문점 > 스타벅스",
        "distance": ""
      },
      {
        "name": "룸카페 바니",
        "latitude": 37.499734261007006,
        "longitude": 127.02806874426594,
        "address": "서울 강남구 역삼동 818-1",
        "road_address": "서울 강남구 강남대로96길 12",
        "phone": "",
        "category": "음식점 > 카페 > 테마카페",
        "distance": ""
      },
      {
        "name": "가배도 강남역점",
        "latitude": 37.49873895490302,
        "longitude": 127.02675089982188,
        "address": "서울 서초구 서초동 1318-2",
        "road_address": "서울 서초구 강남대로 405",
        "phone": "02-595-4542",
        "category": "음식점 > 카페",
        "distance": ""
      },
      {
        "name": "블루보틀 역삼 카페",
        "latitude": 37.50003049065215,
        "longitude": 127.03237757132041,
        "address": "서울 강남구 역삼동 648-9",
        "road_address": "서울 강남구 테헤란로 129",
        "phone": "1533-6906",
        "category": "음식점 > 카페 > 커피전문점 > 블루보틀",
        "distance": ""
      },
      {
        "name": "공차 강남역점",
        "latitude": 37.49798908894673,
        "longitude": 127.0277424016828,
        "address": "서울 강남구 역삼동 858",
        "road_address": "서울 강남구 강남대로 지하 396",
        "phone": "02-569-7344",
        "category": "음식점 > 카페 > 공차",
        "distance": ""
      }
    ]
  }
}