{
  "key": "f0e8c40c05ad43dd0781473b7296955defaef4e5746104161947c0d615951abf",
  "tool": "PlaceSearch_kakao",
  "created_at": "2025-10-27T17:16:46.410870",
  "input_params": {
    "keyword": "맛집",
    "radius": 1000,
    "size": 10,
    "sort": "distance",
    "x": 127.2088212,
    "y": 37.6425605
  },
  "raw_args": {
    "keyword": "맛집",
    "radius": 1000,
    "x": 127.2088212,
    "y": 37.6425605,
    "size": 10,
    "sort": "distance"
  },
  "data": {
    "keyword": "맛집",
    "total_count": 109,
    "places": [
      {
        "name": "가마솥진곰탕왕갈비탕",
        "latitude": 37.6408951198236,
        "longitude": 127.207013265375,
        "address": "경기 남양주시 금곡동 385",
        "road_address": "경기 남양주시 사릉로 90-7",
        "phone": "031-511-6800",
        "category": "음식점 > 한식 > 곰탕",
        "distance": "244"
      },
      {
        "name": "육당 한우국밥",
        "latitude": 37.6393478016166,
        "longitude": 127.207713699954,
        "address": "경기 남양주시 금곡동 392-3",
        "road_address": "경기 남양주시 사릉로 73",
        "phone": "031-511-8007",
        "category": "음식점 > 한식 > 국밥",
        "distance": "369"
      },
      {
        "name": "원조옛날에손만두국",
        "latitude": 37.643121141447416,
        "longitude": 127.20304240018807,
        "address": "경기 남양주시 진건읍 송능리 509",
        "road_address": "경기 남양주시 진건읍 사릉로136번길 16",
        "phone": "031-575-9323",
        "category": "음식점 > 한식",
        "distance": "513"
      },
      {
        "name": "황금제빵소",
        "latitude": 37.6373614771734,
        "longitude": 127.209557182051,
        "address": "경기 남양주시 금곡동 402",
        "road_address": "경기 남양주시 사릉로58번길 4-14",
        "phone": "",
        "category": "음식점 > 간식 > 제과,베이커리",
        "distance": "580"
      },
      {
        "name": "우성추어탕",
        "latitude": 37.63703480074456,
        "longitude": 127.20832472835225,
        "address": "경기 남양주시 금곡동 404-15",
        "road_address": "경기 남양주시 사릉로 41",
        "phone": "031-591-8203",
        "category": "음식점 > 한식 > 해물,생선 > 추어",
        "distance": "614"
      },
      {
        "name": "왕릉손만두국",
        "latitude": 37.64225555600045,
        "longitude": 127.20184128012018,
        "address": "경기 남양주시 진건읍 송능리 518-11",
        "road_address": "경기 남양주시 진건읍 사릉로 140",
        "phone": "031-574-7258",
        "category": "음식점 > 한식",
        "distance": "617"
      },
      {
        "name": "가마꿉 금곡점",
        "latitude": 37.6368114079046,
        "longitude": 127.208295780522,
        "address": "경기 남양주시 금곡동 404-15",
        "road_address": "경기 남양주시 사릉로 41",
        "phone": "031-595-9282",
        "category": "음식점 > 치킨",
        "distance": "639"
      },
      {
        "name": "왕십리양곱창구이",
        "latitude": 37.635946247712525,
        "longitude": 127.20841799004963,
        "address": "경기 남양주시 금곡동 406-1",
        "road_address": "경기 남양주시 사릉로 32",
        "phone": "031-559-3495",
        "category": "음식점 > 한식 > 육류,고기 > 곱창,막창",
        "distance": "734"
      },
      {
        "name": "전주식국밥집",
        "latitude": 37.63587693633353,
        "longitude": 127.20838154203739,
        "address": "경기 남양주시 금곡동 406-1",
        "road_address": "경기 남양주시 사릉로 32",
        "phone": "",
        "category": "음식점 > 한식 > 국밥",
        "distance": "742"
      },
      {
        "name": "초막집",
        "latitude": 37.635798585143306,
        "longitude": 127.20836206309232,
        "address": "경기 남양주시 금곡동 406-1",
        "road_address": "경기 남양주시 사릉로 32",
        "phone": "031-559-3495",
        "category": "음식점 > 한식 > 육류,고기 > 곱창,막창",
        "distance": "751"
      }
    ]
  }
}