{
  "key": "c28f960b9fc63ff9a450db40dcc1cfc9447c3529c5c118bc66d584db97c621e3",
  "tool": "PlaceSearch_kakao",
  "created_at": "2025-10-21T02:16:51.941474",
  "input_params": {
    "keyword": "장꼬방",
    "sort": "accuracy"
  },
  "raw_args": {
    "keyword": "장꼬방"
  },
  "data": {
    "keyword": "장꼬방",
    "total_count": 15,
    "places": [
      {
        "name": "장꼬방",
        "latitude": 37.498331428974,
        "longitude": 127.023807097178,
        "address": "서울 서초구 서초동 1316",
        "road_address": "서울 서초구 강남대로61길 27",
        "phone": "02-597-5511",
        "category": "음식점 > 카페 > 테마카페 > 디저트카페",
        "distance": ""
      },
      {
        "name": "장꼬방",
        "latitude": 35.82062580815453,
        "longitude": 127.09688002591604,
        "address": "전북특별자치도 전주시 완산구 효자동3가 1674-1",
        "road_address": "전북특별자치도 전주시 완산구 용호로 195",
        "phone": "",
        "category": "음식점 > 한식",
        "distance": ""
      },
      {
        "name": "장꼬방묵은김치찌개전문",
        "latitude": 37.4868868657757,
        "longitude": 127.0236542127275,
        "address": "서울 서초구 서초동 1438-8",
        "road_address": "서울 서초구 효령로 364",
        "phone": "02-522-0035",
        "category": "음식점 > 한식 > 찌개,전골",
        "distance": ""
      },
      {
        "name": "장꼬방",
        "latitude": 37.4106029246077,
        "longitude": 127.128231115174,
        "address": "경기 성남시 분당구 야탑동 358-2",
        "road_address": "경기 성남시 분당구 야탑로81번길 10",
        "phone": "031-622-1117",
        "category": "음식점 > 한식",
        "distance": ""
      },
      {
        "name": "장꼬방",
        "latitude": 35.1686903297009,
        "longitude": 129.033360467888,
        "address": "부산 부산진구 당감동 649-41",
        "road_address": "부산 부산진구 백양순환로 44-1",
        "phone": "051-898-2488",
        "category": "음식점 > 한식",
        "distance": ""
      },
      {
        "name": "장꼬방",
        "latitude": 35.2053667878993,
        "longitude": 126.852096763824,
        "address": "광주 광산구 산월동 855-9",
        "road_address": "광주 광산구 풍영정길 467",
        "phone": "062-974-2223",
        "category": "음식점 > 한식 > 육류,고기",
        "distance": ""
      },
      {
        "name": "장꼬방",
        "latitude": 34.7605061591515,
        "longitude": 127.650190817695,
        "address": "전남 여수시 안산동 438-18",
        "road_address": "전남 여수시 안산1길 186",
        "phone": "",
        "category": "음식점 > 술집 > 호프,요리주점",
        "distance": ""
      },
      {
        "name": "장꼬방",
        "latitude": 34.67697908320685,
        "longitude": 126.90290628393915,
        "address": "전남 장흥군 장흥읍 예양리 158-2",
        "road_address": "전남 장흥군 장흥읍 토요시장1길 53",
        "phone": "061-863-8338",
        "category": "음식점 > 한식",
        "distance": ""
      },
      {
        "name": "장꼬방",
        "latitude": 35.2637880655638,
        "longitude": 129.088248231914,
        "address": "부산 금정구 남산동 483-5",
        "road_address": "부산 금정구 금강로 631",
        "phone": "051-512-9188",
        "category": "음식점 > 한식",
        "distance": ""
      },
      {
        "name": "카페 장꼬방 우면점",
        "latitude": 37.4660931949843,
        "longitude": 127.019659660702,
        "address": "서울 서초구 우면동 210-4",
        "road_address": "서울 서초구 형촌10길 3",
        "phone": "02-578-3555",
        "category": "음식점 > 카페",
        "distance": ""
      },
      {
        "name": "장꼬방 하루찬",
        "latitude": 37.509461485007975,
        "longitude": 126.924563101506,
        "address": "서울 동작구 대방동 500",
        "road_address": "서울 동작구 여의대방로 256",
        "phone": "02-826-2299",
        "category": "가정,생활 > 식품판매 > 반찬가게",
        "distance": ""
      },
      {
        "name": "장꼬방 주차장",
        "latitude": 37.4983350357332,
        "longitude": 127.02379352787,
        "address": "서울 서초구 서초동 1316",
        "road_address": "서울 서초구 강남대로61길 27",
        "phone": "",
        "category": "교통,수송 > 교통시설 > 주차장",
        "distance": ""
      },
      {
        "name": "장꼬방맛집",
        "latitude": 37.5081674416634,
        "longitude": 126.920145511939,
        "address": "서울 영등포구 신길동 459-5",
        "road_address": "서울 영등포구 여의대방로43라길 10",
        "phone": "02-849-1007",
        "category": "음식점 > 분식",
        "distance": ""
      },
      {
        "name": "장꼬방청국장 을지로노가리골뱅이",
        "latitude": 37.68788206675282,
        "longitude": 127.0429983354305,
        "address": "서울 도봉구 도봉동 280-2",
        "road_address": "서울 도봉구 도봉산4나길 6-7",
        "phone": "02-954-6666",
        "category": "음식점 > 한식",
        "distance": ""
      },
      {
        "name": "장꼬방묵은김치찌개전문 주차장",
        "latitude": 37.4867787327951,
        "longitude": 127.023714105567,
        "address": "서울 서초구 서초동 1438-8",
        "road_address": "",
        "phone": "",
        "category": "교통,수송 > 교통시설 > 주차장",
        "distance": ""
      }
    ]
  }
}