{
  "key": "bcbc1f0ba957ab891e741c3399117c5913951b2e1f61e2112c28a35e87d05792",
  "tool": "CategorySearch_kakao",
  "created_at": "2025-10-21T07:01:53.825020",
  "input_params": {
    "category": "CE7",
    "radius": 1000,
    "size": 15,
    "x": 126.9438,
    "y": 37.6385
  },
  "raw_args": {
    "category": "CE7",
    "x": 126.9438,
    "y": 37.6385,
    "radius": 1000
  },
  "data": {
    "category": "CE7",
    "total_count": 19,
    "places": [
      {
        "name": "1인1잔",
        "latitude": 37.64097031230355,
        "longitude": 126.93793263638513,
        "address": "서울 은평구 진관동 219",
        "phone": "02-355-1111",
        "distance": "585"
      },
      {
        "name": "롱브레드 은평한옥마을점",
        "latitude": 37.64080805759656,
        "longitude": 126.93778547785568,
        "address": "서울 은평구 진관동 219-2",
        "phone": "02-352-7290",
        "distance": "589"
      },
      {
        "name": "진관사 연지원",
        "latitude": 37.638154472704734,
        "longitude": 126.94660232779131,
        "address": "서울 은평구 진관동 354",
        "phone": "",
        "distance": "250"
      },
      {
        "name": "명금탕",
        "latitude": 37.6423368390277,
        "longitude": 126.939150661559,
        "address": "서울 은평구 진관동 205-6",
        "phone": "02-739-0394",
        "distance": "591"
      },
      {
        "name": "스페이스헬레나",
        "latitude": 37.6421060841411,
        "longitude": 126.938951433545,
        "address": "서울 은평구 진관동 198-1",
        "phone": "070-4122-1662",
        "distance": "585"
      },
      {
        "name": "투썸플레이스 은평한옥마을점",
        "latitude": 37.6423152807985,
        "longitude": 126.939277580739,
        "address": "서울 은평구 진관동 205-8",
        "phone": "02-353-7893",
        "distance": "581"
      },
      {
        "name": "88스퀘어 서울",
        "latitude": 37.6404123049808,
        "longitude": 126.937368856134,
        "address": "서울 은평구 진관동 219-7",
        "phone": "010-4883-0865",
        "distance": "605"
      },
      {
        "name": "지브릭커피 본점",
        "latitude": 37.6372353206047,
        "longitude": 126.935488522204,
        "address": "서울 은평구 진관동 138-22",
        "phone": "02-517-1474",
        "distance": "746"
      },
      {
        "name": "마음의정원",
        "latitude": 37.640993218652,
        "longitude": 126.94223246574,
        "address": "서울 은평구 진관동 125-12",
        "phone": "",
        "distance": "309"
      },
      {
        "name": "로맨티카",
        "latitude": 37.64089818586106,
        "longitude": 126.93784205411676,
        "address": "서울 은평구 진관동 219-1",
        "phone": "02-6929-3853",
        "distance": "589"
      },
      {
        "name": "보드레",
        "latitude": 37.6424052084329,
        "longitude": 126.938946656554,
        "address": "서울 은평구 진관동 205-4",
        "phone": "",
        "distance": "609"
      },
      {
        "name": "물다움",
        "latitude": 37.6409941201909,
        "longitude": 126.942233598071,
        "address": "서울 은평구 진관동 125-12",
        "phone": "",
        "distance": "309"
      },
      {
        "name": "스페이스에이치",
        "latitude": 37.642113292012,
        "longitude": 126.938951427646,
        "address": "서울 은평구 진관동 198-1",
        "phone": "",
        "distance": "586"
      },
      {
        "name": "카페소성",
        "latitude": 37.64088776389007,
        "longitude": 126.93858646237534,
        "address": "서울 은평구 진관동 194-4",
        "phone": "",
        "distance": "530"
      },
      {
        "name": "카페쉼",
        "latitude": 37.63726154133944,
        "longitude": 126.93565731253862,
        "address": "서울 은평구 진관동 154",
        "phone": "02-356-6224",
        "distance": "731"
      }
    ]
  }
}