{
  "key": "1923123f8319849e21425fe3c5b301022c0b5c80461813e130cebfcf664229e7",
  "tool": "PlaceSearch_kakao",
  "created_at": "2025-12-15T08:29:00.161191",
  "input_params": {
    "keyword": "주차장",
    "page": 1,
    "radius": 1000,
    "size": 10,
    "sort": "distance",
    "x": 127.1025,
    "y": 37.5133
  },
  "raw_args": {
    "keyword": "주차장",
    "x": 127.1025,
    "y": 37.5133,
    "page": 1,
    "size": 10,
    "radius": 1000,
    "sort": "distance"
  },
  "data": {
    "keyword": "주차장",
    "total_count": 158,
    "places": [
      {
        "name": "에비뉴엘 월드타워점 주차장",
        "latitude": 37.5137216647315,
        "longitude": 127.102622719219,
        "address": "서울 송파구 신천동 29",
        "road_address": "서울 송파구 올림픽로 300",
        "phone": "",
        "category": "교통,수송 > 교통시설 > 주차장",
        "distance": "48"
      },
      {
        "name": "잠실자전거주차타워",
        "latitude": 37.5133121582008,
        "longitude": 127.101055589748,
        "address": "서울 송파구 신천동 27",
        "road_address": "",
        "phone": "010-5578-1481",
        "category": "교통,수송 > 교통시설 > 주차장",
        "distance": "127"
      },
      {
        "name": "에비뉴엘 월드타워점 발렛주차장",
        "latitude": 37.5121000287248,
        "longitude": 127.102425953435,
        "address": "서울 송파구 신천동 29",
        "road_address": "서울 송파구 올림픽로 300",
        "phone": "",
        "category": "교통,수송 > 교통시설 > 주차장",
        "distance": "133"
      },
      {
        "name": "에비뉴엘 월드타워점 발렛주차장입구",
        "latitude": 37.5120854005741,
        "longitude": 127.102670246306,
        "address": "서울 송파구 신천동 29",
        "road_address": "서울 송파구 올림픽로 300",
        "phone": "",
        "category": "교통,수송 > 입출구",
        "distance": "135"
      },
      {
        "name": "제2롯데월드 주차장",
        "latitude": 37.5136708179184,
        "longitude": 127.10409873768,
        "address": "서울 송파구 신천동 29",
        "road_address": "서울 송파구 올림픽로 300",
        "phone": "",
        "category": "교통,수송 > 교통시설 > 주차장",
        "distance": "147"
      },
      {
        "name": "시그마타워 주차장",
        "latitude": 37.51471771755132,
        "longitude": 127.10211055561173,
        "address": "서울 송파구 신천동 7-19",
        "road_address": "",
        "phone": "",
        "category": "교통,수송 > 교통시설 > 주차장",
        "distance": "160"
      },
      {
        "name": "투루카 잠실역 10번출구(잠실 지하2층공영주차장)",
        "latitude": 37.5137129854214,
        "longitude": 127.104302394716,
        "address": "서울 송파구 신천동 29",
        "road_address": "서울 송파구 올림픽로 300",
        "phone": "1600-6038",
        "category": "교통,수송 > 교통시설 > 카셰어링 > 투루카",
        "distance": "165"
      },
      {
        "name": "롯데타워 주차장",
        "latitude": 37.5137525026039,
        "longitude": 127.104446099818,
        "address": "서울 송파구 신천동 29",
        "road_address": "서울 송파구 올림픽로 300",
        "phone": "",
        "category": "교통,수송 > 교통시설 > 주차장",
        "distance": "179"
      },
      {
        "name": "주차장",
        "latitude": 37.5116133261813,
        "longitude": 127.102610783981,
        "address": "서울 송파구 신천동 29",
        "road_address": "서울 송파구 올림픽로 300",
        "phone": "",
        "category": "교통,수송 > 교통시설 > 주차장",
        "distance": "187"
      },
      {
        "name": "예전빌딩 주차장",
        "latitude": 37.5149907779814,
        "longitude": 127.102045322576,
        "address": "서울 송파구 신천동 7-26",
        "road_address": "서울 송파구 올림픽로35다길 32",
        "phone": "",
        "category": "교통,수송 > 교통시설 > 주차장",
        "distance": "191"
      }
    ]
  }
}