{
  "key": "9fd3bb9bbc2596bfb4a49e142fc64d7826dd37de430a066d4734435674fb2cf8",
  "tool": "PlaceSearch_kakao",
  "created_at": "2025-12-19T02:49:34.644150",
  "input_params": {
    "keyword": "애플 매장",
    "radius": 5000,
    "sort": "accuracy",
    "x": 127.061122,
    "y": 37.501115
  },
  "raw_args": {
    "x": 127.061122,
    "y": 37.501115,
    "keyword": "애플 매장",
    "radius": 5000
  },
  "data": {
    "keyword": "애플 매장",
    "total_count": 146,
    "places": [
      {
        "name": "a#shop 현대백화점무역센터점",
        "latitude": 37.50840101038459,
        "longitude": 127.05966824338046,
        "address": "서울 강남구 삼성동 159-7",
        "road_address": "서울 강남구 테헤란로 517",
        "phone": "02-3467-8373",
        "category": "가정,생활 > 전자제품 > 전자제품판매 > a#shop",
        "distance": "819"
      },
      {
        "name": "애플공인서비스센터 유베이스 코엑스센터",
        "latitude": 37.51217452148478,
        "longitude": 127.05946086642447,
        "address": "서울 강남구 삼성동 159",
        "road_address": "서울 강남구 영동대로 513",
        "phone": "1566-8514",
        "category": "가정,생활 > 전자제품 > 전자제품서비스센터 > 통신기기수리 > Apple 공인서비스센터",
        "distance": "1236"
      },
      {
        "name": "Apple 강남",
        "latitude": 37.5036902997713,
        "longitude": 127.025310702725,
        "address": "서울 강남구 역삼동 809",
        "road_address": "서울 강남구 강남대로 464",
        "phone": "080-500-0456",
        "category": "가정,생활 > 전자제품 > 전자제품서비스센터 > 통신기기수리 > Apple 공인서비스센터",
        "distance": "3179"
      },
      {
        "name": "Apple 가로수길",
        "latitude": 37.520819816124934,
        "longitude": 127.02272940977892,
        "address": "서울 강남구 신사동 534-19",
        "road_address": "서울 강남구 가로수길 43",
        "phone": "080-500-0029",
        "category": "가정,생활 > 전자제품 > 전자제품서비스센터 > 통신기기수리 > Apple 공인서비스센터",
        "distance": "4038"
      },
      {
        "name": "애플",
        "latitude": 37.5012982208869,
        "longitude": 127.041029624075,
        "address": "서울 강남구 역삼동 719-18",
        "road_address": "서울 강남구 언주로87길 24",
        "phone": "010-3144-1175",
        "category": "가정,생활 > 유흥시설 > 유흥주점",
        "distance": "1776"
      },
      {
        "name": "Apple 잠실",
        "latitude": 37.5139978977813,
        "longitude": 127.10408109426407,
        "address": "서울 송파구 신천동 29",
        "road_address": "서울 송파구 올림픽로 300",
        "phone": "080-500-0098",
        "category": "가정,생활 > 전자제품 > 전자제품서비스센터 > 통신기기수리 > Apple 공인서비스센터",
        "distance": "4058"
      },
      {
        "name": "a#shop 현대백화점압구정점",
        "latitude": 37.52733395706555,
        "longitude": 127.02747043826793,
        "address": "서울 강남구 압구정동 429",
        "road_address": "서울 강남구 압구정로 165",
        "phone": "02-3449-5474",
        "category": "가정,생활 > 전자제품 > 전자제품판매 > a#shop",
        "distance": "4161"
      },
      {
        "name": "애플트리타워",
        "latitude": 37.5070100333146,
        "longitude": 127.055618149788,
        "address": "서울 강남구 삼성동 144-25",
        "road_address": "서울 강남구 테헤란로 443",
        "phone": "",
        "category": "부동산 > 빌딩",
        "distance": "815"
      },
      {
        "name": "나인애플",
        "latitude": 37.5046039627709,
        "longitude": 127.052526567013,
        "address": "서울 강남구 대치동 890-33",
        "road_address": "서울 강남구 테헤란로68길 11",
        "phone": "",
        "category": "가정,생활 > 미용 > 미용실",
        "distance": "853"
      },
      {
        "name": "대치애플사탐전문학원",
        "latitude": 37.50017317745644,
        "longitude": 127.05567414689965,
        "address": "서울 강남구 대치동 916-67",
        "road_address": "서울 강남구 삼성로67길 48",
        "phone": "02-6081-5858",
        "category": "교육,학문 > 학원",
        "distance": "492"
      },
      {
        "name": "애플코리아 본사",
        "latitude": 37.5130879667989,
        "longitude": 127.059803181324,
        "address": "서울 강남구 삼성동 159",
        "road_address": "서울 강남구 영동대로 517",
        "phone": "02-6712-6700",
        "category": "서비스,산업 > 기업",
        "distance": "1333"
      },
      {
        "name": "애플트리타워 주차장",
        "latitude": 37.506948775647814,
        "longitude": 127.05559548432326,
        "address": "서울 강남구 삼성동 144-25",
        "road_address": "서울 강남구 테헤란로 443",
        "phone": "",
        "category": "교통,수송 > 교통시설 > 주차장",
        "distance": "811"
      },
      {
        "name": "애플팩토리",
        "latitude": 37.5041827445532,
        "longitude": 127.051499360974,
        "address": "서울 강남구 대치동 890-54",
        "road_address": "서울 강남구 테헤란로64길 13",
        "phone": "070-7720-7705",
        "category": "가정,생활 > 전자제품 > 전자제품서비스센터 > 휴대폰수리",
        "distance": "916"
      },
      {
        "name": "애플컴퓨터코리아",
        "latitude": 37.5103771178345,
        "longitude": 127.061031603695,
        "address": "서울 강남구 삼성동 159-1",
        "road_address": "서울 강남구 영동대로 511",
        "phone": "1644-8871",
        "category": "가정,생활 > 전자제품 > 전자제품서비스센터 > 컴퓨터수리",
        "distance": "1028"
      },
      {
        "name": "애플트리 김약사네",
        "latitude": 37.5075028898723,
        "longitude": 127.064467531634,
        "address": "서울 강남구 대치동 1001",
        "road_address": "서울 강남구 영동대로 424",
        "phone": "02-553-1323",
        "category": "의료,건강 > 건강식품판매",
        "distance": "768"
      }
    ]
  }
}