{
  "key": "5fc6d55dc19297fd1d63949d05f6ef7d275887248711205809845ba7879977cf",
  "tool": "PlaceSearch_kakao",
  "created_at": "2025-10-26T08:24:12.676353",
  "input_params": {
    "keyword": "애플 매장",
    "radius": 1000,
    "sort": "distance",
    "x": 126.97865,
    "y": 37.5665
  },
  "raw_args": {
    "keyword": "애플 매장",
    "x": 126.97865,
    "y": 37.5665,
    "radius": 1000,
    "sort": "distance"
  },
  "data": {
    "keyword": "애플 매장",
    "total_count": 24,
    "places": [
      {
        "name": "애플컴퓨터맥북에어수리 을지로점",
        "latitude": 37.5653809065396,
        "longitude": 126.979209557541,
        "address": "서울 중구 을지로1가 192-11",
        "road_address": "서울 중구 을지로 6",
        "phone": "",
        "category": "가정,생활 > 전자제품 > 전자제품서비스센터 > 컴퓨터수리",
        "distance": "133"
      },
      {
        "name": "애플",
        "latitude": 37.564202383180756,
        "longitude": 126.97909443472867,
        "address": "서울 중구 남대문로2가 9-9",
        "road_address": "서울 중구 소공로 지하 102",
        "phone": "",
        "category": "가정,생활 > 패션 > 의류판매",
        "distance": "258"
      },
      {
        "name": "애플닥터서비스 시청역점",
        "latitude": 37.563770448041076,
        "longitude": 126.97716247132351,
        "address": "서울 중구 태평로2가 57-3",
        "road_address": "서울 중구 세종대로 86",
        "phone": "",
        "category": "가정,생활 > 전자제품 > 전자제품서비스센터",
        "distance": "330"
      },
      {
        "name": "애플컴퓨터맥북에어수리 세종로점",
        "latitude": 37.5695717581911,
        "longitude": 126.976138551791,
        "address": "서울 종로구 세종로 211",
        "road_address": "서울 종로구 세종대로 149",
        "phone": "",
        "category": "가정,생활 > 전자제품 > 전자제품서비스센터 > 컴퓨터수리",
        "distance": "406"
      },
      {
        "name": "Apple 명동",
        "latitude": 37.56468141612801,
        "longitude": 126.98284080132754,
        "address": "서울 중구 남대문로2가 9-1",
        "road_address": "서울 중구 남대문로 84",
        "phone": "080-500-1007",
        "category": "가정,생활 > 전자제품 > 전자제품서비스센터 > 통신기기수리 > Apple 공인서비스센터",
        "distance": "421"
      },
      {
        "name": "애플산부인과의원 명동점",
        "latitude": 37.565611365232236,
        "longitude": 126.98369516295213,
        "address": "서울 중구 을지로2가 199-22",
        "road_address": "서울 중구 명동3길 44",
        "phone": "02-775-5071",
        "category": "의료,건강 > 병원 > 산부인과",
        "distance": "456"
      },
      {
        "name": "시청아이패드수리애플워치수리애플 전문서비스센터아이솔루션",
        "latitude": 37.5623404653315,
        "longitude": 126.976644526102,
        "address": "서울 중구 태평로2가 69-15",
        "road_address": "서울 중구 세종대로 70",
        "phone": "010-2144-7756",
        "category": "가정,생활 > 전자제품 > 전자제품서비스센터",
        "distance": "494"
      },
      {
        "name": "애플119",
        "latitude": 37.5708446679787,
        "longitude": 126.979923441709,
        "address": "서울 종로구 청진동 146",
        "road_address": "서울 종로구 종로 19",
        "phone": "02-722-1192",
        "category": "가정,생활 > 전자제품 > 전자제품서비스센터 > 휴대폰수리",
        "distance": "495"
      },
      {
        "name": "KT 애플공인AS센터 명동을지로점",
        "latitude": 37.56490595073985,
        "longitude": 126.98417636427627,
        "address": "서울 중구 을지로2가 199-9",
        "road_address": "서울 중구 명동7길 25",
        "phone": "02-3789-8180",
        "category": "가정,생활 > 전자제품 > 전자제품서비스센터 > 통신기기수리",
        "distance": "519"
      },
      {
        "name": "애플픽스",
        "latitude": 37.5690252583737,
        "longitude": 126.98384043894,
        "address": "서울 종로구 관철동 252-1",
        "road_address": "서울 종로구 청계천로 55",
        "phone": "070-4126-7656",
        "category": "가정,생활 > 전자제품 > 전자제품서비스센터 > 통신기기수리",
        "distance": "537"
      },
      {
        "name": "바이애플",
        "latitude": 37.56313988376467,
        "longitude": 126.97348867897325,
        "address": "서울 중구 서소문동 48-2",
        "road_address": "서울 중구 서소문로 113",
        "phone": "",
        "category": "가정,생활 > 패션 > 의류판매",
        "distance": "588"
      },
      {
        "name": "헬로키티 애플카페",
        "latitude": 37.5626084476513,
        "longitude": 126.984459810686,
        "address": "서울 중구 명동2가 52-5",
        "road_address": "서울 중구 명동6길 15",
        "phone": "",
        "category": "음식점 > 카페",
        "distance": "671"
      },
      {
        "name": "애플민트",
        "latitude": 37.5603424004905,
        "longitude": 126.978463964623,
        "address": "서울 중구 남창동 31-1",
        "road_address": "서울 중구 남대문시장8길 2",
        "phone": "",
        "category": "가정,생활 > 패션 > 의류판매",
        "distance": "683"
      },
      {
        "name": "애플캣",
        "latitude": 37.56019464505128,
        "longitude": 126.97850814756083,
        "address": "서울 중구 남창동 31-4",
        "road_address": "서울 중구 남대문시장8길 6",
        "phone": "02-753-3690",
        "category": "가정,생활 > 패션 > 의류판매 > 아동복,유아복",
        "distance": "700"
      },
      {
        "name": "애플디브이디",
        "latitude": 37.5724487404015,
        "longitude": 126.981779476018,
        "address": "서울 종로구 수송동 58",
        "road_address": "서울 종로구 삼봉로 81",
        "phone": "02-737-9122",
        "category": "가정,생활 > 전자제품 > 전자제품서비스센터",
        "distance": "715"
      }
    ]
  }
}