{
  "key": "f9a38e476bc7936666eb64aa1a9f3b5e22cacd8609b63add35d82fca68001b9b",
  "tool": "PlaceSearch_kakao",
  "created_at": "2025-10-27T03:25:40.786049",
  "input_params": {
    "keyword": "맛집",
    "radius": 1000,
    "sort": "accuracy",
    "x": 127.037,
    "y": 37.566
  },
  "raw_args": {
    "keyword": "맛집",
    "x": 127.037,
    "y": 37.566,
    "radius": 1000
  },
  "data": {
    "keyword": "맛집",
    "total_count": 1304,
    "places": [
      {
        "name": "왕십리맛나곱창",
        "latitude": 37.5649519415047,
        "longitude": 127.036120469717,
        "address": "서울 성동구 홍익동 130-1",
        "road_address": "서울 성동구 고산자로 281-1",
        "phone": "02-2282-3349",
        "category": "음식점 > 한식 > 육류,고기 > 곱창,막창",
        "distance": "139"
      },
      {
        "name": "제일곱창 본점",
        "latitude": 37.5648519413304,
        "longitude": 127.03608646516,
        "address": "서울 성동구 홍익동 131-1",
        "road_address": "서울 성동구 고산자로 281",
        "phone": "010-8690-9792",
        "category": "음식점 > 한식 > 육류,고기 > 곱창,막창",
        "distance": "150"
      },
      {
        "name": "노무라",
        "latitude": 37.56569443259107,
        "longitude": 127.03588992295985,
        "address": "서울 성동구 홍익동 125-1",
        "road_address": "서울 성동구 마장로26길 13",
        "phone": "070-7543-1351",
        "category": "음식점 > 술집 > 와인바",
        "distance": "103"
      },
      {
        "name": "왕십리소곱창",
        "latitude": 37.5653628302471,
        "longitude": 127.036007479757,
        "address": "서울 성동구 홍익동 128",
        "road_address": "서울 성동구 마장로26길 16",
        "phone": "02-2282-6631",
        "category": "음식점 > 한식 > 육류,고기 > 곱창,막창",
        "distance": "112"
      },
      {
        "name": "심가네한우고집 마장본점",
        "latitude": 37.5649684410411,
        "longitude": 127.040788340676,
        "address": "서울 성동구 마장동 797-90",
        "road_address": "서울 성동구 마조로19길 7",
        "phone": "02-2281-1214",
        "category": "음식점 > 한식 > 육류,고기",
        "distance": "353"
      },
      {
        "name": "유래회관",
        "latitude": 37.5664489003844,
        "longitude": 127.031566427085,
        "address": "서울 성동구 홍익동 357",
        "road_address": "서울 성동구 마장로 196",
        "phone": "02-2293-8866",
        "category": "음식점 > 한식",
        "distance": "482"
      },
      {
        "name": "한우마을",
        "latitude": 37.570014702676396,
        "longitude": 127.03875357536398,
        "address": "서울 성동구 마장동 509-11",
        "road_address": "서울 성동구 고산자로24길 11",
        "phone": "02-2291-0292",
        "category": "음식점 > 한식 > 육류,고기",
        "distance": "471"
      },
      {
        "name": "정은이네곱창",
        "latitude": 37.5654600768834,
        "longitude": 127.036206738323,
        "address": "서울 성동구 홍익동 128",
        "road_address": "서울 성동구 고산자로 289",
        "phone": "02-2295-1233",
        "category": "음식점 > 한식 > 육류,고기 > 곱창,막창",
        "distance": "92"
      },
      {
        "name": "왕십리통골뱅이 본점",
        "latitude": 37.5632262881398,
        "longitude": 127.03391026301549,
        "address": "서울 성동구 도선동 208",
        "road_address": "서울 성동구 왕십리로24길 7-1",
        "phone": "02-2236-9292",
        "category": "음식점 > 한식",
        "distance": "411"
      },
      {
        "name": "호호국수",
        "latitude": 37.5652840350445,
        "longitude": 127.034354893629,
        "address": "서울 성동구 홍익동 274-1",
        "road_address": "서울 성동구 왕십리로24길 31",
        "phone": "02-2298-6727",
        "category": "음식점 > 한식 > 국수",
        "distance": "246"
      },
      {
        "name": "달인의족발 본점",
        "latitude": 37.5632155138215,
        "longitude": 127.033778963411,
        "address": "서울 성동구 도선동 211",
        "road_address": "서울 성동구 무학로2길 37",
        "phone": "02-2295-4000",
        "category": "음식점 > 한식 > 육류,고기 > 족발,보쌈",
        "distance": "420"
      },
      {
        "name": "왕십리정부네곱창 본점",
        "latitude": 37.565319529150216,
        "longitude": 127.03618176887603,
        "address": "서울 성동구 홍익동 128-3",
        "road_address": "서울 성동구 고산자로 287",
        "phone": "02-2298-0595",
        "category": "음식점 > 한식 > 육류,고기 > 곱창,막창",
        "distance": "104"
      },
      {
        "name": "만나떡볶이",
        "latitude": 37.56480561833348,
        "longitude": 127.03431279454662,
        "address": "서울 성동구 도선동 167",
        "road_address": "서울 성동구 왕십리로24길 27",
        "phone": "",
        "category": "음식점 > 분식 > 떡볶이",
        "distance": "271"
      },
      {
        "name": "인생한우",
        "latitude": 37.5701482300044,
        "longitude": 127.038201250056,
        "address": "서울 성동구 마장동 522-2",
        "road_address": "서울 성동구 마장로31길 43",
        "phone": "02-2292-2888",
        "category": "음식점 > 한식 > 육류,고기",
        "distance": "472"
      },
      {
        "name": "왕십리수상한막창 도선사거리점",
        "latitude": 37.56546553272598,
        "longitude": 127.03604374951279,
        "address": "서울 성동구 홍익동 128",
        "road_address": "서울 성동구 마장로26길 16-1",
        "phone": "",
        "category": "음식점 > 한식 > 육류,고기 > 곱창,막창",
        "distance": "103"
      }
    ]
  }
}