{
  "key": "c677cb111665e66d2579b0fe15b324f0be7ac83ffef69fbaf307af1a143d3786",
  "tool": "PlaceSearch_kakao",
  "created_at": "2025-10-27T16:38:22.252331",
  "input_params": {
    "keyword": "디저트 카페",
    "size": 5,
    "sort": "accuracy",
    "x": 127698,
    "y": 37.498472
  },
  "raw_args": {
    "x": 127698,
    "y": 37.498472,
    "sort": "accuracy",
    "keyword": "디저트 카페",
    "size": 5
  },
  "data": {
    "keyword": "디저트 카페",
    "total_count": 25233,
    "places": [
      {
        "name": "홍만당 명동본점",
        "latitude": 37.5631545168875,
        "longitude": 126.984964502429,
        "address": "서울 중구 명동2가 32-8",
        "road_address": "서울 중구 명동8길 11-6",
        "phone": "02-777-4422",
        "category": "음식점 > 카페 > 테마카페 > 디저트카페",
        "distance": ""
      },
      {
        "name": "라운드앤드",
        "latitude": 37.5660606555229,
        "longitude": 126.972363673049,
        "address": "서울 중구 정동 11-3",
        "road_address": "서울 중구 정동길 35",
        "phone": "",
        "category": "음식점 > 카페 > 테마카페 > 디저트카페",
        "distance": ""
      },
      {
        "name": "크리에잇쿠키 광화문SFC몰점",
        "latitude": 37.5683990186442,
        "longitude": 126.977973783615,
        "address": "서울 중구 태평로1가 84",
        "road_address": "서울 중구 세종대로 136",
        "phone": "02-3789-8710",
        "category": "음식점 > 카페 > 테마카페 > 디저트카페",
        "distance": ""
      },
      {
        "name": "백미당 광화문점",
        "latitude": 37.5710715451676,
        "longitude": 126.978927247256,
        "address": "서울 종로구 청진동 246",
        "road_address": "서울 종로구 종로3길 17",
        "phone": "02-2251-8340",
        "category": "음식점 > 카페 > 테마카페 > 디저트카페",
        "distance": ""
      },
      {
        "name": "커피원",
        "latitude": 37.5713514457996,
        "longitude": 126.972986567923,
        "address": "서울 종로구 신문로1가 238",
        "road_address": "서울 종로구 새문안로3길 12",
        "phone": "",
        "category": "음식점 > 카페 > 테마카페 > 디저트카페",
        "distance": ""
      }
    ]
  }
}