{
  "key": "7552fb1d32421376e03a0140f0b7b6e67d19733048cc97b9769da3d09db0efed",
  "tool": "PlaceSearch_kakao",
  "created_at": "2025-10-27T17:04:37.413928",
  "input_params": {
    "keyword": "대학교",
    "radius": 2000,
    "size": 10,
    "sort": "distance",
    "x": 127.0285,
    "y": 37.582
  },
  "raw_args": {
    "keyword": "대학교",
    "x": 127.0285,
    "y": 37.582,
    "radius": 2000,
    "size": 10,
    "sort": "distance"
  },
  "data": {
    "keyword": "대학교",
    "total_count": 429,
    "places": [
      {
        "name": "고려대학교 애기능학생회관매점",
        "latitude": 37.5824731922673,
        "longitude": 127.027565407114,
        "address": "서울 성북구 안암동5가 126-16",
        "road_address": "서울 성북구 안암로 145",
        "phone": "02-923-4294",
        "category": "교육,학문 > 학교부속시설",
        "distance": "97"
      },
      {
        "name": "고려대학교 애기능학생회관",
        "latitude": 37.5824335707267,
        "longitude": 127.027470292582,
        "address": "서울 성북구 안암동5가 126-16",
        "road_address": "서울 성북구 안암로 145",
        "phone": "",
        "category": "교육,학문 > 학교부속시설",
        "distance": "102"
      },
      {
        "name": "고려대학교 로봇융합관",
        "latitude": 37.5818391447151,
        "longitude": 127.026464740122,
        "address": "서울 성북구 안암동5가 126-16",
        "road_address": "서울 성북구 안암로 145",
        "phone": "",
        "category": "교육,학문 > 학교부속시설",
        "distance": "180"
      },
      {
        "name": "고려대학교 서울캠퍼스 신공학관",
        "latitude": 37.5824554130656,
        "longitude": 127.02651477253,
        "address": "서울 성북구 안암동5가 1-2",
        "road_address": "서울 성북구 안암로 145",
        "phone": "",
        "category": "교육,학문 > 학교부속시설",
        "distance": "182"
      },
      {
        "name": "고려대학교 신공학관",
        "latitude": 37.5824734380177,
        "longitude": 127.026492136072,
        "address": "서울 성북구 안암동5가 126-16",
        "road_address": "서울 성북구 안암로 145",
        "phone": "",
        "category": "교육,학문 > 학교부속시설",
        "distance": "184"
      },
      {
        "name": "고려대학교 신소재공학부",
        "latitude": 37.5825139824671,
        "longitude": 127.026493282582,
        "address": "서울 성북구 안암동5가 126-16",
        "road_address": "서울 성북구 안암로 145",
        "phone": "02-3290-3821",
        "category": "교육,학문 > 학교부속시설",
        "distance": "186"
      },
      {
        "name": "성북구노인대학",
        "latitude": 37.5833015545104,
        "longitude": 127.029834551327,
        "address": "서울 성북구 안암동5가 104-37",
        "road_address": "서울 성북구 안암로 79",
        "phone": "",
        "category": "교육,학문 > 학교부속시설",
        "distance": "186"
      },
      {
        "name": "고려대학교 플러스에너지빌딩 혁신기술 연구센터",
        "latitude": 37.5830366346123,
        "longitude": 127.026152690322,
        "address": "서울 성북구 안암동5가 126-16",
        "road_address": "서울 성북구 안암로 145",
        "phone": "02-3290-4624",
        "category": "교육,학문 > 연구소",
        "distance": "236"
      },
      {
        "name": "고려대학교 기술경영전문대학원",
        "latitude": 37.5831366578997,
        "longitude": 127.026093853377,
        "address": "서울 성북구 안암동5가 126-16",
        "road_address": "서울 성북구 안암로 145",
        "phone": "02-3290-5971",
        "category": "교육,학문 > 학교 > 대학원",
        "distance": "246"
      },
      {
        "name": "고려대학교 태양전지연구실",
        "latitude": 37.5831474688183,
        "longitude": 127.026098385761,
        "address": "서울 성북구 안암동5가 126-16",
        "road_address": "서울 성북구 안암로 145",
        "phone": "02-3290-3713",
        "category": "교육,학문 > 학교부속시설",
        "distance": "247"
      }
    ]
  }
}