{
  "key": "da7e0f3894759f1397c8faa9ba0d461e502da65266947207a109e77378d43acc",
  "tool": "PlaceSearch_kakao",
  "created_at": "2025-10-27T18:48:30.660074",
  "input_params": {
    "keyword": "강남역 디저트 카페",
    "size": 10,
    "sort": "accuracy"
  },
  "raw_args": {
    "keyword": "강남역 디저트 카페",
    "size": 10,
    "sort": "accuracy"
  },
  "data": {
    "keyword": "강남역 디저트 카페",
    "total_count": 432,
    "places": [
      {
        "name": "장꼬방",
        "latitude": 37.498331428974,
        "longitude": 127.023807097178,
        "address": "서울 서초구 서초동 1316",
        "road_address": "서울 서초구 강남대로61길 27",
        "phone": "02-597-5511",
        "category": "음식점 > 카페 > 테마카페 > 디저트카페",
        "distance": ""
      },
      {
        "name": "썸띵어바웃커피",
        "latitude": 37.502824775159816,
        "longitude": 127.02779847587531,
        "address": "서울 강남구 역삼동 618-16",
        "road_address": "서울 강남구 강남대로102길 30",
        "phone": "",
        "category": "음식점 > 카페 > 테마카페 > 디저트카페",
        "distance": ""
      },
      {
        "name": "까치화방 강남역점",
        "latitude": 37.503303460371576,
        "longitude": 127.02670955234811,
        "address": "서울 강남구 역삼동 811-13",
        "road_address": "서울 강남구 봉은사로4길 23",
        "phone": "02-558-5533",
        "category": "음식점 > 카페 > 테마카페 > 디저트카페",
        "distance": ""
      },
      {
        "name": "크리에잇쿠키 역삼점",
        "latitude": 37.50292193725799,
        "longitude": 127.03511569524726,
        "address": "서울 강남구 역삼동 641-1",
        "road_address": "서울 강남구 테헤란로25길 36",
        "phone": "02-558-8890",
        "category": "음식점 > 카페 > 테마카페 > 디저트카페",
        "distance": ""
      },
      {
        "name": "소과당",
        "latitude": 37.499734261007006,
        "longitude": 127.02806874426594,
        "address": "서울 강남구 역삼동 818-1",
        "road_address": "서울 강남구 강남대로96길 12",
        "phone": "02-538-8188",
        "category": "음식점 > 카페 > 테마카페 > 디저트카페",
        "distance": ""
      },
      {
        "name": "설빙 강남역점",
        "latitude": 37.50113103589973,
        "longitude": 127.02714644191718,
        "address": "서울 강남구 역삼동 619-18",
        "road_address": "서울 강남구 테헤란로1길 42",
        "phone": "02-558-7708",
        "category": "음식점 > 카페 > 테마카페 > 디저트카페 > 설빙",
        "distance": ""
      },
      {
        "name": "어퍼앤언더",
        "latitude": 37.5027373946275,
        "longitude": 127.027726063481,
        "address": "서울 강남구 역삼동 618-17",
        "road_address": "서울 강남구 강남대로102길 28",
        "phone": "",
        "category": "음식점 > 카페 > 테마카페 > 디저트카페",
        "distance": ""
      },
      {
        "name": "로얄마카롱",
        "latitude": 37.5022676929746,
        "longitude": 127.035497643301,
        "address": "서울 강남구 역삼동 641-15",
        "road_address": "서울 강남구 테헤란로25길 26",
        "phone": "070-4110-2000",
        "category": "음식점 > 카페 > 테마카페 > 디저트카페",
        "distance": ""
      },
      {
        "name": "노티드 강남역점",
        "latitude": 37.500815986414466,
        "longitude": 127.02579602312332,
        "address": "서울 서초구 서초동 1305-7",
        "road_address": "서울 서초구 강남대로 429",
        "phone": "070-8869-9377",
        "category": "음식점 > 카페 > 테마카페 > 디저트카페 > 노티드",
        "distance": ""
      },
      {
        "name": "인포메이션카페",
        "latitude": 37.4940621462283,
        "longitude": 127.032657696336,
        "address": "서울 강남구 역삼동 830-67",
        "road_address": "서울 강남구 역삼로 121",
        "phone": "02-2189-2046",
        "category": "음식점 > 카페 > 테마카페 > 디저트카페",
        "distance": ""
      }
    ]
  }
}