{
  "key": "a7296083778238384a3e26e71182881d3c9f0fb3ff1d5ca63b1dc7ac5be51a36",
  "tool": "PlaceSearch_kakao",
  "created_at": "2025-10-15T14:48:12.997305",
  "input_params": {
    "keyword": "파스타",
    "radius": 1000,
    "sort": "distance",
    "x": 127.0276368,
    "y": 37.4979502
  },
  "raw_args": {
    "keyword": "파스타",
    "x": 127.0276368,
    "y": 37.4979502,
    "radius": 1000,
    "sort": "distance"
  },
  "data": {
    "keyword": "파스타",
    "total_count": 174,
    "places": [
      {
        "name": "보이브라질 강남점",
        "latitude": 37.4991936196164,
        "longitude": 127.02822686566,
        "address": "서울 강남구 역삼동 819",
        "road_address": "서울 강남구 강남대로94길 10",
        "phone": "070-5172-0907",
        "category": "음식점 > 양식 > 멕시칸,브라질",
        "distance": "147"
      },
      {
        "name": "오늘와인 한잔 강남역1번출구점",
        "latitude": 37.4977283224454,
        "longitude": 127.029298371216,
        "address": "서울 강남구 역삼동 825-20",
        "road_address": "서울 강남구 테헤란로4길 6",
        "phone": "02-555-9132",
        "category": "음식점 > 술집 > 와인바",
        "distance": "148"
      },
      {
        "name": "파머스포케 강남역점",
        "latitude": 37.4976670570902,
        "longitude": 127.029285907809,
        "address": "서울 강남구 역삼동 825-20",
        "road_address": "서울 강남구 테헤란로4길 6",
        "phone": "0507-2090-9584",
        "category": "음식점 > 샐러드",
        "distance": "148"
      },
      {
        "name": "로리스더프라임립",
        "latitude": 37.49808140984054,
        "longitude": 127.02590025308936,
        "address": "서울 서초구 서초동 1317-23",
        "road_address": "서울 서초구 서초대로 411",
        "phone": "02-590-2800",
        "category": "음식점 > 양식 > 스테이크,립",
        "distance": "154"
      },
      {
        "name": "더플라잉팬 레드",
        "latitude": 37.4980931286224,
        "longitude": 127.025874247186,
        "address": "서울 서초구 서초동 1317-27",
        "road_address": "서울 서초구 서초대로 411",
        "phone": "02-590-2488",
        "category": "음식점 > 양식",
        "distance": "156"
      },
      {
        "name": "닥터로빈시그니처 서초점",
        "latitude": 37.4966332657545,
        "longitude": 127.026914121286,
        "address": "서울 서초구 서초동 1320-10",
        "road_address": "서울 서초구 서초대로74길 11",
        "phone": "02-522-3101",
        "category": "음식점 > 양식 > 이탈리안",
        "distance": "159"
      },
      {
        "name": "매드포갈릭 강남삼성타운점",
        "latitude": 37.496601724597085,
        "longitude": 127.02694011940008,
        "address": "서울 서초구 서초동 1320-10",
        "road_address": "서울 서초구 서초대로74길 11",
        "phone": "02-585-1175",
        "category": "음식점 > 패밀리레스토랑 > 매드포갈릭",
        "distance": "161"
      },
      {
        "name": "더페이트",
        "latitude": 37.4994280268679,
        "longitude": 127.027610620179,
        "address": "서울 강남구 역삼동 820-2",
        "road_address": "서울 강남구 테헤란로1길 17",
        "phone": "02-6253-0002",
        "category": "음식점 > 술집 > 칵테일바",
        "distance": "164"
      },
      {
        "name": "띠엘로",
        "latitude": 37.49926562402995,
        "longitude": 127.02854354059278,
        "address": "서울 강남구 역삼동 819-1",
        "road_address": "서울 강남구 강남대로94길 14",
        "phone": "0502-5552-4909",
        "category": "음식점 > 술집 > 와인바",
        "distance": "166"
      },
      {
        "name": "와인공간",
        "latitude": 37.4992890436282,
        "longitude": 127.028570690758,
        "address": "서울 강남구 역삼동 819-1",
        "road_address": "서울 강남구 강남대로94길 14",
        "phone": "010-5805-5207",
        "category": "가정,생활 > 식품판매 > 주류판매",
        "distance": "170"
      },
      {
        "name": "아이해브어드림",
        "latitude": 37.49927804222547,
        "longitude": 127.02934308121847,
        "address": "서울 강남구 역삼동 819-5",
        "road_address": "서울 강남구 테헤란로5길 7",
        "phone": "02-3453-7697",
        "category": "음식점 > 퓨전요리",
        "distance": "211"
      },
      {
        "name": "다락마을 강남킵유어포크점",
        "latitude": 37.4969893784424,
        "longitude": 127.029773039852,
        "address": "서울 강남구 역삼동 825-24",
        "road_address": "서울 강남구 강남대로84길 15",
        "phone": "",
        "category": "음식점 > 양식 > 이탈리안",
        "distance": "216"
      },
      {
        "name": "더몰트하우스 강남역점",
        "latitude": 37.4983086090296,
        "longitude": 127.025227463506,
        "address": "서울 서초구 서초동 1316-29",
        "road_address": "서울 서초구 서초대로73길 9",
        "phone": "02-534-5818",
        "category": "음식점 > 양식",
        "distance": "216"
      },
      {
        "name": "경양식당임정훈",
        "latitude": 37.4970037785687,
        "longitude": 127.029836373224,
        "address": "서울 강남구 역삼동 825-25",
        "road_address": "서울 강남구 강남대로84길 15",
        "phone": "02-569-8291",
        "category": "음식점 > 양식",
        "distance": "220"
      },
      {
        "name": "시선 강남2호점",
        "latitude": 37.4999758875327,
        "longitude": 127.027400475284,
        "address": "서울 강남구 역삼동 816-5",
        "road_address": "서울 강남구 테헤란로1길 25",
        "phone": "",
        "category": "음식점 > 일식",
        "distance": "226"
      }
    ]
  }
}