{
  "key": "a79308a12d342bbbdba5b87be65a724da3fa961da240cab408c835ec403e820d",
  "tool": "PlaceSearch_kakao",
  "created_at": "2025-10-26T12:22:08.742197",
  "input_params": {
    "keyword": "파스타",
    "sort": "accuracy",
    "x": 127.02758,
    "y": 37.4979
  },
  "raw_args": {
    "keyword": "파스타",
    "x": 127.02758,
    "y": 37.4979
  },
  "data": {
    "keyword": "파스타",
    "total_count": 29049,
    "places": [
      {
        "name": "노리타",
        "latitude": 37.5008247672713,
        "longitude": 127.02682515299,
        "address": "서울 강남구 역삼동 815-4",
        "road_address": "서울 강남구 강남대로 428",
        "phone": "02-566-7776",
        "category": "음식점 > 양식 > 이탈리안",
        "distance": "331"
      },
      {
        "name": "라그릴리아 SPC스퀘어점",
        "latitude": 37.49437283454316,
        "longitude": 127.02985341955451,
        "address": "서울 강남구 역삼동 831-23",
        "road_address": "서울 강남구 강남대로 352",
        "phone": "02-567-9192",
        "category": "음식점 > 양식 > 이탈리안 > 라그릴리아",
        "distance": "440"
      },
      {
        "name": "마노디셰프 강남점",
        "latitude": 37.4998701131357,
        "longitude": 127.03237184760155,
        "address": "서울 강남구 역삼동 648-9",
        "road_address": "서울 강남구 테헤란로 129",
        "phone": "02-553-5311",
        "category": "음식점 > 양식 > 이탈리안",
        "distance": "476"
      },
      {
        "name": "닥터로빈시그니처 서초점",
        "latitude": 37.4966332657545,
        "longitude": 127.026914121286,
        "address": "서울 서초구 서초동 1320-10",
        "road_address": "서울 서초구 서초대로74길 11",
        "phone": "02-522-3101",
        "category": "음식점 > 양식 > 이탈리안",
        "distance": "152"
      },
      {
        "name": "로리스더프라임립",
        "latitude": 37.49808140984054,
        "longitude": 127.02590025308936,
        "address": "서울 서초구 서초동 1317-23",
        "road_address": "서울 서초구 서초대로 411",
        "phone": "02-590-2800",
        "category": "음식점 > 양식 > 스테이크,립",
        "distance": "149"
      },
      {
        "name": "마초쉐프 강남본점",
        "latitude": 37.5034987166465,
        "longitude": 127.027843963703,
        "address": "서울 강남구 역삼동 616-14",
        "road_address": "서울 강남구 강남대로106길 29",
        "phone": "02-566-8886",
        "category": "음식점 > 양식 > 이탈리안",
        "distance": "621"
      },
      {
        "name": "도치피자 강남",
        "latitude": 37.5009936710604,
        "longitude": 127.028883471736,
        "address": "서울 강남구 역삼동 620-17",
        "road_address": "서울 강남구 강남대로98길 27",
        "phone": "02-556-8001",
        "category": "음식점 > 양식 > 피자",
        "distance": "362"
      },
      {
        "name": "비어룸",
        "latitude": 37.500823480875354,
        "longitude": 127.02847175544984,
        "address": "서울 강남구 역삼동 817-37",
        "road_address": "서울 강남구 강남대로98길 22",
        "phone": "070-8955-5955",
        "category": "음식점 > 양식",
        "distance": "333"
      },
      {
        "name": "왕스펍",
        "latitude": 37.5008246112399,
        "longitude": 127.02750369810458,
        "address": "서울 강남구 역삼동 619-28",
        "road_address": "서울 강남구 강남대로98길 11",
        "phone": "",
        "category": "음식점 > 술집 > 호프,요리주점",
        "distance": "324"
      },
      {
        "name": "나이스샤워 역삼점",
        "latitude": 37.497579578629036,
        "longitude": 127.03300979453778,
        "address": "서울 강남구 역삼동 828-21",
        "road_address": "서울 강남구 테헤란로10길 25",
        "phone": "02-558-6008",
        "category": "음식점 > 일식",
        "distance": "481"
      },
      {
        "name": "매드포갈릭 강남삼성타운점",
        "latitude": 37.496601724597085,
        "longitude": 127.02694011940008,
        "address": "서울 서초구 서초동 1320-10",
        "road_address": "서울 서초구 서초대로74길 11",
        "phone": "02-585-1175",
        "category": "음식점 > 패밀리레스토랑 > 매드포갈릭",
        "distance": "155"
      },
      {
        "name": "아실라",
        "latitude": 37.5007307897262,
        "longitude": 127.02800126286,
        "address": "서울 강남구 역삼동 817-35",
        "road_address": "서울 강남구 강남대로98길 16",
        "phone": "02-508-4665",
        "category": "음식점 > 술집",
        "distance": "316"
      },
      {
        "name": "이름없는 파스타 강남역점",
        "latitude": 37.5025509256314,
        "longitude": 127.027558616199,
        "address": "서울 강남구 역삼동 619",
        "road_address": "서울 강남구 봉은사로6길 38",
        "phone": "02-6326-8987",
        "category": "음식점 > 양식 > 이탈리안 > 이름없는 파스타",
        "distance": "516"
      },
      {
        "name": "스터번",
        "latitude": 37.4998868584351,
        "longitude": 127.03038713504733,
        "address": "서울 강남구 역삼동 649-4",
        "road_address": "서울 강남구 테헤란로7길 11",
        "phone": "070-8828-8100",
        "category": "음식점 > 양식 > 스테이크,립",
        "distance": "332"
      },
      {
        "name": "더몰트하우스 강남역점",
        "latitude": 37.4983086090296,
        "longitude": 127.025227463506,
        "address": "서울 서초구 서초동 1316-29",
        "road_address": "서울 서초구 서초대로73길 9",
        "phone": "02-534-5818",
        "category": "음식점 > 양식",
        "distance": "212"
      }
    ]
  }
}