{
  "key": "a617035d11d110d41478eba1169cd158d5b5f226ad9da3f738a6116eff2fbb09",
  "tool": "PlaceSearch_kakao",
  "created_at": "2025-12-15T14:50:46.548844",
  "input_params": {
    "keyword": "병원",
    "radius": 1000,
    "size": 10,
    "sort": "accuracy",
    "x": 127.003315469066,
    "y": 37.5950001606957
  },
  "raw_args": {
    "x": 127.003315469066,
    "y": 37.5950001606957,
    "keyword": "병원",
    "size": 10,
    "radius": 1000
  },
  "data": {
    "keyword": "병원",
    "total_count": 79,
    "places": [
      {
        "name": "성북참요양병원",
        "latitude": 37.5976129689528,
        "longitude": 127.00517267495218,
        "address": "서울 성북구 정릉동 508-171",
        "road_address": "서울 성북구 북악산로1길 71",
        "phone": "02-912-2114",
        "category": "의료,건강 > 병원 > 노인,요양병원",
        "distance": "333"
      },
      {
        "name": "속편한내과의원 돈암",
        "latitude": 37.590799294061355,
        "longitude": 127.01074296525755,
        "address": "서울 성북구 동소문동4가 75-2",
        "road_address": "서울 성북구 동소문로 47",
        "phone": "1661-1082",
        "category": "의료,건강 > 병원 > 내과",
        "distance": "804"
      },
      {
        "name": "성북탑정형외과신경외과의원",
        "latitude": 37.588724670780465,
        "longitude": 127.00546870594503,
        "address": "서울 성북구 성북동1가 35-33",
        "road_address": "서울 성북구 성북로 3",
        "phone": "02-764-7777",
        "category": "의료,건강 > 병원 > 정형외과",
        "distance": "721"
      },
      {
        "name": "서울제이내과",
        "latitude": 37.5916695093348,
        "longitude": 127.012215056764,
        "address": "서울 성북구 동소문동4가 260",
        "road_address": "서울 성북구 동소문로 63",
        "phone": "02-922-1050",
        "category": "의료,건강 > 병원 > 내과",
        "distance": "868"
      },
      {
        "name": "서울경희통합의원",
        "latitude": 37.59011637015326,
        "longitude": 127.0104280992803,
        "address": "서울 성북구 동소문동3가 29",
        "road_address": "서울 성북구 동소문로 40",
        "phone": "02-745-8275",
        "category": "의료,건강 > 병원 > 일반의원",
        "distance": "829"
      },
      {
        "name": "삼선서울내과의원",
        "latitude": 37.5897524308516,
        "longitude": 127.009705671204,
        "address": "서울 성북구 동소문동3가 11",
        "road_address": "서울 성북구 동소문로 32",
        "phone": "02-922-8275",
        "category": "의료,건강 > 병원 > 내과",
        "distance": "811"
      },
      {
        "name": "연세이비인후과",
        "latitude": 37.58883267258801,
        "longitude": 127.0075893972884,
        "address": "서울 성북구 동소문동2가 16",
        "road_address": "서울 성북구 동소문로 12",
        "phone": "02-766-7582",
        "category": "의료,건강 > 병원 > 이비인후과",
        "distance": "781"
      },
      {
        "name": "성북김준비뇨의학과의원",
        "latitude": 37.5887796381555,
        "longitude": 127.005319254539,
        "address": "서울 성북구 성북동1가 35-31",
        "road_address": "서울 성북구 성북로 5-1",
        "phone": "02-747-8277",
        "category": "의료,건강 > 병원 > 비뇨기과",
        "distance": "712"
      },
      {
        "name": "김앤김안과의원",
        "latitude": 37.58996511435224,
        "longitude": 127.00908635476632,
        "address": "서울 성북구 동소문동1가 113",
        "road_address": "서울 성북구 동소문로7길 3",
        "phone": "02-742-2385",
        "category": "의료,건강 > 병원 > 안과",
        "distance": "756"
      },
      {
        "name": "서울에이스치과의원",
        "latitude": 37.5930828924007,
        "longitude": 127.001023602166,
        "address": "서울 성북구 성북동 130-2",
        "road_address": "서울 성북구 성북로 71",
        "phone": "02-745-8692",
        "category": "의료,건강 > 병원 > 치과",
        "distance": "293"
      }
    ]
  }
}