{
  "key": "a6e05590d8e758328f9cac19d0e17235d3d5aa7e084294485650c77d6425785d",
  "tool": "PlaceSearch_kakao",
  "created_at": "2025-10-20T14:23:02.751572",
  "input_params": {
    "keyword": "대학교",
    "radius": 1000,
    "sort": "distance",
    "x": 126.9799,
    "y": 37.5918
  },
  "raw_args": {
    "keyword": "대학교",
    "x": 126.9799,
    "y": 37.5918,
    "radius": 1000,
    "sort": "distance"
  },
  "data": {
    "keyword": "대학교",
    "total_count": 16,
    "places": [
      {
        "name": "북한대학원대학교",
        "latitude": 37.5860864437443,
        "longitude": 126.983537851388,
        "address": "서울 종로구 삼청동 28-7",
        "road_address": "서울 종로구 북촌로15길 2",
        "phone": "02-3700-0800",
        "category": "교육,학문 > 학교 > 대학원",
        "distance": "711"
      },
      {
        "name": "경남대학교 극동문제연구소",
        "latitude": 37.5860468025807,
        "longitude": 126.983555975265,
        "address": "서울 종로구 삼청동 28-7",
        "road_address": "서울 종로구 북촌로15길 2",
        "phone": "02-3700-0700",
        "category": "교육,학문 > 연구소",
        "distance": "715"
      },
      {
        "name": "북한대학원대학교산학협력단",
        "latitude": 37.5860359906655,
        "longitude": 126.983555977643,
        "address": "서울 종로구 삼청동 28-7",
        "road_address": "서울 종로구 북촌로15길 2",
        "phone": "",
        "category": "교육,학문 > 연구소",
        "distance": "716"
      },
      {
        "name": "북한대학원대학교 도서관",
        "latitude": 37.5859531062391,
        "longitude": 126.983605812468,
        "address": "서울 종로구 삼청동 28-7",
        "road_address": "서울 종로구 북촌로15길 2",
        "phone": "02-3700-0726",
        "category": "교육,학문 > 학습시설 > 도서관",
        "distance": "726"
      },
      {
        "name": "고려사이버대학교 계동캠퍼스",
        "latitude": 37.58694462750545,
        "longitude": 126.98705883637523,
        "address": "서울 종로구 계동 1-21",
        "road_address": "서울 종로구 북촌로 106",
        "phone": "02-6361-2000",
        "category": "교육,학문 > 학교 > 사이버대학",
        "distance": "831"
      },
      {
        "name": "고려사이버대학교 계동캠퍼스 교수학습혁신센터",
        "latitude": 37.5869446275055,
        "longitude": 126.987058836375,
        "address": "서울 종로구 계동 1-21",
        "road_address": "서울 종로구 북촌로 106",
        "phone": "02-6361-1954",
        "category": "교육,학문 > 학교부속시설",
        "distance": "831"
      },
      {
        "name": "고려사이버대학교 입학지원센터",
        "latitude": 37.58694462749959,
        "longitude": 126.98705883637531,
        "address": "서울 종로구 계동 1-21",
        "road_address": "서울 종로구 북촌로 106",
        "phone": "02-6361-2000",
        "category": "교육,학문 > 학교 > 사이버대학",
        "distance": "831"
      },
      {
        "name": "고려사이버대학교 심리상담센터",
        "latitude": 37.58694462750545,
        "longitude": 126.98705883637523,
        "address": "서울 종로구 계동 1-21",
        "road_address": "서울 종로구 북촌로 106",
        "phone": "02-6361-1806",
        "category": "교육,학문 > 학교부속시설",
        "distance": "831"
      },
      {
        "name": "고려사이버대학교 한국RCI",
        "latitude": 37.5869446275055,
        "longitude": 126.987058836375,
        "address": "서울 종로구 계동 1-21",
        "road_address": "서울 종로구 북촌로 106",
        "phone": "02-6361-1831",
        "category": "교육,학문 > 학교부속시설",
        "distance": "831"
      },
      {
        "name": "고려사이버대학교 융합정보대학원",
        "latitude": 37.586888761594366,
        "longitude": 126.98701921871672,
        "address": "서울 종로구 계동 1-21",
        "road_address": "서울 종로구 북촌로 106",
        "phone": "02-6361-2002",
        "category": "교육,학문 > 학교 > 대학원",
        "distance": "832"
      },
      {
        "name": "고려사이버대학교 미래교육원",
        "latitude": 37.585845283920634,
        "longitude": 126.98590418918751,
        "address": "서울 종로구 계동 1-36",
        "road_address": "서울 종로구 북촌로 104",
        "phone": "02-6361-1860",
        "category": "교육,학문 > 교육단체 > 평생교육원,사회교육원",
        "distance": "847"
      },
      {
        "name": "고려사이버대학교 산학협력단",
        "latitude": 37.585845283920634,
        "longitude": 126.98590418918751,
        "address": "서울 종로구 계동 1-36",
        "road_address": "서울 종로구 북촌로 104",
        "phone": "02-6361-2072",
        "category": "교육,학문 > 학교부속시설",
        "distance": "847"
      },
      {
        "name": "성균관대학교 인문사회과학캠퍼스 옥류정",
        "latitude": 37.5886504726914,
        "longitude": 126.989769114324,
        "address": "서울 종로구 명륜3가 53-54",
        "road_address": "",
        "phone": "",
        "category": "교육,학문 > 학교부속시설",
        "distance": "939"
      },
      {
        "name": "성균관대학교 후문",
        "latitude": 37.5892983133587,
        "longitude": 126.990086054512,
        "address": "서울 종로구 명륜3가 산 2-14",
        "road_address": "",
        "phone": "",
        "category": "교통,수송 > 입출구",
        "distance": "941"
      },
      {
        "name": "고려사이버대학교 인촌관",
        "latitude": 37.5859896464009,
        "longitude": 126.987726997238,
        "address": "서울 종로구 원서동 1-2",
        "road_address": "서울 종로구 창덕궁길 164",
        "phone": "02-6361-2011",
        "category": "교육,학문 > 학교부속시설",
        "distance": "945"
      }
    ]
  }
}