{
  "key": "ed0bfbc72d10c998900cf880a811964d77d421765bef202a7c2ca173c81d521f",
  "tool": "PlaceSearch_kakao",
  "created_at": "2025-10-26T08:26:35.278292",
  "input_params": {
    "keyword": "맛집",
    "radius": 1000,
    "sort": "accuracy",
    "x": 126.9247,
    "y": 37.4865
  },
  "raw_args": {
    "keyword": "맛집",
    "radius": 1000,
    "x": 126.9247,
    "y": 37.4865
  },
  "data": {
    "keyword": "맛집",
    "total_count": 1642,
    "places": [
      {
        "name": "아리차이 신림점",
        "latitude": 37.4876152971167,
        "longitude": 126.928272317548,
        "address": "서울 관악구 신림동 1430-11",
        "road_address": "서울 관악구 신림동길 4",
        "phone": "02-877-1272",
        "category": "음식점 > 중식 > 중국요리",
        "distance": "339"
      },
      {
        "name": "디자이너리카페",
        "latitude": 37.485044830857,
        "longitude": 126.92412069161948,
        "address": "서울 관악구 신림동 1465-12",
        "road_address": "서울 관악구 관천로 71-1",
        "phone": "02-868-7112",
        "category": "음식점 > 카페",
        "distance": "169"
      },
      {
        "name": "미나리생삼겹",
        "latitude": 37.4844031402536,
        "longitude": 126.926701508609,
        "address": "서울 관악구 신림동 1433-139",
        "road_address": "서울 관악구 남부순환로 1585-3",
        "phone": "02-884-9292",
        "category": "음식점 > 한식 > 육류,고기 > 삼겹살",
        "distance": "292"
      },
      {
        "name": "원조민속순대타운",
        "latitude": 37.48325742954093,
        "longitude": 126.92878301206055,
        "address": "서울 관악구 신림동 1640-31",
        "road_address": "서울 관악구 신림로59길 14",
        "phone": "",
        "category": "음식점 > 한식 > 순대",
        "distance": "509"
      },
      {
        "name": "폼앤노말",
        "latitude": 37.4857878034325,
        "longitude": 126.927862496624,
        "address": "서울 관악구 신림동 1432-119",
        "road_address": "서울 관악구 신림로67길 25",
        "phone": "",
        "category": "음식점 > 카페",
        "distance": "290"
      },
      {
        "name": "손칼국수잘하는집",
        "latitude": 37.4864751000058,
        "longitude": 126.92612509275,
        "address": "서울 관악구 신림동 1460-1",
        "road_address": "서울 관악구 신림동5가길 23",
        "phone": "",
        "category": "음식점 > 한식 > 국수 > 칼국수",
        "distance": "126"
      },
      {
        "name": "막불감동",
        "latitude": 37.484290555848666,
        "longitude": 126.9282370537204,
        "address": "서울 관악구 신림동 1433-60",
        "road_address": "서울 관악구 남부순환로 1599",
        "phone": "02-883-2110",
        "category": "음식점 > 한식 > 국수",
        "distance": "397"
      },
      {
        "name": "서울초밥 신림점",
        "latitude": 37.4863401281147,
        "longitude": 126.926412420923,
        "address": "서울 관악구 신림동 1437-21",
        "road_address": "서울 관악구 신림동7길 15",
        "phone": "02-878-6635",
        "category": "음식점 > 일식 > 초밥,롤",
        "distance": "152"
      },
      {
        "name": "깡통닭갈비",
        "latitude": 37.4847678019693,
        "longitude": 126.92776397871,
        "address": "서울 관악구 신림동 1433-69",
        "road_address": "서울 관악구 남부순환로 1597-14",
        "phone": "02-873-7770",
        "category": "음식점 > 한식 > 육류,고기 > 닭요리",
        "distance": "332"
      },
      {
        "name": "서울집 신림직영점",
        "latitude": 37.487582745375,
        "longitude": 126.928082389598,
        "address": "서울 관악구 신림동 1430-12",
        "road_address": "서울 관악구 신림동길 6",
        "phone": "02-872-7610",
        "category": "음식점 > 한식 > 육류,고기 > 삼겹살",
        "distance": "322"
      },
      {
        "name": "쩐호우양꼬치&샤브샤브",
        "latitude": 37.4846991813601,
        "longitude": 126.927528866394,
        "address": "서울 관악구 신림동 1433-74",
        "road_address": "서울 관악구 남부순환로 1597-15",
        "phone": "",
        "category": "음식점 > 중식 > 양꼬치",
        "distance": "320"
      },
      {
        "name": "서울밥집",
        "latitude": 37.4831927211807,
        "longitude": 126.927571024602,
        "address": "서울 관악구 신림동 1639-57",
        "road_address": "서울 관악구 관천로 36-1",
        "phone": "",
        "category": "음식점 > 한식",
        "distance": "446"
      },
      {
        "name": "신촌황소곱창 신림직영점",
        "latitude": 37.4844075589482,
        "longitude": 126.928026638879,
        "address": "서울 관악구 신림동 1433-63",
        "road_address": "서울 관악구 남부순환로 1597-4",
        "phone": "02-876-9111",
        "category": "음식점 > 한식 > 육류,고기 > 곱창,막창",
        "distance": "374"
      },
      {
        "name": "함지박치즈등갈비 신림2호점",
        "latitude": 37.4849549592297,
        "longitude": 126.92735223494,
        "address": "서울 관악구 신림동 1434-7",
        "road_address": "서울 관악구 신림로65길 38",
        "phone": "02-877-0583",
        "category": "음식점 > 한식 > 육류,고기 > 갈비",
        "distance": "290"
      },
      {
        "name": "포차1979 신림본점",
        "latitude": 37.4841822931333,
        "longitude": 126.925105235964,
        "address": "서울 관악구 신림동 1464-13",
        "road_address": "서울 관악구 관천로 59",
        "phone": "02-391-9292",
        "category": "음식점 > 술집 > 실내포장마차",
        "distance": "259"
      }
    ]
  }
}