{
  "key": "ed3621f4e26826e6ac15bb02f2c4f3efaff9c90ab9b6920cc27ba30056316415",
  "tool": "PlaceSearch_kakao",
  "created_at": "2025-10-26T15:07:00.213996",
  "input_params": {
    "keyword": "대학교",
    "radius": 1000,
    "sort": "accuracy",
    "x": 126.9755,
    "y": 37.5773
  },
  "raw_args": {
    "keyword": "대학교",
    "x": 126.9755,
    "y": 37.5773,
    "radius": 1000
  },
  "data": {
    "keyword": "대학교",
    "total_count": 35,
    "places": [
      {
        "name": "배화여자대학교",
        "latitude": 37.579119784607926,
        "longitude": 126.96588554632058,
        "address": "서울 종로구 필운동 12",
        "road_address": "서울 종로구 필운대로1길 34",
        "phone": "02-399-0700",
        "category": "교육,학문 > 학교 > 전문대학",
        "distance": "872"
      },
      {
        "name": "배화여자대학교 주차장",
        "latitude": 37.5789217133671,
        "longitude": 126.966399604981,
        "address": "서울 종로구 누하동 149",
        "road_address": "서울 종로구 필운대로1길 34",
        "phone": "",
        "category": "교통,수송 > 교통시설 > 주차장",
        "distance": "823"
      },
      {
        "name": "국민대학교 동문회관",
        "latitude": 37.5793466880338,
        "longitude": 126.97219574138,
        "address": "서울 종로구 통의동 91-26",
        "road_address": "서울 종로구 자하문로10길 14",
        "phone": "",
        "category": "부동산 > 빌딩",
        "distance": "370"
      },
      {
        "name": "배화여자대학교 기념관",
        "latitude": 37.5791560321644,
        "longitude": 126.966612333036,
        "address": "서울 종로구 누하동 149",
        "road_address": "서울 종로구 필운대로1길 34",
        "phone": "",
        "category": "교육,학문 > 학교부속시설",
        "distance": "811"
      },
      {
        "name": "조계사불교대학",
        "latitude": 37.5729965355341,
        "longitude": 126.981715950611,
        "address": "서울 종로구 수송동 46-22",
        "road_address": "서울 종로구 우정국로 45-19",
        "phone": "02-768-8580",
        "category": "교육,학문 > 학교 > 종교학교",
        "distance": "727"
      },
      {
        "name": "동방불교대학",
        "latitude": 37.5773030759307,
        "longitude": 126.980383590053,
        "address": "서울 종로구 사간동 112",
        "road_address": "서울 종로구 율곡로1길 31",
        "phone": "02-745-2030",
        "category": "교육,학문 > 학교 > 종교학교",
        "distance": "431"
      },
      {
        "name": "동산불교대학",
        "latitude": 37.572920928052,
        "longitude": 126.982214048189,
        "address": "서울 종로구 수송동 46-20",
        "road_address": "서울 종로구 우정국로 45-11",
        "phone": "02-732-1206",
        "category": "교육,학문 > 학교 > 종교학교",
        "distance": "766"
      },
      {
        "name": "배화여자대학교 부속 배화유치원",
        "latitude": 37.57902581652171,
        "longitude": 126.96816335492834,
        "address": "서울 종로구 필운동 12",
        "road_address": "서울 종로구 필운대로1길 34",
        "phone": "02-737-1433",
        "category": "교육,학문 > 유아교육 > 유치원",
        "distance": "675"
      },
      {
        "name": "배화여자대학교 대강당",
        "latitude": 37.57858215172189,
        "longitude": 126.96679938308277,
        "address": "서울 종로구 필운동 12",
        "road_address": "서울 종로구 필운대로1길 34",
        "phone": "",
        "category": "교육,학문 > 학교부속시설",
        "distance": "781"
      },
      {
        "name": "배화여자대학교 정심관",
        "latitude": 37.5791738684199,
        "longitude": 126.965969296494,
        "address": "서울 종로구 필운동 12",
        "road_address": "서울 종로구 필운대로1길 34",
        "phone": "",
        "category": "교육,학문 > 학교부속시설",
        "distance": "867"
      },
      {
        "name": "배화여자대학교 운동장",
        "latitude": 37.5784536185584,
        "longitude": 126.967916804755,
        "address": "서울 종로구 누하동 149",
        "road_address": "서울 종로구 필운대로1길 34",
        "phone": "",
        "category": "스포츠,레저 > 스포츠시설 > 운동장",
        "distance": "682"
      },
      {
        "name": "동국대학교석림회",
        "latitude": 37.5750581409892,
        "longitude": 126.982571261468,
        "address": "서울 종로구 견지동 13",
        "road_address": "서울 종로구 우정국로 67",
        "phone": "02-733-8985",
        "category": "가정,생활 > 친목 > 동창회,동문회",
        "distance": "672"
      },
      {
        "name": "배화여자대학교 도서관",
        "latitude": 37.578824528961654,
        "longitude": 126.96683437016719,
        "address": "서울 종로구 누하동 149",
        "road_address": "서울 종로구 필운대로1길 34",
        "phone": "02-399-0744",
        "category": "교육,학문 > 학습시설 > 도서관",
        "distance": "784"
      },
      {
        "name": "배화여자대학교 평생교육원",
        "latitude": 37.5783994387227,
        "longitude": 126.967477580635,
        "address": "서울 종로구 필운동 12",
        "road_address": "서울 종로구 필운대로1길 34",
        "phone": "02-397-0552",
        "category": "교육,학문 > 교육단체 > 평생교육원,사회교육원",
        "distance": "719"
      },
      {
        "name": "국립세무대학 총동문회",
        "latitude": 37.574436582449,
        "longitude": 126.973560520152,
        "address": "서울 종로구 적선동 156",
        "road_address": "서울 종로구 새문안로5가길 28",
        "phone": "02-734-8732",
        "category": "가정,생활 > 친목 > 동창회,동문회",
        "distance": "360"
      }
    ]
  }
}