{
  "key": "167ebe7bb7acc77f054f2b890bf9351c3300a60d9b0539cc4c9dc86d7cb792c6",
  "tool": "PlaceSearch_kakao",
  "created_at": "2025-10-27T15:50:19.424522",
  "input_params": {
    "keyword": "시흥시청 주차장",
    "page": 1,
    "size": 10,
    "sort": "accuracy"
  },
  "raw_args": {
    "keyword": "시흥시청 주차장",
    "page": 1,
    "size": 10,
    "sort": "accuracy"
  },
  "data": {
    "keyword": "시흥시청 주차장",
    "total_count": 73,
    "places": [
      {
        "name": "시흥시청",
        "latitude": 37.3801150716048,
        "longitude": 126.802977796435,
        "address": "경기 시흥시 장현동 300",
        "road_address": "경기 시흥시 시청로 20",
        "phone": "031-310-2114",
        "category": "사회,공공기관 > 지방행정기관 > 시청",
        "distance": ""
      },
      {
        "name": "시흥시청 주차장",
        "latitude": 37.3796286115418,
        "longitude": 126.803033265084,
        "address": "경기 시흥시 장현동 300",
        "road_address": "경기 시흥시 시청로 20",
        "phone": "",
        "category": "교통,수송 > 교통시설 > 주차장",
        "distance": ""
      },
      {
        "name": "시흥시청 주차장1",
        "latitude": 37.379868146204,
        "longitude": 126.804035268843,
        "address": "경기 시흥시 장현동 300",
        "road_address": "경기 시흥시 시청로 20",
        "phone": "",
        "category": "교통,수송 > 교통시설 > 주차장",
        "distance": ""
      },
      {
        "name": "시흥시청 주차장2",
        "latitude": 37.3794756720615,
        "longitude": 126.802094268692,
        "address": "경기 시흥시 장현동 300",
        "road_address": "경기 시흥시 시청로 20",
        "phone": "",
        "category": "교통,수송 > 교통시설 > 주차장",
        "distance": ""
      },
      {
        "name": "시청후문공영주차장",
        "latitude": 37.38053049286822,
        "longitude": 126.80139145608838,
        "address": "경기 시흥시 장현동 543-5",
        "road_address": "",
        "phone": "",
        "category": "교통,수송 > 교통시설 > 주차장 > 공영주차장",
        "distance": ""
      },
      {
        "name": "시흥시청 주차장3",
        "latitude": 37.3797269507206,
        "longitude": 126.80149293468,
        "address": "경기 시흥시 장현동 254-8",
        "road_address": "경기 시흥시 시청로 20",
        "phone": "",
        "category": "교통,수송 > 교통시설 > 주차장",
        "distance": ""
      },
      {
        "name": "산림조합공영주차장",
        "latitude": 37.3815618949888,
        "longitude": 126.801768118156,
        "address": "경기 시흥시 장현동 546-3",
        "road_address": "",
        "phone": "",
        "category": "교통,수송 > 교통시설 > 주차장 > 공영주차장",
        "distance": ""
      },
      {
        "name": "새재공영주차장",
        "latitude": 37.3813981027994,
        "longitude": 126.800811063192,
        "address": "경기 시흥시 장현동 534-2",
        "road_address": "",
        "phone": "",
        "category": "교통,수송 > 교통시설 > 주차장 > 공영주차장",
        "distance": ""
      },
      {
        "name": "중앙정 주차장",
        "latitude": 37.3768263727359,
        "longitude": 126.801920583091,
        "address": "경기 시흥시 장현동 685",
        "road_address": "",
        "phone": "",
        "category": "교통,수송 > 교통시설 > 주차장",
        "distance": ""
      },
      {
        "name": "네이처뷰장현아파트 주차장",
        "latitude": 37.3830201504477,
        "longitude": 126.798275251516,
        "address": "경기 시흥시 장현동 170-2",
        "road_address": "경기 시흥시 시청로 100",
        "phone": "",
        "category": "교통,수송 > 교통시설 > 주차장",
        "distance": ""
      }
    ]
  }
}