{
  "key": "bf02156db9fdbc9d470f5113b0b709a3d64f958b16963f39e7b93f65531375df",
  "tool": "POISearch_tmap",
  "created_at": "2025-10-15T02:04:27.129019",
  "input_params": {
    "count": 10,
    "page": 1,
    "searchKeyword": "이마트 서울"
  },
  "raw_args": {
    "searchKeyword": "이마트 서울",
    "count": 10
  },
  "data": {
    "searchPoiInfo": {
      "totalCount": "2418",
      "count": "10",
      "page": "1",
      "pois": {
        "poi": [
          {
            "id": "10001510",
            "pkey": "1000151001",
            "navSeq": "1",
            "collectionType": "poi",
            "name": "이마트24 서울조선호텔점",
            "telNo": "070-8860-2424",
            "frontLat": "37.56442668",
            "frontLon": "126.97957654",
            "noorLat": "37.56442669",
            "noorLon": "126.98007649",
            "pnsLat": "37.56451001",
            "pnsLon": "126.97971541",
            "upperAddrName": "서울",
            "middleAddrName": "중구",
            "lowerAddrName": "소공동",
            "detailAddrName": "",
            "mlClass": "1",
            "firstNo": "87",
            "secondNo": "1",
            "roadName": "소공로",
            "firstBuildNo": "106",
            "secondBuildNo": "0",
            "radius": "0.0",
            "bizName": "",
            "upperBizName": "쇼핑",
            "middleBizName": "대형유통점",
            "lowerBizName": "편의점",
            "detailBizName": "이마트24",
            "rpFlag": "16",
            "parkFlag": "0",
            "detailInfoFlag": "0",
            "desc": "",
            "dataKind": "",
            "zipCode": "04533",
            "adminDongCode": "1114052000",
            "legalDongCode": "1114011100",
            "newAddressList": {
              "newAddress": [
                {
                  "centerLat": "37.56442669",
                  "centerLon": "126.98007649",
                  "frontLat": "37.56442668",
                  "frontLon": "126.97957654",
                  "roadName": "소공로",
                  "bldNo1": "106",
                  "bldNo2": "0",
                  "roadId": "00224",
                  "fullAddressRoad": "서울 중구 소공로 106"
                }
              ]
            },
            "evChargers": {
              "evCharger": []
            }
          },
          {
            "id": "11065683",
            "pkey": "1106568301",
            "navSeq": "1",
            "collectionType": "poi",
            "name": "이마트24 SMART서울대연건생활관점",
            "telNo": "02-6916-1500",
            "frontLat": "37.57825877",
            "frontLon": "126.99976875",
            "noorLat": "37.57814768",
            "noorLon": "127.00029648",
            "pnsLat": "37.57814768",
            "pnsLon": "127.00029648",
            "upperAddrName": "서울",
            "middleAddrName": "종로구",
            "lowerAddrName": "연건동",
            "detailAddrName": "",
            "mlClass": "1",
            "firstNo": "28",
            "secondNo": "21",
            "roadName": "대학로",
            "firstBuildNo": "101",
            "secondBuildNo": "0",
            "radius": "0.0",
            "bizName": "",
            "upperBizName": "쇼핑",
            "middleBizName": "대형유통점",
            "lowerBizName": "편의점",
            "detailBizName": "이마트24",
            "rpFlag": "16",
            "parkFlag": "0",
            "detailInfoFlag": "0",
            "desc": "",
            "dataKind": "",
            "zipCode": "03080",
            "adminDongCode": "1111064000",
            "legalDongCode": "1111016600",
            "newAddressList": {
              "newAddress": [
                {
                  "centerLat": "37.57814768",
                  "centerLon": "127.00029648",
                  "frontLat": "37.57825877",
                  "frontLon": "126.99976875",
                  "roadName": "대학로",
                  "bldNo1": "101",
                  "bldNo2": "0",
                  "roadId": "00034",
                  "fullAddressRoad": "서울 종로구 대학로 101"
                }
              ]
            },
            "evChargers": {
              "evCharger": []
            }
          },
          {
            "id": "5397462",
            "pkey": "539746201",
            "navSeq": "1",
            "collectionType": "poi",
            "name": "정관장 서울이마트마포공덕점",
            "telNo": "02-715-2304",
            "frontLat": "37.54281760",
            "frontLon": "126.95299624",
            "noorLat": "37.54245654",
            "noorLon": "126.95335733",
            "pnsLat": "37.54256764",
            "pnsLon": "126.95341287",
            "upperAddrName": "서울",
            "middleAddrName": "마포구",
            "lowerAddrName": "신공덕동",
            "detailAddrName": "",
            "mlClass": "1",
            "firstNo": "69",
            "secondNo": "2",
            "roadName": "백범로",
            "firstBuildNo": "212",
            "secondBuildNo": "0",
            "radius": "0.0",
            "bizName": "",
            "upperBizName": "쇼핑",
            "middleBizName": "음식료",
            "lowerBizName": "건강식품",
            "detailBizName": "정관장",
            "rpFlag": "16",
            "parkFlag": "0",
            "detailInfoFlag": "0",
            "desc": "",
            "dataKind": "",
            "zipCode": "04196",
            "adminDongCode": "1144056500",
            "legalDongCode": "1144010300",
            "newAddressList": {
              "newAddress": [
                {
                  "centerLat": "37.54245654",
                  "centerLon": "126.95335733",
                  "frontLat": "37.54281760",
                  "frontLon": "126.95299624",
                  "roadName": "백범로",
                  "bldNo1": "212",
                  "bldNo2": "0",
                  "roadId": "00232",
                  "fullAddressRoad": "서울 마포구 백범로 212"
                }
              ]
            },
            "evChargers": {
              "evCharger": []
            }
          },
          {
            "id": "7672215",
            "pkey": "767221501",
            "navSeq": "1",
            "collectionType": "poi",
            "name": "정관장 굿베이스 서울 이마트마포공덕점",
            "telNo": "02-715-2304",
            "frontLat": "37.54245654",
            "frontLon": "126.95335733",
            "noorLat": "37.54245654",
            "noorLon": "126.95335733",
            "pnsLat": "37.54245654",
            "pnsLon": "126.95335733",
            "upperAddrName": "서울",
            "middleAddrName": "마포구",
            "lowerAddrName": "신공덕동",
            "detailAddrName": "",
            "mlClass": "1",
            "firstNo": "69",
            "secondNo": "2",
            "roadName": "",
            "firstBuildNo": "",
            "secondBuildNo": "",
            "radius": "0.0",
            "bizName": "",
            "upperBizName": "쇼핑",
            "middleBizName": "음식료",
            "lowerBizName": "건강식품",
            "detailBizName": "정관장",
            "rpFlag": "16",
            "parkFlag": "0",
            "detailInfoFlag": "0",
            "desc": "",
            "dataKind": "",
            "zipCode": "",
            "adminDongCode": "1144056500",
            "legalDongCode": "1144010300",
            "newAddressList": {
              "newAddress": [
                {
                  "centerLat": "37.54245654",
                  "centerLon": "126.95335733",
                  "frontLat": "37.54245654",
                  "frontLon": "126.95335733",
                  "roadName": "",
                  "bldNo1": "",
                  "bldNo2": "",
                  "roadId": "",
                  "fullAddressRoad": "서울 마포구"
                }
              ]
            },
            "evChargers": {
              "evCharger": []
            }
          },
          {
            "id": "5397470",
            "pkey": "539747000",
            "navSeq": "0",
            "collectionType": "poi",
            "name": "정관장 서울이마트청계천점",
            "telNo": "02-2234-2304",
            "frontLat": "37.57109336",
            "frontLon": "127.02332236",
            "noorLat": "37.57120443",
            "noorLon": "127.02207247",
            "pnsLat": "37.57109336",
            "pnsLon": "127.02332236",
            "upperAddrName": "서울",
            "middleAddrName": "중구",
            "lowerAddrName": "황학동",
            "detailAddrName": "",
            "mlClass": "1",
            "firstNo": "2545",
            "secondNo": "0",
            "roadName": "청계천로",
            "firstBuildNo": "400",
            "secondBuildNo": "",
            "radius": "0.0",
            "bizName": "",
            "upperBizName": "쇼핑",
            "middleBizName": "음식료",
            "lowerBizName": "건강식품",
            "detailBizName": "정관장",
            "rpFlag": "16",
            "parkFlag": "0",
            "detailInfoFlag": "0",
            "desc": "",
            "dataKind": "",
            "zipCode": "04572",
            "adminDongCode": "1114067000",
            "legalDongCode": "1114016500",
            "newAddressList": {
              "newAddress": [
                {
                  "centerLat": "37.57120443",
                  "centerLon": "127.02207247",
                  "frontLat": "37.57109336",
                  "frontLon": "127.02332236",
                  "roadName": "청계천로",
                  "bldNo1": "400",
                  "bldNo2": "",
                  "roadId": "00315",
                  "fullAddressRoad": "서울 중구 청계천로 400"
                }
              ]
            },
            "evChargers": {
              "evCharger": []
            }
          },
          {
            "id": "5397470",
            "pkey": "539747001",
            "navSeq": "1",
            "collectionType": "poi",
            "name": "정관장 서울이마트청계천점 정문",
            "telNo": "02-2234-2304",
            "frontLat": "37.57109336",
            "frontLon": "127.02332236",
            "noorLat": "37.57109336",
            "noorLon": "127.02332236",
            "pnsLat": "37.57109336",
            "pnsLon": "127.02332236",
            "upperAddrName": "서울",
            "middleAddrName": "중구",
            "lowerAddrName": "황학동",
            "detailAddrName": "",
            "mlClass": "1",
            "firstNo": "2545",
            "secondNo": "0",
            "roadName": "청계천로",
            "firstBuildNo": "400",
            "secondBuildNo": "",
            "radius": "0.0",
            "bizName": "",
            "upperBizName": "쇼핑",
            "middleBizName": "음식료",
            "lowerBizName": "건강식품",
            "detailBizName": "정관장",
            "rpFlag": "16",
            "parkFlag": "0",
            "detailInfoFlag": "0",
            "desc": "",
            "dataKind": "",
            "zipCode": "04572",
            "adminDongCode": "1114067000",
            "legalDongCode": "1114016500",
            "newAddressList": {
              "newAddress": [
                {
                  "centerLat": "37.57109336",
                  "centerLon": "127.02332236",
                  "frontLat": "37.57109336",
                  "frontLon": "127.02332236",
                  "roadName": "청계천로",
                  "bldNo1": "400",
                  "bldNo2": "",
                  "roadId": "00315",
                  "fullAddressRoad": "서울 중구 청계천로 400"
                }
              ]
            },
            "evChargers": {
              "evCharger": []
            }
          },
          {
            "id": "5397470",
            "pkey": "539747002",
            "navSeq": "2",
            "collectionType": "poi",
            "name": "정관장 서울이마트청계천점 101동방면",
            "telNo": "02-2234-2304",
            "frontLat": "37.57045448",
            "frontLon": "127.01990603",
            "noorLat": "37.57045448",
            "noorLon": "127.01990603",
            "pnsLat": "37.57045448",
            "pnsLon": "127.01990603",
            "upperAddrName": "서울",
            "middleAddrName": "중구",
            "lowerAddrName": "황학동",
            "detailAddrName": "",
            "mlClass": "1",
            "firstNo": "2545",
            "secondNo": "0",
            "roadName": "청계천로",
            "firstBuildNo": "400",
            "secondBuildNo": "",
            "radius": "0.0",
            "bizName": "",
            "upperBizName": "쇼핑",
            "middleBizName": "음식료",
            "lowerBizName": "건강식품",
            "detailBizName": "정관장",
            "rpFlag": "16",
            "parkFlag": "0",
            "detailInfoFlag": "0",
            "desc": "",
            "dataKind": "",
            "zipCode": "04572",
            "adminDongCode": "1114067000",
            "legalDongCode": "1114016500",
            "newAddressList": {
              "newAddress": [
                {
                  "centerLat": "37.57045448",
                  "centerLon": "127.01990603",
                  "frontLat": "37.57045448",
                  "frontLon": "127.01990603",
                  "roadName": "청계천로",
                  "bldNo1": "400",
                  "bldNo2": "",
                  "roadId": "00315",
                  "fullAddressRoad": "서울 중구 청계천로 400"
                }
              ]
            },
            "evChargers": {
              "evCharger": []
            }
          },
          {
            "id": "5397470",
            "pkey": "539747003",
            "navSeq": "3",
            "collectionType": "poi",
            "name": "정관장 서울이마트청계천점 105동방면",
            "telNo": "02-2234-2304",
            "frontLat": "37.57067674",
            "frontLon": "127.02332238",
            "noorLat": "37.57067674",
            "noorLon": "127.02332238",
            "pnsLat": "37.57067674",
            "pnsLon": "127.02332238",
            "upperAddrName": "서울",
            "middleAddrName": "중구",
            "lowerAddrName": "황학동",
            "detailAddrName": "",
            "mlClass": "1",
            "firstNo": "2545",
            "secondNo": "0",
            "roadName": "청계천로",
            "firstBuildNo": "400",
            "secondBuildNo": "",
            "radius": "0.0",
            "bizName": "",
            "upperBizName": "쇼핑",
            "middleBizName": "음식료",
            "lowerBizName": "건강식품",
            "detailBizName": "정관장",
            "rpFlag": "16",
            "parkFlag": "0",
            "detailInfoFlag": "0",
            "desc": "",
            "dataKind": "",
            "zipCode": "04572",
            "adminDongCode": "1114067000",
            "legalDongCode": "1114016500",
            "newAddressList": {
              "newAddress": [
                {
                  "centerLat": "37.57067674",
                  "centerLon": "127.02332238",
                  "frontLat": "37.57067674",
                  "frontLon": "127.02332238",
                  "roadName": "청계천로",
                  "bldNo1": "400",
                  "bldNo2": "",
                  "roadId": "00315",
                  "fullAddressRoad": "서울 중구 청계천로 400"
                }
              ]
            },
            "evChargers": {
              "evCharger": []
            }
          },
          {
            "id": "7672213",
            "pkey": "767221301",
            "navSeq": "1",
            "collectionType": "poi",
            "name": "정관장 굿베이스 서울 이마트청계천점",
            "telNo": "02-2234-2304",
            "frontLat": "37.57095445",
            "frontLon": "127.02140588",
            "noorLat": "37.57095445",
            "noorLon": "127.02140588",
            "pnsLat": "37.57150995",
            "pnsLon": "127.02176694",
            "upperAddrName": "서울",
            "middleAddrName": "중구",
            "lowerAddrName": "황학동",
            "detailAddrName": "",
            "mlClass": "1",
            "firstNo": "2545",
            "secondNo": "0",
            "roadName": "청계천로",
            "firstBuildNo": "400",
            "secondBuildNo": "0",
            "radius": "0.0",
            "bizName": "",
            "upperBizName": "쇼핑",
            "middleBizName": "음식료",
            "lowerBizName": "건강식품",
            "detailBizName": "정관장",
            "rpFlag": "16",
            "parkFlag": "0",
            "detailInfoFlag": "0",
            "desc": "",
            "dataKind": "",
            "zipCode": "04572",
            "adminDongCode": "1114067000",
            "legalDongCode": "1114016500",
            "newAddressList": {
              "newAddress": [
                {
                  "centerLat": "37.57095445",
                  "centerLon": "127.02140588",
                  "frontLat": "37.57095445",
                  "frontLon": "127.02140588",
                  "roadName": "청계천로",
                  "bldNo1": "400",
                  "bldNo2": "0",
                  "roadId": "00315",
                  "fullAddressRoad": "서울 중구 청계천로 400"
                }
              ]
            },
            "evChargers": {
              "evCharger": []
            }
          },
          {
            "id": "5397466",
            "pkey": "539746600",
            "navSeq": "0",
            "collectionType": "poi",
            "name": "정관장 서울이마트용산점",
            "telNo": "070-4422-8017",
            "frontLat": "37.52881943",
            "frontLon": "126.96430116",
            "noorLat": "37.52954157",
            "noorLon": "126.96413449",
            "pnsLat": "37.52887501",
            "pnsLon": "126.96555104",
            "upperAddrName": "서울",
            "middleAddrName": "용산구",
            "lowerAddrName": "한강로3가",
            "detailAddrName": "",
            "mlClass": "1",
            "firstNo": "40",
            "secondNo": "999",
            "roadName": "한강대로23길",
            "firstBuildNo": "55",
            "secondBuildNo": "",
            "radius": "0.0",
            "bizName": "",
            "upperBizName": "쇼핑",
            "middleBizName": "음식료",
            "lowerBizName": "건강식품",
            "detailBizName": "정관장",
            "rpFlag": "16",
            "parkFlag": "1",
            "detailInfoFlag": "0",
            "desc": "",
            "dataKind": "",
            "zipCode": "04377",
            "adminDongCode": "1117062500",
            "legalDongCode": "1117012800",
            "newAddressList": {
              "newAddress": [
                {
                  "centerLat": "37.52954157",
                  "centerLon": "126.96413449",
                  "frontLat": "37.52881943",
                  "frontLon": "126.96430116",
                  "roadName": "한강대로23길",
                  "bldNo1": "55",
                  "bldNo2": "",
                  "roadId": "00427",
                  "fullAddressRoad": "서울 용산구 한강대로23길 55"
                }
              ]
            },
            "evChargers": {
              "evCharger": []
            }
          }
        ]
      }
    }
  }
}