{
  "key": "203cea1a66789fa666ec1b5e2c3bedae3139cf03a8387d5201092f4ab5d1cadc",
  "tool": "CategorySearch_kakao",
  "created_at": "2025-10-15T14:02:18.358499",
  "input_params": {
    "category": "CE7",
    "radius": 1000,
    "size": 10,
    "x": 127.0276368,
    "y": 37.497942
  },
  "raw_args": {
    "category": "CE7",
    "x": 127.0276368,
    "y": 37.497942,
    "radius": 1000,
    "size": 10
  },
  "data": {
    "category": "CE7",
    "total_count": 604,
    "places": [
      {
        "name": "벌툰 엔틱 강남역점",
        "latitude": 37.5007307950853,
        "longitude": 127.027978644718,
        "address": "서울 강남구 역삼동 817-35",
        "phone": "02-569-4976",
        "distance": "311"
      },
      {
        "name": "놀숲 강남역점",
        "latitude": 37.50098307994714,
        "longitude": 127.02796516792077,
        "address": "서울 강남구 역삼동 620-9",
        "phone": "02-558-5846",
        "distance": "338"
      },
      {
        "name": "레드버튼 시네마강남점",
        "latitude": 37.5003940501115,
        "longitude": 127.026984456104,
        "address": "서울 강남구 역삼동 816",
        "phone": "02-556-3799",
        "distance": "278"
      },
      {
        "name": "벌툰 파리지앵 강남본점",
        "latitude": 37.50026197173603,
        "longitude": 127.02531519997575,
        "address": "서울 서초구 서초동 1307-18",
        "phone": "02-533-4976",
        "distance": "329"
      },
      {
        "name": "레드버튼 강남점",
        "latitude": 37.501931286572834,
        "longitude": 127.0264523435014,
        "address": "서울 강남구 역삼동 814-5",
        "phone": "02-566-3799",
        "distance": "455"
      },
      {
        "name": "레드버튼 강남2호점",
        "latitude": 37.4998154950733,
        "longitude": 127.027458092239,
        "address": "서울 강남구 역삼동 816-4",
        "phone": "02-553-3799",
        "distance": "208"
      },
      {
        "name": "놀숲 강남교보타워점",
        "latitude": 37.502548906046734,
        "longitude": 127.02445419990524,
        "address": "서울 서초구 서초동 1303-36",
        "phone": "02-533-7533",
        "distance": "583"
      },
      {
        "name": "홈즈앤루팡 강남점",
        "latitude": 37.5014554146078,
        "longitude": 127.027074180594,
        "address": "서울 강남구 역삼동 619-16",
        "phone": "02-567-8707",
        "distance": "393"
      },
      {
        "name": "데블다이스 강남점",
        "latitude": 37.5001074514454,
        "longitude": 127.027327015002,
        "address": "서울 강남구 역삼동 816-6",
        "phone": "0507-1370-3912",
        "distance": "241"
      },
      {
        "name": "토즈모임센터 강남역토즈타워점",
        "latitude": 37.4967332799105,
        "longitude": 127.030605241506,
        "address": "서울 강남구 역삼동 827-3",
        "phone": "02-3454-0116",
        "distance": "294"
      }
    ]
  }
}