{
  "key": "f61ccd27b18ca56b4321224ef2650ebec7462d32ac764028bd287bac2328c81d",
  "tool": "CategorySearch_kakao",
  "created_at": "2025-10-21T00:08:50.606704",
  "input_params": {
    "category": "CE7",
    "radius": 1000,
    "size": 15,
    "x": 126.9187,
    "y": 37.6378
  },
  "raw_args": {
    "category": "CE7",
    "x": 126.9187,
    "y": 37.6378,
    "radius": 1000
  },
  "data": {
    "category": "CE7",
    "total_count": 56,
    "places": [
      {
        "name": "볼베어파크 은평점",
        "latitude": 37.63839844517051,
        "longitude": 126.91799980971611,
        "address": "서울 은평구 진관동 63",
        "phone": "02-6975-5363",
        "distance": "90"
      },
      {
        "name": "스타벅스 구파발역점",
        "latitude": 37.6343454066031,
        "longitude": 126.91871234420786,
        "address": "서울 은평구 진관동 90-1",
        "phone": "1522-3232",
        "distance": "383"
      },
      {
        "name": "스타벅스 구파발사거리점",
        "latitude": 37.6395694287727,
        "longitude": 126.91887433800636,
        "address": "서울 은평구 진관동 65",
        "phone": "1522-3232",
        "distance": "197"
      },
      {
        "name": "투썸플레이스 은평뉴타운점",
        "latitude": 37.6389153284713,
        "longitude": 126.918895443206,
        "address": "서울 은평구 진관동 69-3",
        "phone": "02-356-5977",
        "distance": "124"
      },
      {
        "name": "와이엠에스프레소룸",
        "latitude": 37.640919511736946,
        "longitude": 126.92080128467383,
        "address": "서울 은평구 진관동 22",
        "phone": "070-7757-0829",
        "distance": "392"
      },
      {
        "name": "놀멘서가 롯데몰 은평점",
        "latitude": 37.63718756423387,
        "longitude": 126.9180611879922,
        "address": "서울 은평구 진관동 63",
        "phone": "02-6975-5500",
        "distance": "88"
      },
      {
        "name": "메가MGC커피 은평뉴타운점",
        "latitude": 37.63928752200195,
        "longitude": 126.91902193503914,
        "address": "서울 은평구 진관동 62-21",
        "phone": "02-356-6590",
        "distance": "167"
      },
      {
        "name": "세라젬웰카페 은평뉴타운점",
        "latitude": 37.6373801387516,
        "longitude": 126.919024005162,
        "address": "서울 은평구 진관동 66-27",
        "phone": "02-6954-7315",
        "distance": "54"
      },
      {
        "name": "리플로우 롯데몰은평점",
        "latitude": 37.637537034256,
        "longitude": 126.917899921442,
        "address": "서울 은평구 진관동 63",
        "phone": "02-6975-5474",
        "distance": "76"
      },
      {
        "name": "메가MGC커피 구파발역점",
        "latitude": 37.63574044049939,
        "longitude": 126.91916173860254,
        "address": "서울 은평구 진관동 72",
        "phone": "02-356-7096",
        "distance": "232"
      },
      {
        "name": "수수가든카페 은평점",
        "latitude": 37.6368532849172,
        "longitude": 126.91804116167945,
        "address": "서울 은평구 진관동 63",
        "phone": "02-6975-5270",
        "distance": "120"
      },
      {
        "name": "빽다방 구파발역점",
        "latitude": 37.63855148027519,
        "longitude": 126.91911337331753,
        "address": "서울 은평구 진관동 68-35",
        "phone": "02-389-0101",
        "distance": "90"
      },
      {
        "name": "빽다방 구파발역미켈란점",
        "latitude": 37.63548097016419,
        "longitude": 126.91918127978313,
        "address": "서울 은평구 진관동 73",
        "phone": "02-386-0202",
        "distance": "261"
      },
      {
        "name": "더벤티 구파발역점",
        "latitude": 37.63474456230477,
        "longitude": 126.91874023276421,
        "address": "서울 은평구 진관동 62",
        "phone": "02-356-7338",
        "distance": "339"
      },
      {
        "name": "디저트39 구파발역점",
        "latitude": 37.639686628297426,
        "longitude": 126.9189784474799,
        "address": "서울 은평구 진관동 65",
        "phone": "010-3919-6450",
        "distance": "210"
      }
    ]
  }
}