{
  "key": "bd56dda42953936c88c26294130ab20dcbcaf50995bb5f604d68e8b3a0400acb",
  "tool": "PlaceSearch_kakao",
  "created_at": "2025-10-26T12:33:50.547991",
  "input_params": {
    "keyword": "카페",
    "radius": 1000,
    "sort": "accuracy",
    "x": 126.97865,
    "y": 37.49855
  },
  "raw_args": {
    "keyword": "카페",
    "x": 126.97865,
    "y": 37.49855,
    "radius": 1000,
    "sort": "accuracy"
  },
  "data": {
    "keyword": "카페",
    "total_count": 94,
    "places": [
      {
        "name": "사임당갤러리카페",
        "latitude": 37.4958414095508,
        "longitude": 126.978066353516,
        "address": "서울 동작구 동작동 61-61",
        "road_address": "서울 동작구 동작대로39가길 89",
        "phone": "02-595-1232",
        "category": "음식점 > 카페 > 테마카페 > 갤러리카페",
        "distance": "305"
      },
      {
        "name": "카페파이브",
        "latitude": 37.4953386375752,
        "longitude": 126.98354987537,
        "address": "서울 서초구 방배동 764-34",
        "road_address": "서울 서초구 방배중앙로27길 38",
        "phone": "",
        "category": "음식점 > 카페",
        "distance": "561"
      },
      {
        "name": "과일에반하다 프루타 방배점",
        "latitude": 37.4958170925462,
        "longitude": 126.983696778731,
        "address": "서울 서초구 방배동 764-16",
        "road_address": "서울 서초구 동광로1길 87",
        "phone": "02-595-1165",
        "category": "음식점 > 카페 > 생과일전문점",
        "distance": "539"
      },
      {
        "name": "투썸플레이스 방배카페거리점",
        "latitude": 37.497392288225186,
        "longitude": 126.98550806901423,
        "address": "서울 서초구 방배동 755-14",
        "road_address": "서울 서초구 방배중앙로 204",
        "phone": "02-537-3339",
        "category": "음식점 > 카페 > 커피전문점 > 투썸플레이스",
        "distance": "619"
      },
      {
        "name": "커피빈 방배카페골목점",
        "latitude": 37.4957200247803,
        "longitude": 126.985547971263,
        "address": "서울 서초구 방배동 761-6",
        "road_address": "서울 서초구 방배중앙로 187",
        "phone": "02-592-7794",
        "category": "음식점 > 카페 > 커피전문점 > 커피빈",
        "distance": "686"
      },
      {
        "name": "방배동커피상회",
        "latitude": 37.49814004317015,
        "longitude": 126.98486672226917,
        "address": "서울 서초구 방배동 752-8",
        "road_address": "서울 서초구 방배중앙로 213",
        "phone": "",
        "category": "음식점 > 카페",
        "distance": "551"
      },
      {
        "name": "동작노을카페",
        "latitude": 37.505994297130705,
        "longitude": 126.98005391990012,
        "address": "서울 동작구 동작동 316-3",
        "road_address": "서울 동작구 동작대로 335",
        "phone": "",
        "category": "음식점 > 카페",
        "distance": "835"
      },
      {
        "name": "신세계플라워카페",
        "latitude": 37.50221108756954,
        "longitude": 126.97583090451523,
        "address": "서울 동작구 동작동 200",
        "road_address": "",
        "phone": "",
        "category": "음식점 > 카페",
        "distance": "476"
      },
      {
        "name": "카페앤아트",
        "latitude": 37.502157015419264,
        "longitude": 126.97577324457998,
        "address": "서울 동작구 동작동 산 41-2",
        "road_address": "서울 동작구 현충로 210",
        "phone": "",
        "category": "음식점 > 카페",
        "distance": "474"
      },
      {
        "name": "몽드레",
        "latitude": 37.49401325042305,
        "longitude": 126.98350719544419,
        "address": "서울 서초구 방배동 765-30",
        "road_address": "서울 서초구 방배중앙로25길 42",
        "phone": "0507-1380-4966",
        "category": "음식점 > 카페",
        "distance": "661"
      },
      {
        "name": "라콤",
        "latitude": 37.4938557761672,
        "longitude": 126.985023637637,
        "address": "서울 서초구 방배동 780-21",
        "road_address": "서울 서초구 방배중앙로25길 19",
        "phone": "010-6767-7790",
        "category": "음식점 > 카페",
        "distance": "767"
      },
      {
        "name": "그린베일",
        "latitude": 37.49456450593183,
        "longitude": 126.98239322219959,
        "address": "서울 동작구 동작동 333",
        "road_address": "서울 동작구 동작대로39길 22",
        "phone": "",
        "category": "음식점 > 카페",
        "distance": "552"
      },
      {
        "name": "그리고지금",
        "latitude": 37.492095351473026,
        "longitude": 126.97991740016155,
        "address": "서울 동작구 사당동 42",
        "road_address": "서울 동작구 동작대로39길 39",
        "phone": "",
        "category": "음식점 > 카페 > 커피전문점",
        "distance": "725"
      },
      {
        "name": "루베르로스터리",
        "latitude": 37.4941550702853,
        "longitude": 126.986342100081,
        "address": "서울 서초구 방배동 769-24",
        "road_address": "서울 서초구 방배중앙로 168",
        "phone": "",
        "category": "음식점 > 카페 > 커피전문점",
        "distance": "837"
      },
      {
        "name": "매머드익스프레스 방배카페골목점",
        "latitude": 37.49526777384175,
        "longitude": 126.9860003883484,
        "address": "서울 서초구 방배동 769-1",
        "road_address": "서울 서초구 방배로43길 43",
        "phone": "",
        "category": "음식점 > 카페 > 커피전문점 > 매머드익스프레스",
        "distance": "745"
      }
    ]
  }
}