{
  "key": "bd7a9870d0dd032c1142bd93457eb3b4418a2e1bae2df424d22b2e90f91ee6e6",
  "tool": "PlaceSearch_kakao",
  "created_at": "2025-10-27T14:24:18.730584",
  "input_params": {
    "keyword": "디저트 카페",
    "radius": 1000,
    "sort": "accuracy",
    "x": 127.0276,
    "y": 37.4979
  },
  "raw_args": {
    "keyword": "디저트 카페",
    "y": 37.4979,
    "radius": 1000,
    "x": 127.0276
  },
  "data": {
    "keyword": "디저트 카페",
    "total_count": 85,
    "places": [
      {
        "name": "장꼬방",
        "latitude": 37.498331428974,
        "longitude": 127.023807097178,
        "address": "서울 서초구 서초동 1316",
        "road_address": "서울 서초구 강남대로61길 27",
        "phone": "02-597-5511",
        "category": "음식점 > 카페 > 테마카페 > 디저트카페",
        "distance": "338"
      },
      {
        "name": "썸띵어바웃커피",
        "latitude": 37.502824775159816,
        "longitude": 127.02779847587531,
        "address": "서울 강남구 역삼동 618-16",
        "road_address": "서울 강남구 강남대로102길 30",
        "phone": "",
        "category": "음식점 > 카페 > 테마카페 > 디저트카페",
        "distance": "546"
      },
      {
        "name": "까치화방 강남역점",
        "latitude": 37.503303460371576,
        "longitude": 127.02670955234811,
        "address": "서울 강남구 역삼동 811-13",
        "road_address": "서울 강남구 봉은사로4길 23",
        "phone": "02-558-5533",
        "category": "음식점 > 카페 > 테마카페 > 디저트카페",
        "distance": "604"
      },
      {
        "name": "크리에잇쿠키 역삼점",
        "latitude": 37.50292193725799,
        "longitude": 127.03511569524726,
        "address": "서울 강남구 역삼동 641-1",
        "road_address": "서울 강남구 테헤란로25길 36",
        "phone": "02-558-8890",
        "category": "음식점 > 카페 > 테마카페 > 디저트카페",
        "distance": "867"
      },
      {
        "name": "소과당",
        "latitude": 37.499734261007006,
        "longitude": 127.02806874426594,
        "address": "서울 강남구 역삼동 818-1",
        "road_address": "서울 강남구 강남대로96길 12",
        "phone": "02-538-8188",
        "category": "음식점 > 카페 > 테마카페 > 디저트카페",
        "distance": "207"
      },
      {
        "name": "설빙 강남역점",
        "latitude": 37.50113103589973,
        "longitude": 127.02714644191718,
        "address": "서울 강남구 역삼동 619-18",
        "road_address": "서울 강남구 테헤란로1길 42",
        "phone": "02-558-7708",
        "category": "음식점 > 카페 > 테마카페 > 디저트카페 > 설빙",
        "distance": "360"
      },
      {
        "name": "어퍼앤언더",
        "latitude": 37.5027373946275,
        "longitude": 127.027726063481,
        "address": "서울 강남구 역삼동 618-17",
        "road_address": "서울 강남구 강남대로102길 28",
        "phone": "",
        "category": "음식점 > 카페 > 테마카페 > 디저트카페",
        "distance": "536"
      },
      {
        "name": "로얄마카롱",
        "latitude": 37.5022676929746,
        "longitude": 127.035497643301,
        "address": "서울 강남구 역삼동 641-15",
        "road_address": "서울 강남구 테헤란로25길 26",
        "phone": "070-4110-2000",
        "category": "음식점 > 카페 > 테마카페 > 디저트카페",
        "distance": "849"
      },
      {
        "name": "노티드 강남역점",
        "latitude": 37.500815986414466,
        "longitude": 127.02579602312332,
        "address": "서울 서초구 서초동 1305-7",
        "road_address": "서울 서초구 강남대로 429",
        "phone": "070-8869-9377",
        "category": "음식점 > 카페 > 테마카페 > 디저트카페 > 노티드",
        "distance": "360"
      },
      {
        "name": "인포메이션카페",
        "latitude": 37.4940621462283,
        "longitude": 127.032657696336,
        "address": "서울 강남구 역삼동 830-67",
        "road_address": "서울 강남구 역삼로 121",
        "phone": "02-2189-2046",
        "category": "음식점 > 카페 > 테마카페 > 디저트카페",
        "distance": "617"
      },
      {
        "name": "디저트39 강남 테헤란로점",
        "latitude": 37.4977283224454,
        "longitude": 127.029298371216,
        "address": "서울 강남구 역삼동 825-20",
        "road_address": "서울 강남구 테헤란로4길 6",
        "phone": "02-555-0390",
        "category": "음식점 > 카페 > 테마카페 > 디저트카페 > 디저트39",
        "distance": "151"
      },
      {
        "name": "몽슈슈 강남점",
        "latitude": 37.49419228545968,
        "longitude": 127.0311990099186,
        "address": "서울 강남구 역삼동 831-38",
        "road_address": "서울 강남구 역삼로3길 11",
        "phone": "0503-7153-5258",
        "category": "음식점 > 카페 > 테마카페 > 디저트카페",
        "distance": "520"
      },
      {
        "name": "스멜로우",
        "latitude": 37.496519586666885,
        "longitude": 127.03119658554628,
        "address": "서울 강남구 역삼동 827-32",
        "road_address": "서울 강남구 테헤란로6길 32",
        "phone": "",
        "category": "음식점 > 카페 > 테마카페 > 디저트카페",
        "distance": "352"
      },
      {
        "name": "레이지레이디 케이크",
        "latitude": 37.497630184743244,
        "longitude": 127.02900657088206,
        "address": "서울 강남구 역삼동 825-20",
        "road_address": "서울 강남구 테헤란로4길 6",
        "phone": "02-554-8222",
        "category": "음식점 > 카페 > 테마카페 > 디저트카페",
        "distance": "127"
      },
      {
        "name": "로흐",
        "latitude": 37.500852314644895,
        "longitude": 127.03198663165475,
        "address": "서울 강남구 역삼동 636-14",
        "road_address": "서울 강남구 테헤란로13길 17",
        "phone": "",
        "category": "음식점 > 카페 > 테마카페 > 디저트카페",
        "distance": "507"
      }
    ]
  }
}