{
  "key": "2c723c1def5bf1c697e1d8b23bb282c7d43a1fbe3b6680284628d2105a8820cd",
  "tool": "PlaceSearch_kakao",
  "created_at": "2025-10-26T22:23:07.178367",
  "input_params": {
    "keyword": "Apple Store",
    "page": 1,
    "radius": 20000,
    "size": 10,
    "sort": "accuracy",
    "x": 126.98284080132754,
    "y": 37.56468141612801
  },
  "raw_args": {
    "keyword": "Apple Store",
    "x": 126.98284080132754,
    "y": 37.56468141612801,
    "page": 1,
    "size": 10,
    "radius": 20000,
    "sort": "accuracy"
  },
  "data": {
    "keyword": "Apple Store",
    "total_count": 15,
    "places": [
      {
        "name": "a#shop 현대백화점신촌점",
        "latitude": 37.556039153199926,
        "longitude": 126.93596261535357,
        "address": "서울 서대문구 창천동 30-33",
        "road_address": "서울 서대문구 신촌로 83",
        "phone": "02-3145-2943",
        "category": "가정,생활 > 전자제품 > 전자제품판매 > a#shop",
        "distance": "4251"
      },
      {
        "name": "a#shop 현대백화점압구정점",
        "latitude": 37.52733395706555,
        "longitude": 127.02747043826793,
        "address": "서울 강남구 압구정동 429",
        "road_address": "서울 강남구 압구정로 165",
        "phone": "02-3449-5474",
        "category": "가정,생활 > 전자제품 > 전자제품판매 > a#shop",
        "distance": "5721"
      },
      {
        "name": "a#shop 현대백화점여의도점",
        "latitude": 37.52532437573652,
        "longitude": 126.92863443939514,
        "address": "서울 영등포구 여의도동 22",
        "road_address": "서울 영등포구 여의대로 108",
        "phone": "02-3277-0576",
        "category": "가정,생활 > 전자제품 > 전자제품판매 > a#shop",
        "distance": "6482"
      },
      {
        "name": "a#shop 현대백화점무역센터점",
        "latitude": 37.50840101038459,
        "longitude": 127.05966824338046,
        "address": "서울 강남구 삼성동 159-7",
        "road_address": "서울 강남구 테헤란로 517",
        "phone": "02-3467-8373",
        "category": "가정,생활 > 전자제품 > 전자제품판매 > a#shop",
        "distance": "9226"
      },
      {
        "name": "a#shop 현대백화점목동점",
        "latitude": 37.52719236520492,
        "longitude": 126.87476438646353,
        "address": "서울 양천구 목동 916",
        "road_address": "서울 양천구 목동동로 257",
        "phone": "02-2163-2635",
        "category": "가정,생활 > 전자제품 > 전자제품판매 > a#shop",
        "distance": "10417"
      },
      {
        "name": "a#shop 현대아울렛스페이스원점",
        "latitude": 37.6163403226126,
        "longitude": 127.151413390332,
        "address": "경기 남양주시 다산동 6141",
        "road_address": "경기 남양주시 다산순환로 50",
        "phone": "031-8078-2229",
        "category": "가정,생활 > 전자제품 > 전자제품판매 > a#shop",
        "distance": "15953"
      },
      {
        "name": "a#shop 마리오점",
        "latitude": 37.478336929144604,
        "longitude": 126.88517710236641,
        "address": "서울 금천구 가산동 60-20",
        "road_address": "서울 금천구 벚꽃로 266",
        "phone": "02-2067-3844",
        "category": "가정,생활 > 전자제품 > 전자제품판매 > a#shop",
        "distance": "12898"
      },
      {
        "name": "a#shop 현대백화점천호점",
        "latitude": 37.53920650319215,
        "longitude": 127.12419550070103,
        "address": "서울 강동구 천호동 572",
        "road_address": "서울 강동구 천호대로 1005",
        "phone": "02-2225-8920",
        "category": "가정,생활 > 전자제품 > 전자제품판매 > a#shop",
        "distance": "12806"
      },
      {
        "name": "Apple 명동",
        "latitude": 37.56468141612801,
        "longitude": 126.98284080132754,
        "address": "서울 중구 남대문로2가 9-1",
        "road_address": "서울 중구 남대문로 84",
        "phone": "080-500-1007",
        "category": "가정,생활 > 전자제품 > 전자제품서비스센터 > 통신기기수리 > Apple 공인서비스센터",
        "distance": "0"
      },
      {
        "name": "Apple 홍대",
        "latitude": 37.55511260345064,
        "longitude": 126.92194695320684,
        "address": "서울 마포구 동교동 162-4",
        "road_address": "서울 마포구 양화로 140",
        "phone": "080-500-3005",
        "category": "가정,생활 > 전자제품 > 전자제품서비스센터 > 통신기기수리 > Apple 공인서비스센터",
        "distance": "5484"
      }
    ]
  }
}