{
  "key": "c7a1ccde346c098497abab16b7eca4c51bf94e0fdad65b7e82207e74df768f67",
  "tool": "PlaceSearch_kakao",
  "created_at": "2025-12-15T14:24:06.746014",
  "input_params": {
    "keyword": "시흥시청 주차장",
    "size": 5,
    "sort": "accuracy"
  },
  "raw_args": {
    "keyword": "시흥시청 주차장",
    "size": 5,
    "sort": "accuracy"
  },
  "data": {
    "keyword": "시흥시청 주차장",
    "total_count": 79,
    "places": [
      {
        "name": "시흥시청",
        "latitude": 37.3801150716048,
        "longitude": 126.802977796435,
        "address": "경기 시흥시 장현동 300",
        "road_address": "경기 시흥시 시청로 20",
        "phone": "031-310-2114",
        "category": "사회,공공기관 > 지방행정기관 > 시청",
        "distance": ""
      },
      {
        "name": "시흥시청 주차장",
        "latitude": 37.3796286115418,
        "longitude": 126.803033265084,
        "address": "경기 시흥시 장현동 300",
        "road_address": "경기 시흥시 시청로 20",
        "phone": "",
        "category": "교통,수송 > 교통시설 > 주차장",
        "distance": ""
      },
      {
        "name": "시흥시청 주차장1",
        "latitude": 37.379868146204,
        "longitude": 126.804035268843,
        "address": "경기 시흥시 장현동 300",
        "road_address": "경기 시흥시 시청로 20",
        "phone": "",
        "category": "교통,수송 > 교통시설 > 주차장",
        "distance": ""
      },
      {
        "name": "시흥시청 주차장2",
        "latitude": 37.3794756720615,
        "longitude": 126.802094268692,
        "address": "경기 시흥시 장현동 300",
        "road_address": "경기 시흥시 시청로 20",
        "phone": "",
        "category": "교통,수송 > 교통시설 > 주차장",
        "distance": ""
      },
      {
        "name": "시청후문공영주차장",
        "latitude": 37.38053049286822,
        "longitude": 126.80139145608838,
        "address": "경기 시흥시 장현동 543-5",
        "road_address": "",
        "phone": "",
        "category": "교통,수송 > 교통시설 > 주차장 > 공영주차장",
        "distance": ""
      }
    ]
  }
}