{
  "key": "c7e7e388d9891376897f21395e896d0bb753a10bc2be0c56f858e28e07d6fa01",
  "tool": "PlaceSearch_kakao",
  "created_at": "2025-10-26T08:26:42.144192",
  "input_params": {
    "keyword": "맛집",
    "radius": 1000,
    "sort": "accuracy",
    "x": 126.9434,
    "y": 37.4835
  },
  "raw_args": {
    "keyword": "맛집",
    "radius": 1000,
    "x": 126.9434,
    "y": 37.4835
  },
  "data": {
    "keyword": "맛집",
    "total_count": 1235,
    "places": [
      {
        "name": "24시서울밥집 봉천점",
        "latitude": 37.481703478082665,
        "longitude": 126.94255091867976,
        "address": "서울 관악구 봉천동 927-18",
        "road_address": "서울 관악구 장군봉1길 45",
        "phone": "",
        "category": "음식점 > 한식",
        "distance": "212"
      },
      {
        "name": "동강염소탕",
        "latitude": 37.48312793444,
        "longitude": 126.940650349969,
        "address": "서울 관악구 봉천동 944-32",
        "road_address": "서울 관악구 남부순환로 1713",
        "phone": "02-883-4050",
        "category": "음식점 > 한식",
        "distance": "246"
      },
      {
        "name": "논밭골 봉천점",
        "latitude": 37.4804959271283,
        "longitude": 126.945948171788,
        "address": "서울 관악구 봉천동 915-26",
        "road_address": "서울 관악구 청룡길 30",
        "phone": "02-875-6493",
        "category": "음식점 > 한식 > 육류,고기 > 갈비",
        "distance": "402"
      },
      {
        "name": "장수촌풍천장어",
        "latitude": 37.4830133257037,
        "longitude": 126.942102182363,
        "address": "서울 관악구 봉천동 931-1",
        "road_address": "서울 관악구 봉천로 382",
        "phone": "02-872-8889",
        "category": "음식점 > 한식 > 해물,생선 > 장어",
        "distance": "126"
      },
      {
        "name": "가야촌유황오리 봉천점",
        "latitude": 37.483155338434784,
        "longitude": 126.94515254526061,
        "address": "서울 관악구 봉천동 911-34",
        "road_address": "서울 관악구 봉천로 407",
        "phone": "02-886-5292",
        "category": "음식점 > 한식 > 육류,고기 > 오리",
        "distance": "159"
      },
      {
        "name": "황태한마당",
        "latitude": 37.48286734629164,
        "longitude": 126.94206950650985,
        "address": "서울 관악구 봉천동 931-2",
        "road_address": "서울 관악구 남부순환로 1727-7",
        "phone": "02-877-0557",
        "category": "음식점 > 한식 > 해물,생선",
        "distance": "136"
      },
      {
        "name": "갯벌의조개 봉천역점",
        "latitude": 37.4827103202312,
        "longitude": 126.943411691994,
        "address": "서울 관악구 봉천동 926-26",
        "road_address": "서울 관악구 남부순환로 1739-7",
        "phone": "010-3662-0224",
        "category": "음식점 > 한식 > 해물,생선 > 조개 > 갯벌의조개",
        "distance": "87"
      },
      {
        "name": "Q브레드",
        "latitude": 37.48291108759008,
        "longitude": 126.94308365542776,
        "address": "서울 관악구 봉천동 926-21",
        "road_address": "서울 관악구 봉천로 388",
        "phone": "",
        "category": "음식점 > 간식 > 제과,베이커리",
        "distance": "70"
      },
      {
        "name": "스타벅스 봉천역",
        "latitude": 37.48203672006856,
        "longitude": 126.94228157472476,
        "address": "서울 관악구 봉천동 927-5",
        "road_address": "서울 관악구 남부순환로 1730",
        "phone": "1522-3232",
        "category": "음식점 > 카페 > 커피전문점 > 스타벅스",
        "distance": "190"
      },
      {
        "name": "목포회센타",
        "latitude": 37.4817393541584,
        "longitude": 126.946024158316,
        "address": "서울 관악구 봉천동 913-1",
        "road_address": "서울 관악구 남부순환로 1766",
        "phone": "",
        "category": "음식점 > 한식 > 해물,생선 > 회",
        "distance": "303"
      },
      {
        "name": "바다수다",
        "latitude": 37.47958716443215,
        "longitude": 126.94476849210042,
        "address": "서울 관악구 봉천동 1564-4",
        "road_address": "서울 관악구 쑥고개로 73-1",
        "phone": "0503-7151-7110",
        "category": "음식점 > 한식 > 해물,생선 > 회",
        "distance": "450"
      },
      {
        "name": "타이시즌 봉천점",
        "latitude": 37.48137562542453,
        "longitude": 126.94467898771732,
        "address": "서울 관악구 봉천동 921-1",
        "road_address": "서울 관악구 청룡2길 29",
        "phone": "010-5926-5530",
        "category": "음식점 > 아시아음식 > 동남아음식 > 태국음식",
        "distance": "261"
      },
      {
        "name": "스타동 봉천점",
        "latitude": 37.4820797366571,
        "longitude": 126.941808940001,
        "address": "서울 관악구 봉천동 930-1",
        "road_address": "서울 관악구 남부순환로 1726",
        "phone": "02-883-5505",
        "category": "음식점 > 일식",
        "distance": "211"
      },
      {
        "name": "상봉해물",
        "latitude": 37.481270659719,
        "longitude": 126.945653654151,
        "address": "서울 관악구 봉천동 914-21",
        "road_address": "서울 관악구 청룡2길 9",
        "phone": "02-887-8650",
        "category": "음식점 > 한식 > 해물,생선",
        "distance": "317"
      },
      {
        "name": "장군포차 봉천점",
        "latitude": 37.481398535760654,
        "longitude": 126.94550771211325,
        "address": "서울 관악구 봉천동 913-8",
        "road_address": "서울 관악구 청룡2길 12-1",
        "phone": "02-872-0562",
        "category": "음식점 > 술집 > 실내포장마차",
        "distance": "298"
      }
    ]
  }
}