{
  "key": "a5214a2d753fe39ac97f1322dc2ac51081ffd96849b8fce9dce6bb3372c5c32a",
  "tool": "PlaceSearch_kakao",
  "created_at": "2025-10-26T23:26:25.649409",
  "input_params": {
    "keyword": "디저트 카페",
    "page": 1,
    "size": 10,
    "sort": "accuracy",
    "x": 127.0952,
    "y": 33.7535
  },
  "raw_args": {
    "keyword": "디저트 카페",
    "x": 127.0952,
    "y": 33.7535,
    "page": 1,
    "size": 10
  },
  "data": {
    "keyword": "디저트 카페",
    "total_count": 25244,
    "places": [
      {
        "name": "프릳츠 제주성산점",
        "latitude": 33.45942346421321,
        "longitude": 126.93012490410638,
        "address": "제주특별자치도 서귀포시 성산읍 성산리 399-28",
        "road_address": "제주특별자치도 서귀포시 성산읍 일출로 222",
        "phone": "064-782-2045",
        "category": "음식점 > 카페 > 테마카페 > 디저트카페",
        "distance": "36036"
      },
      {
        "name": "카페리",
        "latitude": 33.533939062595906,
        "longitude": 126.83966959715463,
        "address": "제주특별자치도 제주시 구좌읍 평대리 1947-4",
        "road_address": "제주특별자치도 제주시 구좌읍 평대2길 39",
        "phone": "0502-5552-0208",
        "category": "음식점 > 카페 > 테마카페 > 디저트카페",
        "distance": "33985"
      },
      {
        "name": "먀",
        "latitude": 33.5208085850582,
        "longitude": 126.878924006448,
        "address": "제주특별자치도 제주시 구좌읍 하도리 2202",
        "road_address": "제주특별자치도 제주시 구좌읍 하도1길 37",
        "phone": "0503-7153-3169",
        "category": "음식점 > 카페 > 테마카페 > 디저트카페",
        "distance": "32691"
      },
      {
        "name": "모어모어",
        "latitude": 33.5291470075,
        "longitude": 126.875712953954,
        "address": "제주특별자치도 제주시 구좌읍 하도리 3075",
        "road_address": "제주특별자치도 제주시 구좌읍 해맞이해안로 1616",
        "phone": "0502-5552-7871",
        "category": "음식점 > 카페 > 테마카페 > 디저트카페",
        "distance": "32153"
      },
      {
        "name": "우땅",
        "latitude": 33.50947395621857,
        "longitude": 126.94351347579723,
        "address": "제주특별자치도 제주시 우도면 연평리 2395-3",
        "road_address": "제주특별자치도 제주시 우도면 우도해안길 352",
        "phone": "",
        "category": "음식점 > 카페 > 테마카페 > 디저트카페",
        "distance": "30506"
      },
      {
        "name": "카페인사리",
        "latitude": 33.5391542886617,
        "longitude": 126.825931626958,
        "address": "제주특별자치도 제주시 구좌읍 한동리 1139-12",
        "road_address": "제주특별자치도 제주시 구좌읍 일주동로 2806",
        "phone": "010-9359-2988",
        "category": "음식점 > 카페 > 테마카페 > 디저트카페",
        "distance": "34484"
      },
      {
        "name": "르토아베이스먼트",
        "latitude": 33.532984763900366,
        "longitude": 126.8442963119275,
        "address": "제주특별자치도 제주시 구좌읍 평대리 2005",
        "road_address": "제주특별자치도 제주시 구좌읍 해맞이해안로 1226",
        "phone": "070-4408-5525",
        "category": "음식점 > 카페 > 테마카페 > 디저트카페",
        "distance": "33763"
      },
      {
        "name": "우도래요",
        "latitude": 33.51031150814006,
        "longitude": 126.94343220966526,
        "address": "제주특별자치도 제주시 우도면 연평리 2391-2",
        "road_address": "제주특별자치도 제주시 우도면 우도해안길 360",
        "phone": "",
        "category": "음식점 > 카페 > 테마카페 > 디저트카페",
        "distance": "30427"
      },
      {
        "name": "달치즈 구좌세화점",
        "latitude": 33.5241656255669,
        "longitude": 126.862044691141,
        "address": "제주특별자치도 제주시 구좌읍 세화리 1476-12",
        "road_address": "제주특별자치도 제주시 구좌읍 해녀박물관길 35",
        "phone": "070-8844-1965",
        "category": "음식점 > 카페 > 테마카페 > 디저트카페",
        "distance": "33390"
      },
      {
        "name": "우도돌코롬카페",
        "latitude": 33.4960343094242,
        "longitude": 126.956019138775,
        "address": "제주특별자치도 제주시 우도면 연평리 1658-1",
        "road_address": "제주특별자치도 제주시 우도면 우도봉길 2",
        "phone": "010-7638-1943",
        "category": "음식점 > 카페 > 테마카페 > 디저트카페",
        "distance": "31341"
      }
    ]
  }
}