{
  "key": "0c24cbcac3d34d5ee5ce83d6734c2a4800cfa0e682516bdf1a3f0ec5baaf26ca",
  "tool": "PlaceSearch_kakao",
  "created_at": "2025-12-19T05:23:40.078608",
  "input_params": {
    "keyword": "맛집",
    "radius": 1000,
    "size": 15,
    "sort": "accuracy",
    "x": 127.216475764948,
    "y": 37.6360236390492
  },
  "raw_args": {
    "keyword": "맛집",
    "x": 127.216475764948,
    "y": 37.6360236390492,
    "radius": 1000,
    "size": 15
  },
  "data": {
    "keyword": "맛집",
    "total_count": 118,
    "places": [
      {
        "name": "원조공릉동멸치국수 금곡점",
        "latitude": 37.6355299650025,
        "longitude": 127.214466754158,
        "address": "경기 남양주시 금곡동 185-69",
        "road_address": "경기 남양주시 경춘로1015번길 8",
        "phone": "031-594-2901",
        "category": "음식점 > 한식 > 국수",
        "distance": "185"
      },
      {
        "name": "태능배갈비",
        "latitude": 37.6353160633072,
        "longitude": 127.215164031511,
        "address": "경기 남양주시 금곡동 185-18",
        "road_address": "경기 남양주시 경춘로 1023",
        "phone": "031-559-8588",
        "category": "음식점 > 한식 > 육류,고기 > 갈비",
        "distance": "139"
      },
      {
        "name": "오가네아구찜",
        "latitude": 37.6359886906951,
        "longitude": 127.213901596625,
        "address": "경기 남양주시 금곡동 158-1",
        "road_address": "경기 남양주시 사릉로34번길 48",
        "phone": "031-591-5501",
        "category": "음식점 > 한식 > 해물,생선 > 아구",
        "distance": "227"
      },
      {
        "name": "부산복집",
        "latitude": 37.6334828407213,
        "longitude": 127.210513798274,
        "address": "경기 남양주시 금곡동 156-38",
        "road_address": "경기 남양주시 경춘로 980-6",
        "phone": "031-592-1717",
        "category": "음식점 > 한식 > 해물,생선 > 복어",
        "distance": "597"
      },
      {
        "name": "승희네집밥",
        "latitude": 37.6362547144146,
        "longitude": 127.21426943699,
        "address": "경기 남양주시 금곡동 166-1",
        "road_address": "경기 남양주시 경춘로1015번길 13",
        "phone": "",
        "category": "음식점 > 한식",
        "distance": "196"
      },
      {
        "name": "맛있는해장국",
        "latitude": 37.63439850196885,
        "longitude": 127.21237891491245,
        "address": "경기 남양주시 금곡동 154-20",
        "road_address": "경기 남양주시 경춘로 998",
        "phone": "031-595-3440",
        "category": "음식점 > 한식 > 해장국",
        "distance": "404"
      },
      {
        "name": "어랑손만두국",
        "latitude": 37.63628665040511,
        "longitude": 127.22423501355276,
        "address": "경기 남양주시 금곡동 14",
        "road_address": "경기 남양주시 경춘로 1084-25",
        "phone": "031-592-2959",
        "category": "음식점 > 한식",
        "distance": "685"
      },
      {
        "name": "풀문",
        "latitude": 37.6361732018748,
        "longitude": 127.215491661151,
        "address": "경기 남양주시 금곡동 185-41",
        "road_address": "경기 남양주시 경춘로양골1길 10",
        "phone": "070-7543-3894",
        "category": "음식점 > 카페",
        "distance": "88"
      },
      {
        "name": "홍천강다슬기",
        "latitude": 37.63372134659469,
        "longitude": 127.21216513210727,
        "address": "경기 남양주시 금곡동 152-65",
        "road_address": "경기 남양주시 경춘로992번길 9",
        "phone": "010-4879-1314",
        "category": "음식점 > 한식 > 해물,생선",
        "distance": "458"
      },
      {
        "name": "자매의정부부대찌개",
        "latitude": 37.63600420652304,
        "longitude": 127.21379174473508,
        "address": "경기 남양주시 금곡동 158-1",
        "road_address": "경기 남양주시 사릉로34번길 48",
        "phone": "031-593-1195",
        "category": "음식점 > 한식 > 찌개,전골",
        "distance": "236"
      },
      {
        "name": "맘스터치 남양주금곡점",
        "latitude": 37.6343808411265,
        "longitude": 127.21217946938388,
        "address": "경기 남양주시 금곡동 154-17",
        "road_address": "경기 남양주시 경춘로 996",
        "phone": "031-593-9998",
        "category": "음식점 > 패스트푸드 > 맘스터치",
        "distance": "420"
      },
      {
        "name": "뜨란",
        "latitude": 37.6358722995465,
        "longitude": 127.216461730489,
        "address": "경기 남양주시 금곡동 185-10",
        "road_address": "경기 남양주시 경춘로 1037",
        "phone": "031-592-7150",
        "category": "음식점 > 카페 > 커피전문점",
        "distance": "16"
      },
      {
        "name": "나능이 금곡점",
        "latitude": 37.6353181485961,
        "longitude": 127.214017500397,
        "address": "경기 남양주시 금곡동 158-66",
        "road_address": "경기 남양주시 경춘로1015번길 3",
        "phone": "031-593-2881",
        "category": "음식점 > 한식 > 육류,고기 > 닭요리",
        "distance": "230"
      },
      {
        "name": "매머드익스프레스 남양주시청제1청사점",
        "latitude": 37.6364148527216,
        "longitude": 127.215882096747,
        "address": "경기 남양주시 금곡동 203-31",
        "road_address": "경기 남양주시 경춘로양골1길 13",
        "phone": "",
        "category": "음식점 > 카페 > 커피전문점 > 매머드익스프레스",
        "distance": "67"
      },
      {
        "name": "커피한잔",
        "latitude": 37.6343126518178,
        "longitude": 127.212020665769,
        "address": "경기 남양주시 금곡동 154-15",
        "road_address": "경기 남양주시 경춘로 994",
        "phone": "",
        "category": "음식점 > 카페 > 커피전문점",
        "distance": "436"
      }
    ]
  }
}