{
  "key": "ecd71fc9bf9a6f4a3d57a254c4202ab964adf55dd4451618777572a3cca9a003",
  "tool": "PlaceSearch_kakao",
  "created_at": "2025-12-15T13:44:01.712505",
  "input_params": {
    "keyword": "파스타",
    "size": 10,
    "sort": "accuracy",
    "x": 127.02758,
    "y": 37.4979
  },
  "raw_args": {
    "keyword": "파스타",
    "x": 127.02758,
    "y": 37.4979,
    "size": 10,
    "sort": "accuracy"
  },
  "data": {
    "keyword": "파스타",
    "total_count": 30512,
    "places": [
      {
        "name": "라그릴리아 SPC스퀘어점",
        "latitude": 37.49437283454316,
        "longitude": 127.02985341955451,
        "address": "서울 강남구 역삼동 831-23",
        "road_address": "서울 강남구 강남대로 352",
        "phone": "02-567-9192",
        "category": "음식점 > 양식 > 이탈리안 > 라그릴리아",
        "distance": "440"
      },
      {
        "name": "노리타",
        "latitude": 37.5008247672713,
        "longitude": 127.02682515299,
        "address": "서울 강남구 역삼동 815-4",
        "road_address": "서울 강남구 강남대로 428",
        "phone": "02-566-7776",
        "category": "음식점 > 양식 > 이탈리안",
        "distance": "331"
      },
      {
        "name": "마노디셰프 강남점",
        "latitude": 37.4998701131357,
        "longitude": 127.03237184760155,
        "address": "서울 강남구 역삼동 648-9",
        "road_address": "서울 강남구 테헤란로 129",
        "phone": "02-553-5311",
        "category": "음식점 > 양식 > 이탈리안",
        "distance": "476"
      },
      {
        "name": "닥터로빈시그니처 서초점",
        "latitude": 37.4966332657545,
        "longitude": 127.026914121286,
        "address": "서울 서초구 서초동 1320-10",
        "road_address": "서울 서초구 서초대로74길 11",
        "phone": "02-522-3101",
        "category": "음식점 > 양식 > 이탈리안",
        "distance": "152"
      },
      {
        "name": "로리스더프라임립",
        "latitude": 37.49808140984054,
        "longitude": 127.02590025308936,
        "address": "서울 서초구 서초동 1317-23",
        "road_address": "서울 서초구 서초대로 411",
        "phone": "02-590-2800",
        "category": "음식점 > 양식 > 스테이크,립",
        "distance": "149"
      },
      {
        "name": "벌툰 엔틱 강남역점",
        "latitude": 37.5007307950853,
        "longitude": 127.027978644718,
        "address": "서울 강남구 역삼동 817-35",
        "road_address": "서울 강남구 강남대로98길 16",
        "phone": "02-569-4976",
        "category": "가정,생활 > 여가시설 > 만화방 > 만화카페 > 벌툰",
        "distance": "315"
      },
      {
        "name": "더플라잉팬 레드",
        "latitude": 37.4980931286224,
        "longitude": 127.025874247186,
        "address": "서울 서초구 서초동 1317-27",
        "road_address": "서울 서초구 서초대로 411",
        "phone": "02-590-2488",
        "category": "음식점 > 양식",
        "distance": "152"
      },
      {
        "name": "스터번",
        "latitude": 37.4998868584351,
        "longitude": 127.03038713504733,
        "address": "서울 강남구 역삼동 649-4",
        "road_address": "서울 강남구 테헤란로7길 11",
        "phone": "070-8828-8100",
        "category": "음식점 > 양식 > 스테이크,립",
        "distance": "332"
      },
      {
        "name": "마초쉐프 강남본점",
        "latitude": 37.5034987166465,
        "longitude": 127.027843963703,
        "address": "서울 강남구 역삼동 616-14",
        "road_address": "서울 강남구 강남대로106길 29",
        "phone": "02-566-8886",
        "category": "음식점 > 양식 > 이탈리안",
        "distance": "621"
      },
      {
        "name": "도치피자 강남",
        "latitude": 37.5009936710604,
        "longitude": 127.028883471736,
        "address": "서울 강남구 역삼동 620-17",
        "road_address": "서울 강남구 강남대로98길 27",
        "phone": "02-556-8001",
        "category": "음식점 > 양식 > 피자",
        "distance": "362"
      }
    ]
  }
}