{
  "key": "46807552a6fae7ee6166f9800123300cb7df32395bf3c76e65620edffe82d8bb",
  "tool": "PlaceSearch_kakao",
  "created_at": "2025-12-19T02:43:14.965091",
  "input_params": {
    "keyword": "가톨릭대학교 성심교정",
    "sort": "accuracy"
  },
  "raw_args": {
    "keyword": "가톨릭대학교 성심교정"
  },
  "data": {
    "keyword": "가톨릭대학교 성심교정",
    "total_count": 22,
    "places": [
      {
        "name": "가톨릭대학교 성신교정",
        "latitude": 37.586336176926416,
        "longitude": 127.0045786211564,
        "address": "서울 종로구 혜화동 90-1",
        "road_address": "서울 종로구 창경궁로 296-12",
        "phone": "02-740-9714",
        "category": "교육,학문 > 학교 > 대학교",
        "distance": ""
      },
      {
        "name": "가톨릭대학교 성심교정",
        "latitude": 37.48603183903539,
        "longitude": 126.80229293675185,
        "address": "경기 부천시 원미구 역곡동 산 43-1",
        "road_address": "경기 부천시 원미구 지봉로 43",
        "phone": "02-2164-4114",
        "category": "교육,학문 > 학교 > 대학교",
        "distance": ""
      },
      {
        "name": "가톨릭대학교 성의교정",
        "latitude": 37.500340242423476,
        "longitude": 127.00546225349586,
        "address": "서울 서초구 반포동 505",
        "road_address": "서울 서초구 반포대로 222",
        "phone": "02-3147-8114",
        "category": "교육,학문 > 학교 > 대학교",
        "distance": ""
      },
      {
        "name": "가톨릭대학교 콘서트홀",
        "latitude": 37.4881011983234,
        "longitude": 126.799469741323,
        "address": "경기 부천시 원미구 역곡동 산 43-1",
        "road_address": "경기 부천시 원미구 지봉로 43",
        "phone": "02-2164-4114",
        "category": "문화,예술 > 문화시설 > 공연장,연극극장",
        "distance": ""
      },
      {
        "name": "가톨릭대학교 성심교정 김수환관",
        "latitude": 37.48538942953203,
        "longitude": 126.80337781551678,
        "address": "경기 부천시 원미구 역곡동 산 43-1",
        "road_address": "경기 부천시 원미구 지봉로 43",
        "phone": "",
        "category": "부동산 > 주거시설 > 기숙사,기숙시설",
        "distance": ""
      },
      {
        "name": "가톨릭대학교 성심교정 주차장",
        "latitude": 37.48736133857224,
        "longitude": 126.80152507722633,
        "address": "경기 부천시 원미구 역곡동 산 43-1",
        "road_address": "경기 부천시 원미구 지봉로 43",
        "phone": "",
        "category": "교통,수송 > 교통시설 > 주차장",
        "distance": ""
      },
      {
        "name": "가톨릭대학교 성심교정 다솔관",
        "latitude": 37.4855633514469,
        "longitude": 126.801240380552,
        "address": "경기 부천시 원미구 역곡동 산 43-1",
        "road_address": "경기 부천시 원미구 지봉로 43",
        "phone": "",
        "category": "교육,학문 > 학교부속시설",
        "distance": ""
      },
      {
        "name": "가톨릭대학교 성심교정 정문",
        "latitude": 37.485997639666,
        "longitude": 126.804482029877,
        "address": "경기 부천시 원미구 역곡동 산 43-1",
        "road_address": "경기 부천시 원미구 지봉로 43",
        "phone": "",
        "category": "교통,수송 > 입출구",
        "distance": ""
      },
      {
        "name": "가톨릭대학교 중앙도서관",
        "latitude": 37.486887352439595,
        "longitude": 126.79988908233605,
        "address": "경기 부천시 원미구 역곡동 산 43-1",
        "road_address": "경기 부천시 원미구 지봉로 43",
        "phone": "02-2164-4606",
        "category": "교육,학문 > 학습시설 > 도서관",
        "distance": ""
      },
      {
        "name": "가톨릭대학교 성심교정 소피이바라관",
        "latitude": 37.4861542266606,
        "longitude": 126.80113026933,
        "address": "경기 부천시 원미구 역곡동 산 43-1",
        "road_address": "경기 부천시 원미구 지봉로 43",
        "phone": "",
        "category": "교육,학문 > 학교부속시설",
        "distance": ""
      },
      {
        "name": "가톨릭대학교 성심교정 학생식당",
        "latitude": 37.4862983947197,
        "longitude": 126.801134409924,
        "address": "경기 부천시 원미구 역곡동 산 43-1",
        "road_address": "경기 부천시 원미구 지봉로 43",
        "phone": "",
        "category": "음식점 > 구내식당",
        "distance": ""
      },
      {
        "name": "가톨릭대학교 정진석추기경약학관",
        "latitude": 37.4868639464973,
        "longitude": 126.798839858554,
        "address": "경기 부천시 원미구 역곡동 산 43-1",
        "road_address": "경기 부천시 원미구 지봉로 43",
        "phone": "",
        "category": "교육,학문 > 학교부속시설",
        "distance": ""
      },
      {
        "name": "가톨릭대학교 니콜스관",
        "latitude": 37.4859256417639,
        "longitude": 126.802365580273,
        "address": "경기 부천시 원미구 역곡동 산 43-1",
        "road_address": "경기 부천시 원미구 지봉로 43",
        "phone": "",
        "category": "교육,학문 > 학교부속시설",
        "distance": ""
      },
      {
        "name": "가톨릭대학교 평생교육원",
        "latitude": 37.4853382379022,
        "longitude": 126.80347744893841,
        "address": "경기 부천시 원미구 역곡동 산 43-1",
        "road_address": "경기 부천시 원미구 지봉로 43",
        "phone": "02-2164-6586",
        "category": "교육,학문 > 교육단체 > 평생교육원,사회교육원",
        "distance": ""
      },
      {
        "name": "가톨릭대학교 성심국제문화연수원",
        "latitude": 37.4852932140781,
        "longitude": 126.803493396292,
        "address": "경기 부천시 원미구 역곡동 산 43-1",
        "road_address": "경기 부천시 원미구 지봉로 43",
        "phone": "",
        "category": "교육,학문 > 교육단체 > 연수원",
        "distance": ""
      }
    ]
  }
}