{
  "key": "46975202da8f55fd06af8921eb6ec2575aeaaee9dad18dbd323cedbad9cc2b00",
  "tool": "PlaceSearch_kakao",
  "created_at": "2025-12-15T08:47:47.734171",
  "input_params": {
    "keyword": "대학교",
    "radius": 2000,
    "sort": "accuracy",
    "x": 127.068449,
    "y": 37.580178
  },
  "raw_args": {
    "keyword": "대학교",
    "x": 127.068449,
    "y": 37.580178,
    "radius": 2000
  },
  "data": {
    "keyword": "대학교",
    "total_count": 177,
    "places": [
      {
        "name": "서울시립대학교",
        "latitude": 37.584828300773886,
        "longitude": 127.05773316246166,
        "address": "서울 동대문구 전농동 694",
        "road_address": "서울 동대문구 서울시립대로 163",
        "phone": "02-6490-6114",
        "category": "교육,학문 > 학교 > 대학교",
        "distance": "1078"
      },
      {
        "name": "삼육보건대학교",
        "latitude": 37.58894980703882,
        "longitude": 127.06565297133432,
        "address": "서울 동대문구 휘경동 29-1",
        "road_address": "서울 동대문구 망우로 82",
        "phone": "02-2212-0082",
        "category": "교육,학문 > 학교 > 전문대학",
        "distance": "1004"
      },
      {
        "name": "서울시립대학교 후문",
        "latitude": 37.58521140994416,
        "longitude": 127.06094546401724,
        "address": "서울 동대문구 전농동 694",
        "road_address": "서울 동대문구 서울시립대로 163",
        "phone": "",
        "category": "교통,수송 > 입출구",
        "distance": "866"
      },
      {
        "name": "서울시립대학교 정문",
        "latitude": 37.5834771622868,
        "longitude": 127.055113438416,
        "address": "서울 동대문구 전농동 694",
        "road_address": "서울 동대문구 서울시립대로 163",
        "phone": "",
        "category": "교통,수송 > 입출구",
        "distance": "1233"
      },
      {
        "name": "동국대학교 사범대학 부속고등학교",
        "latitude": 37.5780487645908,
        "longitude": 127.074626416845,
        "address": "서울 동대문구 장안동 328",
        "road_address": "서울 동대문구 장안벚꽃로 201",
        "phone": "02-6913-1578",
        "category": "교육,학문 > 학교 > 고등학교",
        "distance": "594"
      },
      {
        "name": "서울시립대학교 자작마루",
        "latitude": 37.582849741524335,
        "longitude": 127.0576886128878,
        "address": "서울 동대문구 전농동 694",
        "road_address": "서울 동대문구 서울시립대로 163",
        "phone": "",
        "category": "교육,학문 > 학교부속시설",
        "distance": "995"
      },
      {
        "name": "서울시립대학교 자연과학관",
        "latitude": 37.5825408342904,
        "longitude": 127.059238278902,
        "address": "서울 동대문구 전농동 694",
        "road_address": "서울 동대문구 서울시립대로 163",
        "phone": "",
        "category": "교육,학문 > 학교부속시설",
        "distance": "854"
      },
      {
        "name": "한국불교대학대관음사",
        "latitude": 37.5814773645568,
        "longitude": 127.068139353338,
        "address": "서울 동대문구 전농동 1-168",
        "road_address": "서울 동대문구 한천로 231",
        "phone": "02-963-8228",
        "category": "교육,학문 > 학교 > 종교학교",
        "distance": "146"
      },
      {
        "name": "서울시립대학교 법학관",
        "latitude": 37.5820664335478,
        "longitude": 127.056538890157,
        "address": "서울 동대문구 전농동 694",
        "road_address": "서울 동대문구 서울시립대로 163",
        "phone": "02-6490-6114",
        "category": "교육,학문 > 학교부속시설",
        "distance": "1072"
      },
      {
        "name": "서울시립대학교 인문학관",
        "latitude": 37.583742697025286,
        "longitude": 127.06112767684647,
        "address": "서울 동대문구 전농동 694",
        "road_address": "서울 동대문구 서울시립대로 163",
        "phone": "",
        "category": "교육,학문 > 학교부속시설",
        "distance": "757"
      },
      {
        "name": "서울시립대학교 음악관",
        "latitude": 37.5834689392659,
        "longitude": 127.062572085953,
        "address": "서울 동대문구 전농동 694",
        "road_address": "서울 동대문구 서울시립대로 163",
        "phone": "",
        "category": "교육,학문 > 학교부속시설",
        "distance": "634"
      },
      {
        "name": "동국대학교사범대학 부속중학교",
        "latitude": 37.5780084578762,
        "longitude": 127.075667885359,
        "address": "서울 동대문구 장안동 328",
        "road_address": "서울 동대문구 장안벚꽃로 201",
        "phone": "02-6716-1700",
        "category": "교육,학문 > 학교 > 중학교",
        "distance": "681"
      },
      {
        "name": "서울시립대학교 21세기관",
        "latitude": 37.5830276779716,
        "longitude": 127.058622774617,
        "address": "서울 동대문구 전농동 694",
        "road_address": "서울 동대문구 서울시립대로 163",
        "phone": "",
        "category": "교육,학문 > 학교부속시설",
        "distance": "923"
      },
      {
        "name": "서울시립대학교 배봉관",
        "latitude": 37.5847210271573,
        "longitude": 127.059656647424,
        "address": "서울 동대문구 전농동 694",
        "road_address": "서울 동대문구 서울시립대로 163",
        "phone": "",
        "category": "교육,학문 > 학교부속시설",
        "distance": "925"
      },
      {
        "name": "서울시립대학교 대강당",
        "latitude": 37.5830559466483,
        "longitude": 127.059745890816,
        "address": "서울 동대문구 전농동 694",
        "road_address": "서울 동대문구 서울시립대로 163",
        "phone": "",
        "category": "교육,학문 > 학교부속시설",
        "distance": "832"
      }
    ]
  }
}