{
  "key": "3d5caca75da4f63a5129b9571810c3fb63230e1790bf6866675570379ffd18cb",
  "tool": "PlaceSearch_kakao",
  "created_at": "2025-10-27T04:08:00.699728",
  "input_params": {
    "keyword": "맛집",
    "radius": 1000,
    "sort": "accuracy",
    "x": 127.0,
    "y": 37.5
  },
  "raw_args": {
    "keyword": "맛집",
    "x": 127.0,
    "y": 37.5,
    "radius": 1000
  },
  "data": {
    "keyword": "맛집",
    "total_count": 690,
    "places": [
      {
        "name": "톰볼라 서래점",
        "latitude": 37.4988383643273,
        "longitude": 126.997471355237,
        "address": "서울 서초구 반포동 106-8",
        "road_address": "서울 서초구 서래로7길 16",
        "phone": "02-593-4660",
        "category": "음식점 > 양식 > 이탈리안",
        "distance": "258"
      },
      {
        "name": "서래오뎅",
        "latitude": 37.4992023935797,
        "longitude": 126.99898672777,
        "address": "서울 서초구 반포동 92-4",
        "road_address": "서울 서초구 사평대로26길 22",
        "phone": "02-591-5505",
        "category": "음식점 > 술집 > 오뎅바",
        "distance": "125"
      },
      {
        "name": "밴건디스테이크하우스",
        "latitude": 37.4993321209982,
        "longitude": 126.997729180628,
        "address": "서울 서초구 반포동 94-14",
        "road_address": "서울 서초구 사평대로22길 5",
        "phone": "02-595-6062",
        "category": "음식점 > 양식 > 스테이크,립",
        "distance": "214"
      },
      {
        "name": "수다 서래점",
        "latitude": 37.4995528792744,
        "longitude": 126.99845746676186,
        "address": "서울 서초구 반포동 93-7",
        "road_address": "서울 서초구 서래로 50",
        "phone": "02-591-3584",
        "category": "음식점 > 술집 > 일본식주점",
        "distance": "145"
      },
      {
        "name": "마얘",
        "latitude": 37.4989176562548,
        "longitude": 126.997634199268,
        "address": "서울 서초구 반포동 106-6",
        "road_address": "서울 서초구 사평대로22길 14",
        "phone": "",
        "category": "음식점 > 카페 > 테마카페 > 디저트카페",
        "distance": "241"
      },
      {
        "name": "육갑식당 서래마을 직영점",
        "latitude": 37.498122077129985,
        "longitude": 126.99816799401256,
        "address": "서울 서초구 반포동 95-7",
        "road_address": "서울 서초구 서래로 33",
        "phone": "02-533-9282",
        "category": "음식점 > 한식 > 육류,고기",
        "distance": "263"
      },
      {
        "name": "산들해 반포점",
        "latitude": 37.5045111212843,
        "longitude": 127.00085048512,
        "address": "서울 서초구 반포동 18-3",
        "road_address": "서울 서초구 반포대로 287",
        "phone": "02-537-0113",
        "category": "음식점 > 한식 > 한정식",
        "distance": "506"
      },
      {
        "name": "서래쭈꾸미 서래본점",
        "latitude": 37.49798061578946,
        "longitude": 126.99796444163157,
        "address": "서울 서초구 반포동 95-10",
        "road_address": "서울 서초구 서래로5길 6",
        "phone": "02-599-5118",
        "category": "음식점 > 한식 > 해물,생선",
        "distance": "287"
      },
      {
        "name": "나무그린차돌가",
        "latitude": 37.49987274224783,
        "longitude": 126.99899350407772,
        "address": "서울 서초구 반포동 535-28",
        "road_address": "서울 서초구 사평대로26길 5",
        "phone": "02-599-3530",
        "category": "음식점 > 한식 > 육류,고기",
        "distance": "89"
      },
      {
        "name": "우와정",
        "latitude": 37.4997574106139,
        "longitude": 126.998701735346,
        "address": "서울 서초구 반포동 93-3",
        "road_address": "서울 서초구 사평대로26길 8",
        "phone": "",
        "category": "음식점 > 한식 > 육류,고기",
        "distance": "117"
      },
      {
        "name": "볼라레",
        "latitude": 37.4990870287234,
        "longitude": 126.99691042916,
        "address": "서울 서초구 반포동 107-2",
        "road_address": "서울 서초구 사평대로20길 8",
        "phone": "02-537-1100",
        "category": "음식점 > 양식 > 이탈리안",
        "distance": "291"
      },
      {
        "name": "오뗄두스 서래점",
        "latitude": 37.499523151089605,
        "longitude": 126.9989075612043,
        "address": "서울 서초구 반포동 93-5",
        "road_address": "서울 서초구 서래로10길 9",
        "phone": "02-595-5705",
        "category": "음식점 > 카페 > 테마카페 > 디저트카페",
        "distance": "109"
      },
      {
        "name": "에릭스 뉴욕스테이크하우스 서래점",
        "latitude": 37.49792384984272,
        "longitude": 126.99782195419452,
        "address": "서울 서초구 반포동 95-11",
        "road_address": "서울 서초구 사평대로22길 37",
        "phone": "02-535-9845",
        "category": "음식점 > 양식 > 스테이크,립",
        "distance": "300"
      },
      {
        "name": "포폴라리타",
        "latitude": 37.497692290889454,
        "longitude": 126.99780612886006,
        "address": "서울 서초구 반포동 96-1",
        "road_address": "서울 서초구 사평대로22길 41",
        "phone": "02-593-2340",
        "category": "음식점 > 양식 > 이탈리안",
        "distance": "321"
      },
      {
        "name": "JW메리어트호텔서울 플레이버즈",
        "latitude": 37.504038004397266,
        "longitude": 127.00466406715701,
        "address": "서울 서초구 반포동 19-3",
        "road_address": "서울 서초구 신반포로 176",
        "phone": "02-6282-6730",
        "category": "음식점 > 뷔페",
        "distance": "609"
      }
    ]
  }
}