{
  "key": "64a194cef7ef021c50cc0d058c3e6e737fc8af8c82f9943179b7cb45f05295c0",
  "tool": "PlaceSearch_kakao",
  "created_at": "2025-10-27T13:46:21.346208",
  "input_params": {
    "keyword": "강남역",
    "page": 1,
    "size": 5,
    "sort": "accuracy"
  },
  "raw_args": {
    "keyword": "강남역",
    "page": 1,
    "size": 5,
    "sort": "accuracy"
  },
  "data": {
    "keyword": "강남역",
    "total_count": 2540,
    "places": [
      {
        "name": "강남역 2호선",
        "latitude": 37.49808633653005,
        "longitude": 127.02800140627488,
        "address": "서울 강남구 역삼동 858",
        "road_address": "서울 강남구 강남대로 지하 396",
        "phone": "02-6110-2221",
        "category": "교통,수송 > 지하철,전철 > 수도권2호선",
        "distance": ""
      },
      {
        "name": "강남역 신분당선",
        "latitude": 37.4967771303817,
        "longitude": 127.028185245594,
        "address": "서울 강남구 역삼동 858",
        "road_address": "서울 강남구 강남대로 지하 396",
        "phone": "02-810-5840",
        "category": "교통,수송 > 지하철,전철 > 신분당선",
        "distance": ""
      },
      {
        "name": "강남역센트럴푸르지오시티오피스텔",
        "latitude": 37.49773012417759,
        "longitude": 127.02929950278187,
        "address": "서울 강남구 역삼동 825-20",
        "road_address": "서울 강남구 테헤란로4길 6",
        "phone": "",
        "category": "부동산 > 주거시설 > 오피스텔",
        "distance": ""
      },
      {
        "name": "강남역사거리",
        "latitude": 37.4979521720737,
        "longitude": 127.027638348418,
        "address": "서울 강남구 역삼동",
        "road_address": "",
        "phone": "",
        "category": "교통,수송 > 도로시설 > 교차로",
        "distance": ""
      },
      {
        "name": "교보문고 강남점",
        "latitude": 37.503718471783074,
        "longitude": 127.02416053377571,
        "address": "서울 서초구 서초동 1303-22",
        "road_address": "서울 서초구 강남대로 465",
        "phone": "1544-1900",
        "category": "문화,예술 > 도서 > 서점 > 교보문고",
        "distance": ""
      }
    ]
  }
}