{
  "key": "9db5f99ff5239e910efd47d9ba81c2520d281ec647d3d7285b2cbfe4cdcb30d1",
  "tool": "PlaceSearch_kakao",
  "created_at": "2025-10-20T23:40:06.406797",
  "input_params": {
    "keyword": "스타벅스",
    "radius": 1000,
    "sort": "distance",
    "x": 126.978,
    "y": 37.5668
  },
  "raw_args": {
    "keyword": "스타벅스",
    "x": 126.978,
    "y": 37.5668,
    "radius": 1000,
    "sort": "distance"
  },
  "data": {
    "keyword": "스타벅스",
    "total_count": 55,
    "places": [
      {
        "name": "스타벅스 한국프레스센터점",
        "latitude": 37.567409708254644,
        "longitude": 126.97788238985001,
        "address": "서울 중구 태평로1가 25",
        "road_address": "서울 중구 세종대로 124",
        "phone": "1522-3232",
        "category": "음식점 > 카페 > 커피전문점 > 스타벅스",
        "distance": "68"
      },
      {
        "name": "스타벅스 무교로점",
        "latitude": 37.5672801553634,
        "longitude": 126.978923787718,
        "address": "서울 중구 무교동 32-2",
        "road_address": "서울 중구 무교로 15",
        "phone": "1522-3232",
        "category": "음식점 > 카페 > 커피전문점 > 스타벅스",
        "distance": "97"
      },
      {
        "name": "스타벅스 무교동점",
        "latitude": 37.5679865311548,
        "longitude": 126.978896422532,
        "address": "서울 중구 무교동 45",
        "road_address": "서울 중구 무교로 21",
        "phone": "1522-3232",
        "category": "음식점 > 카페 > 커피전문점 > 스타벅스",
        "distance": "153"
      },
      {
        "name": "스타벅스 시청점",
        "latitude": 37.566351383923966,
        "longitude": 126.97981258973314,
        "address": "서울 중구 을지로1가 50",
        "road_address": "서울 중구 을지로 19",
        "phone": "1522-3232",
        "category": "음식점 > 카페 > 커피전문점 > 스타벅스",
        "distance": "167"
      },
      {
        "name": "스타벅스 세종대로점",
        "latitude": 37.5685951382056,
        "longitude": 126.97643316578,
        "address": "서울 중구 태평로1가 62-12",
        "road_address": "서울 중구 세종대로 135-5",
        "phone": "1522-3232",
        "category": "음식점 > 카페 > 커피전문점 > 스타벅스",
        "distance": "242"
      },
      {
        "name": "스타벅스아카데미",
        "latitude": 37.56465288529272,
        "longitude": 126.97911694629433,
        "address": "서울 중구 소공동 87-10",
        "road_address": "",
        "phone": "",
        "category": "교육,학문 > 직업전문교육",
        "distance": "258"
      },
      {
        "name": "스타벅스 환구단점",
        "latitude": 37.564473589052284,
        "longitude": 126.97912831504493,
        "address": "서울 중구 소공동 87-1",
        "road_address": "서울 중구 소공로 112",
        "phone": "1522-3232",
        "category": "음식점 > 카페 > 커피전문점 > 스타벅스",
        "distance": "276"
      },
      {
        "name": "스타벅스 광화문우체국점",
        "latitude": 37.5699721725557,
        "longitude": 126.978058216854,
        "address": "서울 종로구 종로1가 89-3",
        "road_address": "서울 종로구 종로 6",
        "phone": "1522-3232",
        "category": "음식점 > 카페 > 커피전문점 > 스타벅스",
        "distance": "352"
      },
      {
        "name": "스타벅스 을지로국제빌딩점",
        "latitude": 37.5670482592095,
        "longitude": 126.98234221842628,
        "address": "서울 중구 다동 111",
        "road_address": "서울 중구 남대문로 109",
        "phone": "1522-3232",
        "category": "음식점 > 카페 > 커피전문점 > 스타벅스",
        "distance": "384"
      },
      {
        "name": "스타벅스 소공로점",
        "latitude": 37.5638855205458,
        "longitude": 126.980790051363,
        "address": "서울 중구 소공동 70",
        "road_address": "서울 중구 남대문로7길 19",
        "phone": "1522-3232",
        "category": "음식점 > 카페 > 커피전문점 > 스타벅스",
        "distance": "406"
      },
      {
        "name": "스타벅스 시청역11번출구점",
        "latitude": 37.5637763811175,
        "longitude": 126.975305087991,
        "address": "서울 중구 서소문동 26",
        "road_address": "서울 중구 서소문로 129",
        "phone": "1522-3232",
        "category": "음식점 > 카페 > 커피전문점 > 스타벅스",
        "distance": "411"
      },
      {
        "name": "스타벅스 새문안로점",
        "latitude": 37.56978599622706,
        "longitude": 126.97517406163408,
        "address": "서울 종로구 신문로1가 163",
        "road_address": "서울 종로구 새문안로 92",
        "phone": "1522-3232",
        "category": "음식점 > 카페 > 커피전문점 > 스타벅스",
        "distance": "415"
      },
      {
        "name": "스타벅스 을지로경기빌딩점",
        "latitude": 37.56711145251433,
        "longitude": 126.98318887220633,
        "address": "서울 중구 삼각동 115",
        "road_address": "서울 중구 남대문로10길 9",
        "phone": "1522-3232",
        "category": "음식점 > 카페 > 커피전문점 > 스타벅스",
        "distance": "459"
      },
      {
        "name": "스타벅스 광화문교보문고점",
        "latitude": 37.57097405292378,
        "longitude": 126.97791642688188,
        "address": "서울 종로구 종로1가 1",
        "road_address": "서울 종로구 종로 1",
        "phone": "1522-3232",
        "category": "음식점 > 카페 > 커피전문점 > 스타벅스",
        "distance": "463"
      },
      {
        "name": "스타벅스 태평로점",
        "latitude": 37.5625008559003,
        "longitude": 126.976711254608,
        "address": "서울 중구 태평로2가 69-7",
        "road_address": "서울 중구 세종대로 72",
        "phone": "1522-3232",
        "category": "음식점 > 카페 > 커피전문점 > 스타벅스",
        "distance": "490"
      }
    ]
  }
}