{
  "key": "871ee7c4053343720504b53e9e266a222c007c872628255a827f1fe29d4f0876",
  "tool": "PlaceSearch_kakao",
  "created_at": "2025-10-26T08:28:05.841954",
  "input_params": {
    "keyword": "주차장",
    "radius": 1000,
    "sort": "accuracy",
    "x": 126.9286,
    "y": 37.4935
  },
  "raw_args": {
    "keyword": "주차장",
    "x": 126.9286,
    "y": 37.4935,
    "radius": 1000,
    "sort": "accuracy"
  },
  "data": {
    "keyword": "주차장",
    "total_count": 81,
    "places": [
      {
        "name": "서울특별시 보라매병원 주차장",
        "latitude": 37.49469111140898,
        "longitude": 126.92426811679141,
        "address": "서울 동작구 신대방동 425",
        "road_address": "서울 동작구 보라매로5길 20",
        "phone": "",
        "category": "교통,수송 > 교통시설 > 주차장",
        "distance": "405"
      },
      {
        "name": "주차장",
        "latitude": 37.4916587880079,
        "longitude": 126.927893035396,
        "address": "서울 관악구 봉천동 728-23",
        "road_address": "",
        "phone": "",
        "category": "교통,수송 > 교통시설 > 주차장",
        "distance": "213"
      },
      {
        "name": "전문건설회관 주차장",
        "latitude": 37.49207095521952,
        "longitude": 126.92422440049647,
        "address": "서울 동작구 신대방동 395-70",
        "road_address": "서울 동작구 보라매로5길 15",
        "phone": "",
        "category": "교통,수송 > 교통시설 > 주차장",
        "distance": "418"
      },
      {
        "name": "보라매우성아파트 주차장",
        "latitude": 37.4923888322471,
        "longitude": 126.92535938368,
        "address": "서울 동작구 신대방동 706",
        "road_address": "서울 관악구 보라매로5길 5",
        "phone": "",
        "category": "교통,수송 > 교통시설 > 주차장",
        "distance": "312"
      },
      {
        "name": "월화고기 보라매직영점 주차장",
        "latitude": 37.4915604693016,
        "longitude": 126.926256907572,
        "address": "서울 관악구 봉천동 732-3",
        "road_address": "서울 관악구 보라매로3길 16",
        "phone": "",
        "category": "교통,수송 > 교통시설 > 주차장",
        "distance": "299"
      },
      {
        "name": "빙수골 거주자 우선주차장",
        "latitude": 37.4953228849734,
        "longitude": 126.931946914487,
        "address": "서울 동작구 상도동 299-16",
        "road_address": "서울 동작구 국사봉12길 11",
        "phone": "",
        "category": "교통,수송 > 교통시설 > 주차장",
        "distance": "358"
      },
      {
        "name": "대교타워 주차장",
        "latitude": 37.4910401166802,
        "longitude": 126.925505463159,
        "address": "서울 관악구 봉천동 729-21",
        "road_address": "서울 관악구 보라매로3길 23",
        "phone": "",
        "category": "교통,수송 > 교통시설 > 주차장",
        "distance": "386"
      },
      {
        "name": "보라매샤르망 주차장",
        "latitude": 37.4900328943613,
        "longitude": 126.92711664529,
        "address": "서울 관악구 봉천동 972-5",
        "road_address": "서울 관악구 봉천로 227",
        "phone": "",
        "category": "교통,수송 > 교통시설 > 주차장",
        "distance": "406"
      },
      {
        "name": "신성하이츠 주차장",
        "latitude": 37.4954084189637,
        "longitude": 126.930295829805,
        "address": "서울 동작구 상도동 299-68",
        "road_address": "",
        "phone": "",
        "category": "교통,수송 > 교통시설 > 주차장",
        "distance": "259"
      },
      {
        "name": "보라매공원 동문주차장",
        "latitude": 37.49372707213066,
        "longitude": 126.92293361380194,
        "address": "서울 동작구 신대방동 722",
        "road_address": "",
        "phone": "070-7204-3271",
        "category": "교통,수송 > 교통시설 > 주차장 > 공영주차장",
        "distance": "501"
      },
      {
        "name": "해태보라매타워 주차장",
        "latitude": 37.4912236029749,
        "longitude": 126.925000960355,
        "address": "서울 관악구 봉천동 729-32",
        "road_address": "서울 관악구 보라매로3길 29",
        "phone": "",
        "category": "교통,수송 > 교통시설 > 주차장",
        "distance": "406"
      },
      {
        "name": "빙수골 장미 공영주차장",
        "latitude": 37.493222928414355,
        "longitude": 126.9340475731989,
        "address": "서울 동작구 상도동 301-132",
        "road_address": "",
        "phone": "",
        "category": "교통,수송 > 교통시설 > 주차장 > 공영주차장",
        "distance": "482"
      },
      {
        "name": "아카데미타워 주차장",
        "latitude": 37.49126718111225,
        "longitude": 126.92410648223516,
        "address": "서울 동작구 신대방동 395-69",
        "road_address": "서울 동작구 보라매로5가길 16",
        "phone": "",
        "category": "교통,수송 > 교통시설 > 주차장",
        "distance": "468"
      },
      {
        "name": "정도주택 주차장",
        "latitude": 37.4955055644959,
        "longitude": 126.931557743815,
        "address": "서울 동작구 상도동 299-140",
        "road_address": "서울 동작구 국사봉12길 6",
        "phone": "",
        "category": "교통,수송 > 교통시설 > 주차장",
        "distance": "343"
      },
      {
        "name": "삼성보라매옴니타워 주차장",
        "latitude": 37.4924812825807,
        "longitude": 126.923399645462,
        "address": "서울 동작구 신대방동 395-62",
        "road_address": "서울 동작구 보라매로5길 23",
        "phone": "",
        "category": "교통,수송 > 교통시설 > 주차장",
        "distance": "473"
      }
    ]
  }
}