{
  "key": "6e8b11c4076e50f7d4379a5c4e81d09ac8cca5bf06a9f2eb130b3e66c3c12d74",
  "tool": "PlaceSearch_kakao",
  "created_at": "2025-10-27T07:37:44.609800",
  "input_params": {
    "keyword": "카페",
    "radius": 500,
    "size": 5,
    "sort": "accuracy",
    "x": 127.0276368,
    "y": 37.4979502
  },
  "raw_args": {
    "keyword": "카페",
    "x": 127.0276368,
    "y": 37.4979502,
    "radius": 500,
    "size": 5,
    "sort": "accuracy"
  },
  "data": {
    "keyword": "카페",
    "total_count": 236,
    "places": [
      {
        "name": "할리스 강남역점",
        "latitude": 37.49871619356776,
        "longitude": 127.02777433522404,
        "address": "서울 강남구 역삼동 820-11",
        "road_address": "서울 강남구 강남대로 402",
        "phone": "02-555-0890",
        "category": "음식점 > 카페 > 커피전문점 > 할리스",
        "distance": "86"
      },
      {
        "name": "스타벅스 강남비젼타워점",
        "latitude": 37.49649026006633,
        "longitude": 127.0296167853337,
        "address": "서울 강남구 역삼동 826-26",
        "road_address": "서울 강남구 테헤란로2길 27",
        "phone": "1522-3232",
        "category": "음식점 > 카페 > 커피전문점 > 스타벅스",
        "distance": "238"
      },
      {
        "name": "셀렉티드닉스",
        "latitude": 37.4962223486255,
        "longitude": 127.030837985875,
        "address": "서울 강남구 역삼동 827-13",
        "road_address": "서울 강남구 테헤란로4길 37",
        "phone": "",
        "category": "음식점 > 카페",
        "distance": "341"
      },
      {
        "name": "스타벅스 몬테소리점",
        "latitude": 37.4983415831768,
        "longitude": 127.026874023027,
        "address": "서울 서초구 서초동 1318-8",
        "road_address": "서울 서초구 강남대로 399",
        "phone": "1522-3232",
        "category": "음식점 > 카페 > 커피전문점 > 스타벅스",
        "distance": "80"
      },
      {
        "name": "셀렉티드마롱",
        "latitude": 37.4961925947187,
        "longitude": 127.030917132353,
        "address": "서울 강남구 역삼동 827-13",
        "road_address": "서울 강남구 테헤란로4길 37",
        "phone": "070-4284-5104",
        "category": "음식점 > 카페",
        "distance": "349"
      }
    ]
  }
}