{
  "key": "675fb3bc9fdf5161e7e72523d0b2240f0bea132e20a4fb23eda13d9946b4d300",
  "tool": "PlaceSearch_kakao",
  "created_at": "2025-10-27T04:07:10.324047",
  "input_params": {
    "keyword": "맛집",
    "radius": 1000,
    "sort": "accuracy",
    "x": 127.0,
    "y": 37.5665
  },
  "raw_args": {
    "keyword": "맛집",
    "x": 127.0,
    "y": 37.5665,
    "radius": 1000
  },
  "data": {
    "keyword": "맛집",
    "total_count": 2871,
    "places": [
      {
        "name": "황평집",
        "latitude": 37.5640672191679,
        "longitude": 126.996129025206,
        "address": "서울 중구 인현동2가 135-13",
        "road_address": "서울 중구 마른내로 74",
        "phone": "02-2266-6875",
        "category": "음식점 > 한식 > 육류,고기 > 닭요리",
        "distance": "435"
      },
      {
        "name": "챔프커피 을지로",
        "latitude": 37.566753967970634,
        "longitude": 126.99551765767906,
        "address": "서울 중구 산림동 207-2",
        "road_address": "서울 중구 을지로 157",
        "phone": "",
        "category": "음식점 > 카페 > 커피전문점",
        "distance": "397"
      },
      {
        "name": "은주정",
        "latitude": 37.56867047080973,
        "longitude": 126.99975663427007,
        "address": "서울 중구 주교동 43-23",
        "road_address": "서울 중구 창경궁로8길 32",
        "phone": "02-2265-4669",
        "category": "음식점 > 한식 > 육류,고기 > 삼겹살",
        "distance": "241"
      },
      {
        "name": "은성회집",
        "latitude": 37.5704030852927,
        "longitude": 127.0001494187,
        "address": "서울 종로구 종로4가 165-2",
        "road_address": "서울 종로구 창경궁로 88",
        "phone": "02-2267-6813",
        "category": "음식점 > 한식 > 해물,생선 > 회",
        "distance": "433"
      },
      {
        "name": "파르투내",
        "latitude": 37.5646113781936,
        "longitude": 127.005007402647,
        "address": "서울 중구 광희동1가 250-1",
        "road_address": "서울 중구 마른내로 154",
        "phone": "02-2278-7770",
        "category": "음식점 > 아시아음식",
        "distance": "489"
      },
      {
        "name": "오장갈비",
        "latitude": 37.5646331082845,
        "longitude": 127.000045274901,
        "address": "서울 중구 오장동 69-5",
        "road_address": "서울 중구 마른내로 109",
        "phone": "",
        "category": "음식점 > 한식 > 육류,고기 > 갈비",
        "distance": "207"
      },
      {
        "name": "우래옥 본점",
        "latitude": 37.56821185731751,
        "longitude": 126.99871865898974,
        "address": "서울 중구 주교동 118-1",
        "road_address": "서울 중구 창경궁로 62-29",
        "phone": "02-2265-0151",
        "category": "음식점 > 한식 > 냉면",
        "distance": "221"
      },
      {
        "name": "호랑이",
        "latitude": 37.5674657521006,
        "longitude": 126.99544970010409,
        "address": "서울 중구 산림동 207-2",
        "road_address": "서울 중구 을지로 157",
        "phone": "02-2269-5880",
        "category": "음식점 > 카페",
        "distance": "416"
      },
      {
        "name": "문화옥",
        "latitude": 37.56807850687044,
        "longitude": 126.99846058244935,
        "address": "서울 중구 주교동 118-3",
        "road_address": "서울 중구 창경궁로 62-5",
        "phone": "02-2265-0322",
        "category": "음식점 > 한식 > 설렁탕",
        "distance": "221"
      },
      {
        "name": "문경식당",
        "latitude": 37.56586285351958,
        "longitude": 126.99480009208969,
        "address": "서울 중구 인현동1가 27-2",
        "road_address": "서울 중구 을지로18길 11",
        "phone": "02-2279-0610",
        "category": "음식점 > 한식 > 육류,고기",
        "distance": "464"
      },
      {
        "name": "원조누드김밥",
        "latitude": 37.57001835564344,
        "longitude": 126.9989450188481,
        "address": "서울 종로구 예지동 2-1",
        "road_address": "서울 종로구 창경궁로 88",
        "phone": "",
        "category": "음식점 > 분식",
        "distance": "401"
      },
      {
        "name": "을지로 산수갑산 을지로점",
        "latitude": 37.56537903946138,
        "longitude": 126.99529702271732,
        "address": "서울 중구 인현동1가 15-4",
        "road_address": "서울 중구 을지로20길 24",
        "phone": "",
        "category": "음식점 > 한식 > 순대",
        "distance": "433"
      },
      {
        "name": "부촌육회",
        "latitude": 37.5703778574977,
        "longitude": 126.999932082432,
        "address": "서울 종로구 종로4가 165-11",
        "road_address": "서울 종로구 종로 200-12",
        "phone": "02-2267-1831",
        "category": "음식점 > 한식 > 육류,고기",
        "distance": "430"
      },
      {
        "name": "지하식당",
        "latitude": 37.5657359275334,
        "longitude": 127.0001131889223,
        "address": "서울 중구 오장동 44-1",
        "road_address": "서울 중구 을지로32길 24",
        "phone": "010-5255-2189",
        "category": "음식점 > 한식",
        "distance": "85"
      },
      {
        "name": "수잔나의앞치마",
        "latitude": 37.5633050390399,
        "longitude": 126.999609510907,
        "address": "서울 중구 충무로5가 36-12",
        "road_address": "서울 중구 퇴계로49길 24",
        "phone": "02-2272-8007",
        "category": "음식점 > 카페",
        "distance": "356"
      }
    ]
  }
}