{
  "key": "6778b8e19dd8f24efb8f6d41619b538c3189f2cb174fa83e42a7f23fc0f7a8d7",
  "tool": "PlaceSearch_kakao",
  "created_at": "2025-10-27T17:23:37.259339",
  "input_params": {
    "keyword": "디저트 카페",
    "page": 1,
    "radius": 500,
    "size": 5,
    "sort": "distance",
    "x": 127.0104,
    "y": 37.4979
  },
  "raw_args": {
    "size": 5,
    "x": 127.0104,
    "y": 37.4979,
    "page": 1,
    "sort": "distance",
    "keyword": "디저트 카페",
    "radius": 500
  },
  "data": {
    "keyword": "디저트 카페",
    "total_count": 7,
    "places": [
      {
        "name": "더커피컴퍼니",
        "latitude": 37.4989189947806,
        "longitude": 127.010728657702,
        "address": "서울 서초구 반포동 45-2",
        "road_address": "서울 서초구 서초중앙로29길 16",
        "phone": "070-7756-3016",
        "category": "음식점 > 카페",
        "distance": "116"
      },
      {
        "name": "곤트란쉐리에 서초동점",
        "latitude": 37.4967012712208,
        "longitude": 127.01403606633,
        "address": "서울 서초구 서초동 1698-2",
        "road_address": "서울 서초구 서초중앙로28길 8",
        "phone": "",
        "category": "음식점 > 카페 > 테마카페 > 디저트카페",
        "distance": "348"
      },
      {
        "name": "카페힐",
        "latitude": 37.4948624616127,
        "longitude": 127.012755635387,
        "address": "서울 서초구 서초동 1714",
        "road_address": "서울 서초구 서초중앙로 149-5",
        "phone": "02-593-1030",
        "category": "음식점 > 카페",
        "distance": "396"
      },
      {
        "name": "어니스크 서초점",
        "latitude": 37.4963399046197,
        "longitude": 127.014556185562,
        "address": "서울 서초구 서초동 1697-33",
        "road_address": "서울 서초구 서초대로53길 24",
        "phone": "0507-1387-5094",
        "category": "음식점 > 간식 > 제과,베이커리",
        "distance": "406"
      },
      {
        "name": "카페몽슈슈 교대점",
        "latitude": 37.494714586424095,
        "longitude": 127.01373715896379,
        "address": "서울 서초구 서초동 1694-17",
        "road_address": "서울 서초구 서초중앙로 146",
        "phone": "02-596-0864",
        "category": "음식점 > 카페 > 테마카페 > 디저트카페",
        "distance": "460"
      }
    ]
  }
}