{
  "key": "67f3884b950818149c5bf58d2a2cb3bd59ca9e2e76f1fe0ef92e5a5eb60d59ba",
  "tool": "PlaceSearch_kakao",
  "created_at": "2025-12-16T00:51:59.964754",
  "input_params": {
    "keyword": "맛집",
    "radius": 1000,
    "sort": "accuracy",
    "x": 127.123456,
    "y": 37.56789
  },
  "raw_args": {
    "keyword": "맛집",
    "x": 127.123456,
    "y": 37.56789,
    "radius": 1000
  },
  "data": {
    "keyword": "맛집",
    "total_count": 16,
    "places": [
      {
        "name": "양평해장국",
        "latitude": 37.5734102358037,
        "longitude": 127.122387867642,
        "address": "경기 구리시 아천동 145-6",
        "road_address": "경기 구리시 아차산로 188-4",
        "phone": "031-562-9145",
        "category": "음식점 > 한식 > 해장국",
        "distance": "619"
      },
      {
        "name": "아차산로59",
        "latitude": 37.5636798433504,
        "longitude": 127.114860941503,
        "address": "경기 구리시 아천동 300-11",
        "road_address": "경기 구리시 아차산로 59",
        "phone": "02-444-1957",
        "category": "음식점 > 카페",
        "distance": "891"
      },
      {
        "name": "묘향손만두",
        "latitude": 37.56399523547964,
        "longitude": 127.11481615123783,
        "address": "경기 구리시 아천동 300-8",
        "road_address": "경기 구리시 아차산로 63",
        "phone": "02-444-3515",
        "category": "음식점 > 한식",
        "distance": "877"
      },
      {
        "name": "오또상",
        "latitude": 37.5735518518169,
        "longitude": 127.121360237184,
        "address": "경기 구리시 아천동 149-30",
        "road_address": "경기 구리시 아치울길3번길 1",
        "phone": "031-565-2814",
        "category": "음식점 > 술집 > 일본식주점",
        "distance": "654"
      },
      {
        "name": "루나103",
        "latitude": 37.5676583553475,
        "longitude": 127.116986000291,
        "address": "경기 구리시 아천동 242-3",
        "road_address": "경기 구리시 아차산로 103",
        "phone": "070-8287-2353",
        "category": "음식점 > 카페",
        "distance": "572"
      },
      {
        "name": "고구려참숯구이",
        "latitude": 37.56304437469419,
        "longitude": 127.11420688963341,
        "address": "경기 구리시 아천동 302-15",
        "road_address": "경기 구리시 우미내길 6",
        "phone": "02-456-9788",
        "category": "음식점 > 한식 > 육류,고기 > 갈비",
        "distance": "978"
      },
      {
        "name": "카페비니 아치울점",
        "latitude": 37.574126212066,
        "longitude": 127.120061615395,
        "address": "경기 구리시 아천동 90-5",
        "road_address": "경기 구리시 아치울길 17",
        "phone": "031-562-0505",
        "category": "음식점 > 카페",
        "distance": "754"
      },
      {
        "name": "포트럭",
        "latitude": 37.5732516674805,
        "longitude": 127.121509174364,
        "address": "경기 구리시 아천동 149-24",
        "road_address": "경기 구리시 아치울길3번길 3",
        "phone": "",
        "category": "음식점 > 카페",
        "distance": "619"
      },
      {
        "name": "카라멜로",
        "latitude": 37.574451401356,
        "longitude": 127.120130058695,
        "address": "경기 구리시 아천동 87-8",
        "road_address": "경기 구리시 아치울길 20",
        "phone": "070-4035-0149",
        "category": "음식점 > 간식 > 제과,베이커리",
        "distance": "785"
      },
      {
        "name": "커피넘버7",
        "latitude": 37.57396299281461,
        "longitude": 127.12108016513122,
        "address": "경기 구리시 아천동 93",
        "road_address": "경기 구리시 아치울길 8",
        "phone": "",
        "category": "음식점 > 카페",
        "distance": "705"
      },
      {
        "name": "송도갈비 천지연 워커힐",
        "latitude": 37.56258098167148,
        "longitude": 127.114497065372,
        "address": "경기 구리시 아천동 314-3",
        "road_address": "경기 구리시 아차산로 47",
        "phone": "02-458-3111",
        "category": "음식점 > 한식 > 육류,고기",
        "distance": "986"
      },
      {
        "name": "우리집밥",
        "latitude": 37.574389085209,
        "longitude": 127.119387353777,
        "address": "경기 구리시 아천동 356-8",
        "road_address": "경기 구리시 아치울길 25-3",
        "phone": "031-563-5535",
        "category": "음식점 > 한식",
        "distance": "805"
      },
      {
        "name": "자연에서온추어탕",
        "latitude": 37.5628837554081,
        "longitude": 127.114456782297,
        "address": "경기 구리시 아천동 303-3",
        "road_address": "경기 구리시 우미내길 4-1",
        "phone": "02-3436-5575",
        "category": "음식점 > 한식 > 해물,생선 > 추어",
        "distance": "970"
      },
      {
        "name": "일석한우",
        "latitude": 37.5623520784919,
        "longitude": 127.114548779587,
        "address": "경기 구리시 아천동 313",
        "road_address": "경기 구리시 아차산로 45",
        "phone": "0503-7151-8354",
        "category": "음식점 > 한식 > 육류,고기",
        "distance": "998"
      },
      {
        "name": "아치울분식앤드비어",
        "latitude": 37.574451401356,
        "longitude": 127.120130058695,
        "address": "경기 구리시 아천동 87-8",
        "road_address": "경기 구리시 아치울길 20",
        "phone": "",
        "category": "음식점 > 술집 > 호프,요리주점",
        "distance": "785"
      }
    ]
  }
}