{
  "key": "2db97c62e5509ca5fb31e9c5851c6e2487345698aa065af5465157dbbfcbc783",
  "tool": "PlaceSearch_kakao",
  "created_at": "2025-10-27T09:01:55.320084",
  "input_params": {
    "keyword": "대학 캠퍼스",
    "radius": 3000,
    "size": 15,
    "sort": "distance",
    "x": 127.04773632414528,
    "y": 37.57997010526071
  },
  "raw_args": {
    "keyword": "대학 캠퍼스",
    "x": 127.04773632414528,
    "y": 37.57997010526071,
    "radius": 3000,
    "size": 15,
    "sort": "distance"
  },
  "data": {
    "keyword": "대학 캠퍼스",
    "total_count": 193,
    "places": [
      {
        "name": "서울시립대학교 캠퍼스타운사업단",
        "latitude": 37.5840562521389,
        "longitude": 127.055643719213,
        "address": "서울 동대문구 전농동 694",
        "road_address": "서울 동대문구 서울시립대로 163",
        "phone": "",
        "category": "교육,학문 > 학교부속시설",
        "distance": "832"
      },
      {
        "name": "경희대학교 행복기숙사 C동",
        "latitude": 37.59165014849029,
        "longitude": 127.04878548238662,
        "address": "서울 동대문구 회기동 60-113",
        "road_address": "서울 동대문구 회기로 111",
        "phone": "02-961-0376",
        "category": "부동산 > 주거시설 > 기숙사,기숙시설",
        "distance": "1299"
      },
      {
        "name": "KAIST 서울캠퍼스",
        "latitude": 37.5926754214934,
        "longitude": 127.04669593138594,
        "address": "서울 동대문구 청량리동 207-43",
        "road_address": "서울 동대문구 회기로 85",
        "phone": "",
        "category": "교육,학문 > 학교 > 대학교",
        "distance": "1413"
      },
      {
        "name": "고려대학교 서울캠퍼스 정문",
        "latitude": 37.58815247199953,
        "longitude": 127.03424727911144,
        "address": "서울 성북구 안암동5가 1-2",
        "road_address": "서울 성북구 안암로 145",
        "phone": "",
        "category": "교통,수송 > 입출구",
        "distance": "1497"
      },
      {
        "name": "고려대학교 서울캠퍼스 정문수위실",
        "latitude": 37.58854321081578,
        "longitude": 127.03432934973377,
        "address": "서울 성북구 안암동5가 1-2",
        "road_address": "서울 성북구 안암로 145",
        "phone": "02-3290-1710",
        "category": "교육,학문 > 학교부속시설",
        "distance": "1519"
      },
      {
        "name": "고려대학교 서울캠퍼스 미래교육원",
        "latitude": 37.5900843576129,
        "longitude": 127.03584728303,
        "address": "서울 성북구 안암동5가 1-2",
        "road_address": "서울 성북구 안암로 145",
        "phone": "",
        "category": "교육,학문 > 교육단체 > 평생교육원,사회교육원",
        "distance": "1537"
      },
      {
        "name": "고려대학교 캠퍼스타운 조성 추진단",
        "latitude": 37.5902735487641,
        "longitude": 127.035903986803,
        "address": "서울 성북구 안암동5가 1-2",
        "road_address": "서울 성북구 안암로 145",
        "phone": "02-3290-4663",
        "category": "교육,학문 > 학교부속시설",
        "distance": "1548"
      },
      {
        "name": "고려대학교 라이시움",
        "latitude": 37.5902519352802,
        "longitude": 127.03587000861,
        "address": "서울 성북구 종암동 29-47",
        "road_address": "서울 성북구 안암로 145",
        "phone": "02-3290-1465",
        "category": "교육,학문 > 교육단체 > 평생교육원,사회교육원",
        "distance": "1549"
      },
      {
        "name": "고려대학교 서울캠퍼스 진로진학상담센터",
        "latitude": 37.5902627444329,
        "longitude": 127.035879071882,
        "address": "서울 성북구 종암동 29-47",
        "road_address": "서울 성북구 안암로 145",
        "phone": "",
        "category": "의료,건강 > 상담",
        "distance": "1549"
      },
      {
        "name": "마마치킨 고려대점",
        "latitude": 37.58692736649561,
        "longitude": 127.03243215591655,
        "address": "서울 성북구 안암동5가 1-2",
        "road_address": "서울 성북구 안암로 145",
        "phone": "02-921-7979",
        "category": "음식점 > 치킨",
        "distance": "1556"
      },
      {
        "name": "공차 고려대중앙광장점",
        "latitude": 37.588062395145144,
        "longitude": 127.03323086854873,
        "address": "서울 성북구 안암동5가 1-2",
        "road_address": "서울 성북구 안암로 145",
        "phone": "02-925-9556",
        "category": "음식점 > 카페 > 공차",
        "distance": "1564"
      },
      {
        "name": "주식회사 디에스제이커피하우스",
        "latitude": 37.5870219868885,
        "longitude": 127.032373321976,
        "address": "서울 성북구 안암동5가 1-2",
        "road_address": "서울 성북구 안암로 145",
        "phone": "",
        "category": "음식점 > 카페 > 커피전문점",
        "distance": "1566"
      },
      {
        "name": "참이엔씨",
        "latitude": 37.5899674221991,
        "longitude": 127.035204105524,
        "address": "서울 성북구 종암동 29-26",
        "road_address": "서울 성북구 안암로 145",
        "phone": "",
        "category": "교육,학문",
        "distance": "1567"
      },
      {
        "name": "블루포트 고려대미래관점",
        "latitude": 37.587831816615136,
        "longitude": 127.0329612968029,
        "address": "서울 성북구 안암동5가 1-2",
        "road_address": "서울 성북구 안암로 145",
        "phone": "",
        "category": "음식점 > 카페",
        "distance": "1569"
      },
      {
        "name": "고려대학교 서울캠퍼스 SK미래관",
        "latitude": 37.58791380124884,
        "longitude": 127.03298171300432,
        "address": "서울 성북구 안암동5가 1-2",
        "road_address": "서울 성북구 안암로 145",
        "phone": "",
        "category": "교육,학문 > 학교부속시설",
        "distance": "1573"
      }
    ]
  }
}