{
  "key": "085304600dde57bfb154465976c3f0f0757fb5d4ef6831401da12905320c23f7",
  "tool": "PlaceSearch_kakao",
  "created_at": "2025-10-27T03:18:48.365134",
  "input_params": {
    "keyword": "병원",
    "page": 1,
    "radius": 500,
    "size": 10,
    "sort": "distance",
    "x": 127.0834,
    "y": 37.5665
  },
  "raw_args": {
    "keyword": "병원",
    "x": 127.0834,
    "y": 37.5665,
    "page": 1,
    "size": 10,
    "radius": 500,
    "sort": "distance"
  },
  "data": {
    "keyword": "병원",
    "total_count": 61,
    "places": [
      {
        "name": "주함외과의원",
        "latitude": 37.5656124477411,
        "longitude": 127.083850207458,
        "address": "서울 광진구 중곡동 166-4",
        "road_address": "서울 광진구 능동로 409",
        "phone": "02-466-1515",
        "category": "의료,건강 > 병원 > 항문외과",
        "distance": "106"
      },
      {
        "name": "크리스탈치과의원",
        "latitude": 37.5656025375986,
        "longitude": 127.08384906446344,
        "address": "서울 광진구 중곡동 166-4",
        "road_address": "서울 광진구 능동로 409",
        "phone": "02-457-4829",
        "category": "의료,건강 > 병원 > 치과",
        "distance": "107"
      },
      {
        "name": "착한수한의원",
        "latitude": 37.56630918106511,
        "longitude": 127.08474292371353,
        "address": "서울 광진구 중곡동 29-70",
        "road_address": "서울 광진구 능동로 420",
        "phone": "02-1670-2676",
        "category": "의료,건강 > 병원 > 한의원",
        "distance": "120"
      },
      {
        "name": "미소치과의원",
        "latitude": 37.5663037621005,
        "longitude": 127.084761027935,
        "address": "서울 광진구 중곡동 29-70",
        "road_address": "서울 광진구 능동로 420",
        "phone": "02-3409-2879",
        "category": "의료,건강 > 병원 > 치과",
        "distance": "122"
      },
      {
        "name": "드림펫동물병원",
        "latitude": 37.565435897695124,
        "longitude": 127.08378662404425,
        "address": "서울 광진구 중곡동 166-6",
        "road_address": "서울 광진구 능동로 407",
        "phone": "02-464-7588",
        "category": "가정,생활 > 반려동물 > 동물병원",
        "distance": "122"
      },
      {
        "name": "닥터스마일의원",
        "latitude": 37.5666049717729,
        "longitude": 127.081813896262,
        "address": "서울 광진구 중곡동 172-54",
        "road_address": "서울 광진구 능동로51길 44",
        "phone": "02-467-3650",
        "category": "의료,건강 > 병원 > 이비인후과",
        "distance": "140"
      },
      {
        "name": "인구보건복지협회 서울지회 가족보건의원",
        "latitude": 37.56504886525866,
        "longitude": 127.08322704257904,
        "address": "서울 광진구 중곡동 166-19",
        "road_address": "서울 광진구 긴고랑로13길 62",
        "phone": "02-467-8912",
        "category": "의료,건강 > 병원 > 일반의원",
        "distance": "161"
      },
      {
        "name": "유노치과의원",
        "latitude": 37.5669258607463,
        "longitude": 127.081619559226,
        "address": "서울 광진구 중곡동 173-6",
        "road_address": "서울 광진구 면목로 151-1",
        "phone": "02-2205-2875",
        "category": "의료,건강 > 병원 > 치과",
        "distance": "164"
      },
      {
        "name": "신혜성의원",
        "latitude": 37.5665331613581,
        "longitude": 127.081424443783,
        "address": "서울 광진구 중곡동 192-1",
        "road_address": "서울 광진구 면목로 147",
        "phone": "02-3409-5511",
        "category": "의료,건강 > 병원 > 일반의원",
        "distance": "174"
      },
      {
        "name": "서울다은치과의원",
        "latitude": 37.56653316135807,
        "longitude": 127.08142444378329,
        "address": "서울 광진구 중곡동 192-1",
        "road_address": "서울 광진구 면목로 147",
        "phone": "02-467-2080",
        "category": "의료,건강 > 병원 > 치과",
        "distance": "174"
      }
    ]
  }
}