{
  "key": "08a8974fe3f940ca837b4fe10e2892608b0523c80fc3d71b8ef31a5400a53989",
  "tool": "PlaceSearch_kakao",
  "created_at": "2025-10-26T08:26:31.887425",
  "input_params": {
    "keyword": "맛집",
    "radius": 1000,
    "sort": "accuracy",
    "x": 126.9485,
    "y": 37.4684
  },
  "raw_args": {
    "keyword": "맛집",
    "radius": 1000,
    "x": 126.9485,
    "y": 37.4684
  },
  "data": {
    "keyword": "맛집",
    "total_count": 230,
    "places": [
      {
        "name": "노랑통닭 관악산점",
        "latitude": 37.46844448316601,
        "longitude": 126.94500277509664,
        "address": "서울 관악구 신림동 210",
        "road_address": "서울 관악구 신림로 21",
        "phone": "070-4155-5121",
        "category": "음식점 > 치킨 > 노랑통닭",
        "distance": "309"
      },
      {
        "name": "이디야커피 관악산으뜸점",
        "latitude": 37.4684147719057,
        "longitude": 126.945050274507,
        "address": "서울 관악구 신림동 210",
        "road_address": "서울 관악구 신림로 21",
        "phone": "02-741-7779",
        "category": "음식점 > 카페 > 커피전문점 > 이디야커피",
        "distance": "304"
      },
      {
        "name": "더로스터59",
        "latitude": 37.46492560599426,
        "longitude": 126.95231091846706,
        "address": "서울 관악구 신림동 산 56-1",
        "road_address": "서울 관악구 관악로 1",
        "phone": "",
        "category": "음식점 > 카페 > 커피전문점",
        "distance": "512"
      },
      {
        "name": "바르다김선생 관악산점",
        "latitude": 37.46847236551668,
        "longitude": 126.94489762552027,
        "address": "서울 관악구 신림동 210",
        "road_address": "서울 관악구 신림로 21",
        "phone": "070-4155-5120",
        "category": "음식점 > 분식 > 바르다김선생",
        "distance": "318"
      },
      {
        "name": "스누코스카페",
        "latitude": 37.466373026573635,
        "longitude": 126.95330361136078,
        "address": "서울 관악구 신림동 산 56-1",
        "road_address": "서울 관악구 관악로 1",
        "phone": "",
        "category": "음식점 > 카페",
        "distance": "480"
      },
      {
        "name": "성빈각",
        "latitude": 37.4687711470107,
        "longitude": 126.94414341243,
        "address": "서울 관악구 신림동 220-23",
        "road_address": "서울 관악구 신림로3가길 10",
        "phone": "02-887-8377",
        "category": "음식점 > 중식 > 중국요리",
        "distance": "387"
      },
      {
        "name": "사르샤",
        "latitude": 37.4649857590704,
        "longitude": 126.9517818678,
        "address": "서울 관악구 신림동 산 56-1",
        "road_address": "서울 관악구 관악로 1",
        "phone": "02-878-8992",
        "category": "음식점 > 한식",
        "distance": "477"
      },
      {
        "name": "화로상회 서울대점",
        "latitude": 37.4703043967638,
        "longitude": 126.939918915827,
        "address": "서울 관악구 신림동 238",
        "road_address": "서울 관악구 신림로 85",
        "phone": "02-876-2292",
        "category": "음식점 > 한식 > 육류,고기",
        "distance": "787"
      },
      {
        "name": "연희국시",
        "latitude": 37.4675533647338,
        "longitude": 126.944962733254,
        "address": "서울 관악구 신림동 209-1",
        "road_address": "서울 관악구 신림로3길 35",
        "phone": "",
        "category": "음식점 > 한식 > 국수 > 칼국수",
        "distance": "326"
      },
      {
        "name": "토담",
        "latitude": 37.4687351685027,
        "longitude": 126.94427456849,
        "address": "서울 관악구 신림동 220",
        "road_address": "서울 관악구 신림로3가길 8",
        "phone": "02-888-7262",
        "category": "음식점 > 한식",
        "distance": "375"
      },
      {
        "name": "느티나무 동원관점",
        "latitude": 37.4649758788259,
        "longitude": 126.951857608825,
        "address": "서울 관악구 신림동 산 56-1",
        "road_address": "서울 관악구 관악로 1",
        "phone": "",
        "category": "음식점 > 카페",
        "distance": "482"
      },
      {
        "name": "포포인 서울대학교점",
        "latitude": 37.46638309913772,
        "longitude": 126.95371393650149,
        "address": "서울 관악구 신림동 산 56-1",
        "road_address": "서울 관악구 관악로 1",
        "phone": "02-878-5060",
        "category": "음식점 > 아시아음식 > 동남아음식 > 베트남음식",
        "distance": "512"
      },
      {
        "name": "강여사집밥",
        "latitude": 37.46898130158295,
        "longitude": 126.95292103451109,
        "address": "서울 관악구 신림동 산 56-1",
        "road_address": "서울 관악구 관악로 1",
        "phone": "",
        "category": "음식점 > 한식",
        "distance": "396"
      },
      {
        "name": "프레퍼스 서울대동원관점",
        "latitude": 37.4650749069785,
        "longitude": 126.951654078756,
        "address": "서울 관악구 신림동 산 56-1",
        "road_address": "서울 관악구 관악로 1",
        "phone": "",
        "category": "음식점 > 샐러드",
        "distance": "462"
      },
      {
        "name": "박막례청진동해장국",
        "latitude": 37.4746170020284,
        "longitude": 126.952622435661,
        "address": "서울 관악구 봉천동 1592-9",
        "road_address": "서울 관악구 관악로 105",
        "phone": "02-875-9882",
        "category": "음식점 > 한식 > 해장국",
        "distance": "780"
      }
    ]
  }
}