{
  "key": "8312da3c4934a326218f607801b015e449197bae88bdb82973c52a0cabbbc73f",
  "tool": "PlaceSearch_kakao",
  "created_at": "2025-10-27T09:04:21.139100",
  "input_params": {
    "keyword": "맛집",
    "page": 1,
    "radius": 1000,
    "size": 10,
    "sort": "accuracy",
    "x": 126.97433,
    "y": 37.49119
  },
  "raw_args": {
    "keyword": "맛집",
    "radius": 1000,
    "x": 126.97433,
    "y": 37.49119,
    "page": 1,
    "size": 10
  },
  "data": {
    "keyword": "맛집",
    "total_count": 849,
    "places": [
      {
        "name": "소문난순대국",
        "latitude": 37.4897150466601,
        "longitude": 126.980863337009,
        "address": "서울 동작구 사당동 77-65",
        "road_address": "서울 동작구 동작대로29나길 38",
        "phone": "02-2061-1820",
        "category": "음식점 > 한식 > 순대",
        "distance": "600"
      },
      {
        "name": "유정우함흥냉면",
        "latitude": 37.4885832932946,
        "longitude": 126.980329923961,
        "address": "서울 동작구 사당동 91-3",
        "road_address": "서울 동작구 동작대로29다길 7-1",
        "phone": "02-3478-0105",
        "category": "음식점 > 한식 > 냉면",
        "distance": "604"
      },
      {
        "name": "행복한맥주",
        "latitude": 37.4879344285002,
        "longitude": 126.979511456954,
        "address": "서울 동작구 사당동 128-26",
        "road_address": "서울 동작구 동작대로27길 49",
        "phone": "02-6205-1443",
        "category": "음식점 > 술집 > 호프,요리주점",
        "distance": "583"
      },
      {
        "name": "라빠숑",
        "latitude": 37.48830195841166,
        "longitude": 126.97904776144944,
        "address": "서울 동작구 사당동 127",
        "road_address": "서울 동작구 동작대로27길 62",
        "phone": "010-8082-1911",
        "category": "음식점 > 카페",
        "distance": "526"
      },
      {
        "name": "방배김밥 본점",
        "latitude": 37.48812163457615,
        "longitude": 126.97836938155086,
        "address": "서울 동작구 사당동 127-27",
        "road_address": "서울 동작구 동작대로27길 59-16",
        "phone": "02-599-0566",
        "category": "음식점 > 분식 > 방배김밥",
        "distance": "493"
      },
      {
        "name": "이수살롱",
        "latitude": 37.4884650488434,
        "longitude": 126.97909294479,
        "address": "서울 동작구 사당동 127-48",
        "road_address": "서울 동작구 동작대로29길 53",
        "phone": "",
        "category": "음식점 > 카페 > 테마카페 > 디저트카페",
        "distance": "518"
      },
      {
        "name": "디피스트",
        "latitude": 37.487408356315,
        "longitude": 126.980194547268,
        "address": "서울 동작구 사당동 139-22",
        "road_address": "서울 동작구 동작대로27길 31",
        "phone": "02-536-6234",
        "category": "음식점 > 카페 > 커피전문점",
        "distance": "667"
      },
      {
        "name": "경성모밀",
        "latitude": 37.488241088361,
        "longitude": 126.981430203187,
        "address": "서울 동작구 사당동 88-18",
        "road_address": "서울 동작구 동작대로29가길 6",
        "phone": "02-532-6670",
        "category": "음식점 > 한식 > 국수",
        "distance": "707"
      },
      {
        "name": "만두명가담원",
        "latitude": 37.48816443382948,
        "longitude": 126.98099715726246,
        "address": "서울 동작구 사당동 89-69",
        "road_address": "서울 동작구 동작대로29길 18",
        "phone": "",
        "category": "음식점 > 분식",
        "distance": "678"
      },
      {
        "name": "라무진 이수점",
        "latitude": 37.487729251003,
        "longitude": 126.981022143144,
        "address": "서울 동작구 사당동 132-20",
        "road_address": "서울 동작구 동작대로27길 16-5",
        "phone": "02-533-2473",
        "category": "음식점 > 한식 > 육류,고기",
        "distance": "705"
      }
    ]
  }
}