{
  "key": "837abbb0017390bae40812de7d5e848e90014bda1e0623e60d849cfeea1be61e",
  "tool": "PlaceSearch_kakao",
  "created_at": "2025-12-19T02:49:14.237774",
  "input_params": {
    "keyword": "다이아",
    "radius": 2000,
    "sort": "accuracy",
    "x": 37.558086,
    "y": 127.00091
  },
  "raw_args": {
    "x": 37.558086,
    "y": 127.00091,
    "keyword": "다이아",
    "radius": 2000
  },
  "data": {
    "keyword": "다이아",
    "total_count": 345,
    "places": [
      {
        "name": "골드앤다이아",
        "latitude": 37.5721867745817,
        "longitude": 126.99184969473,
        "address": "서울 종로구 묘동 82-3",
        "road_address": "서울 종로구 돈화문로 42",
        "phone": "02-766-5360",
        "category": "가정,생활 > 패션 > 보석,귀금속",
        "distance": ""
      },
      {
        "name": "푸딩다이아",
        "latitude": 37.57665493323415,
        "longitude": 126.98420557595595,
        "address": "서울 종로구 안국동 173",
        "road_address": "서울 종로구 윤보선길 12",
        "phone": "1899-5251",
        "category": "가정,생활 > 패션 > 보석,귀금속",
        "distance": ""
      },
      {
        "name": "블랙다이아 인사동점",
        "latitude": 37.5749069783129,
        "longitude": 126.984015764433,
        "address": "서울 종로구 관훈동 105",
        "road_address": "서울 종로구 인사동길 54-1",
        "phone": "",
        "category": "가정,생활 > 패션 > 의류판매",
        "distance": ""
      },
      {
        "name": "다이어텍코리아",
        "latitude": 37.5628864027198,
        "longitude": 126.972180354731,
        "address": "서울 중구 서소문동 57-9",
        "road_address": "서울 중구 서소문로 99",
        "phone": "02-2022-3900",
        "category": "의료,건강 > 의료기기판매",
        "distance": ""
      },
      {
        "name": "웨딩다이아",
        "latitude": 37.5710370602991,
        "longitude": 126.991229500765,
        "address": "서울 종로구 돈의동 137",
        "road_address": "서울 종로구 돈화문로5가길 1",
        "phone": "",
        "category": "가정,생활 > 패션 > 보석,귀금속",
        "distance": ""
      },
      {
        "name": "보그필다이아",
        "latitude": 37.57238487250575,
        "longitude": 126.99025356746972,
        "address": "서울 종로구 돈의동 43-4",
        "road_address": "서울 종로구 수표로26길 27",
        "phone": "02-765-2262",
        "category": "가정,생활 > 패션 > 보석,귀금속",
        "distance": ""
      },
      {
        "name": "보석다이아감정금화당",
        "latitude": 37.5705395323685,
        "longitude": 126.989087887174,
        "address": "서울 종로구 종로2가 40",
        "road_address": "서울 종로구 수표로 105",
        "phone": "",
        "category": "교육,학문 > 학원 > 보석감정,세공학원",
        "distance": ""
      },
      {
        "name": "커플다이아",
        "latitude": 37.5708135884546,
        "longitude": 126.990898992881,
        "address": "서울 종로구 돈의동 160",
        "road_address": "서울 종로구 돈화문로5길 20",
        "phone": "",
        "category": "가정,생활 > 패션 > 보석,귀금속",
        "distance": ""
      },
      {
        "name": "다이아쥬얼리",
        "latitude": 37.5707452574204,
        "longitude": 126.99302256758,
        "address": "서울 종로구 종로3가 31-1",
        "road_address": "서울 종로구 종로 139",
        "phone": "",
        "category": "가정,생활 > 패션 > 보석,귀금속",
        "distance": ""
      },
      {
        "name": "오로다이아",
        "latitude": 37.5707271904021,
        "longitude": 126.992266416812,
        "address": "서울 종로구 종로3가 26-4",
        "road_address": "서울 종로구 돈화문로 24",
        "phone": "02-765-1112",
        "category": "가정,생활 > 패션 > 보석,귀금속",
        "distance": ""
      },
      {
        "name": "제이다이아",
        "latitude": 37.57576364567629,
        "longitude": 126.9907851863796,
        "address": "서울 종로구 와룡동 94-1",
        "road_address": "서울 종로구 돈화문로 82",
        "phone": "02-764-6432",
        "category": "가정,생활 > 패션 > 보석,귀금속",
        "distance": ""
      },
      {
        "name": "다이아산부인과의원",
        "latitude": 37.5439068237964,
        "longitude": 126.971937334298,
        "address": "서울 용산구 갈월동 87-2",
        "road_address": "서울 용산구 한강대로 287",
        "phone": "02-713-2226",
        "category": "의료,건강 > 병원 > 산부인과",
        "distance": ""
      },
      {
        "name": "다이아캐슬2차",
        "latitude": 37.55489908641952,
        "longitude": 126.95975584925468,
        "address": "서울 마포구 아현동 742-5",
        "road_address": "서울 마포구 마포대로28라길 16",
        "phone": "",
        "category": "부동산 > 주거시설 > 빌라,주택",
        "distance": ""
      },
      {
        "name": "다이아캐슬",
        "latitude": 37.55489003007777,
        "longitude": 126.95962004711416,
        "address": "서울 마포구 아현동 742-3",
        "road_address": "서울 마포구 마포대로28라길 12",
        "phone": "",
        "category": "부동산 > 주거시설 > 빌라,주택",
        "distance": ""
      },
      {
        "name": "다이아",
        "latitude": 37.5648595337225,
        "longitude": 127.018986087307,
        "address": "서울 중구 신당동 121-32",
        "road_address": "서울 중구 다산로42길 43-11",
        "phone": "1588-5943",
        "category": "가정,생활 > 패션 > 의류판매",
        "distance": ""
      }
    ]
  }
}