{
  "key": "59e4fc8c62876d9f6aca4cdb6b3637f57557dca084189b926a754c858b491cc7",
  "tool": "PlaceSearch_kakao",
  "created_at": "2025-12-15T14:44:53.710490",
  "input_params": {
    "keyword": "파스타",
    "page": 1,
    "size": 10,
    "sort": "distance",
    "x": 127.02758,
    "y": 37.4979
  },
  "raw_args": {
    "size": 10,
    "x": 127.02758,
    "y": 37.4979,
    "page": 1,
    "sort": "distance",
    "keyword": "파스타"
  },
  "data": {
    "keyword": "파스타",
    "total_count": 30515,
    "places": [
      {
        "name": "로리스더프라임립",
        "latitude": 37.49808140984054,
        "longitude": 127.02590025308936,
        "address": "서울 서초구 서초동 1317-23",
        "road_address": "서울 서초구 서초대로 411",
        "phone": "02-590-2800",
        "category": "음식점 > 양식 > 스테이크,립",
        "distance": "149"
      },
      {
        "name": "더플라잉팬 레드",
        "latitude": 37.4980931286224,
        "longitude": 127.025874247186,
        "address": "서울 서초구 서초동 1317-27",
        "road_address": "서울 서초구 서초대로 411",
        "phone": "02-590-2488",
        "category": "음식점 > 양식",
        "distance": "152"
      },
      {
        "name": "닥터로빈시그니처 서초점",
        "latitude": 37.4966332657545,
        "longitude": 127.026914121286,
        "address": "서울 서초구 서초동 1320-10",
        "road_address": "서울 서초구 서초대로74길 11",
        "phone": "02-522-3101",
        "category": "음식점 > 양식 > 이탈리안",
        "distance": "152"
      },
      {
        "name": "파머스포케 강남역점",
        "latitude": 37.4976670570902,
        "longitude": 127.029285907809,
        "address": "서울 강남구 역삼동 825-20",
        "road_address": "서울 강남구 테헤란로4길 6",
        "phone": "0507-2090-9584",
        "category": "음식점 > 샐러드",
        "distance": "153"
      },
      {
        "name": "오늘와인 한잔 강남역1번출구점",
        "latitude": 37.4977283224454,
        "longitude": 127.029298371216,
        "address": "서울 강남구 역삼동 825-20",
        "road_address": "서울 강남구 테헤란로4길 6",
        "phone": "02-555-9132",
        "category": "음식점 > 술집 > 와인바",
        "distance": "153"
      },
      {
        "name": "코지하우스 강남역점",
        "latitude": 37.4991936196164,
        "longitude": 127.02822686566,
        "address": "서울 강남구 역삼동 819",
        "road_address": "서울 강남구 강남대로94길 10",
        "phone": "02-555-6683",
        "category": "음식점 > 양식",
        "distance": "154"
      },
      {
        "name": "보이브라질 강남점",
        "latitude": 37.4991936196164,
        "longitude": 127.02822686566,
        "address": "서울 강남구 역삼동 819",
        "road_address": "서울 강남구 강남대로94길 10",
        "phone": "070-5172-0907",
        "category": "음식점 > 양식 > 멕시칸,브라질",
        "distance": "154"
      },
      {
        "name": "매드포갈릭 강남삼성타운점",
        "latitude": 37.496601724597085,
        "longitude": 127.02694011940008,
        "address": "서울 서초구 서초동 1320-10",
        "road_address": "서울 서초구 서초대로74길 11",
        "phone": "02-585-1175",
        "category": "음식점 > 패밀리레스토랑 > 매드포갈릭",
        "distance": "155"
      },
      {
        "name": "더페이트",
        "latitude": 37.4994280268679,
        "longitude": 127.027610620179,
        "address": "서울 강남구 역삼동 820-2",
        "road_address": "서울 강남구 테헤란로1길 17",
        "phone": "02-6253-0002",
        "category": "음식점 > 술집 > 칵테일바",
        "distance": "169"
      },
      {
        "name": "띠엘로",
        "latitude": 37.49926562402995,
        "longitude": 127.02854354059278,
        "address": "서울 강남구 역삼동 819-1",
        "road_address": "서울 강남구 강남대로94길 14",
        "phone": "0502-5552-4909",
        "category": "음식점 > 술집 > 와인바",
        "distance": "173"
      }
    ]
  }
}