{
  "key": "ccb9788846249718d53e54aa38d0f5297edaedc1dbeac2ad23f4f64c7b7d5ddd",
  "tool": "PlaceSearch_kakao",
  "created_at": "2025-10-26T22:22:59.767248",
  "input_params": {
    "keyword": "애플",
    "page": 1,
    "size": 10,
    "sort": "accuracy",
    "x": 32.696,
    "y": 37.525
  },
  "raw_args": {
    "keyword": "애플",
    "x": 32.696,
    "y": 37.525,
    "page": 1,
    "size": 10,
    "sort": "accuracy"
  },
  "data": {
    "keyword": "애플",
    "total_count": 2668,
    "places": [
      {
        "name": "Apple 명동",
        "latitude": 37.56468141612801,
        "longitude": 126.98284080132754,
        "address": "서울 중구 남대문로2가 9-1",
        "road_address": "서울 중구 남대문로 84",
        "phone": "080-500-1007",
        "category": "가정,생활 > 전자제품 > 전자제품서비스센터 > 통신기기수리 > Apple 공인서비스센터",
        "distance": ""
      },
      {
        "name": "애플공인서비스센터 유베이스 서울역센터",
        "latitude": 37.554583213254595,
        "longitude": 126.97012936890823,
        "address": "서울 중구 봉래동2가 122-11",
        "road_address": "서울 중구 한강대로 405",
        "phone": "1566-8514",
        "category": "가정,생활 > 전자제품 > 전자제품서비스센터 > 통신기기수리 > Apple 공인서비스센터",
        "distance": ""
      },
      {
        "name": "애플",
        "latitude": 37.564202383180756,
        "longitude": 126.97909443472867,
        "address": "서울 중구 남대문로2가 9-9",
        "road_address": "서울 중구 소공로 지하 102",
        "phone": "",
        "category": "가정,생활 > 패션 > 의류판매",
        "distance": ""
      },
      {
        "name": "a#shop 현대백화점신촌점",
        "latitude": 37.556039153199926,
        "longitude": 126.93596261535357,
        "address": "서울 서대문구 창천동 30-33",
        "road_address": "서울 서대문구 신촌로 83",
        "phone": "02-3145-2943",
        "category": "가정,생활 > 전자제품 > 전자제품판매 > a#shop",
        "distance": ""
      },
      {
        "name": "Apple 홍대",
        "latitude": 37.55511260345064,
        "longitude": 126.92194695320684,
        "address": "서울 마포구 동교동 162-4",
        "road_address": "서울 마포구 양화로 140",
        "phone": "080-500-3005",
        "category": "가정,생활 > 전자제품 > 전자제품서비스센터 > 통신기기수리 > Apple 공인서비스센터",
        "distance": ""
      },
      {
        "name": "애플공인서비스센터 투바 왕십리",
        "latitude": 37.56128777712581,
        "longitude": 127.03838008079089,
        "address": "서울 성동구 행당동 168-151",
        "road_address": "서울 성동구 왕십리광장로 17",
        "phone": "1522-6222",
        "category": "가정,생활 > 전자제품 > 전자제품서비스센터 > 통신기기수리 > Apple 공인서비스센터",
        "distance": ""
      },
      {
        "name": "애플",
        "latitude": 37.57015142329934,
        "longitude": 127.00819422976265,
        "address": "서울 종로구 종로6가 262-1",
        "road_address": "서울 종로구 종로 266",
        "phone": "02-2266-1844",
        "category": "서비스,산업 > 제조업 > 섬유 > 의류소품",
        "distance": ""
      },
      {
        "name": "Apple 가로수길",
        "latitude": 37.520819816124934,
        "longitude": 127.02272940977892,
        "address": "서울 강남구 신사동 534-19",
        "road_address": "서울 강남구 가로수길 43",
        "phone": "080-500-0029",
        "category": "가정,생활 > 전자제품 > 전자제품서비스센터 > 통신기기수리 > Apple 공인서비스센터",
        "distance": ""
      },
      {
        "name": "애플",
        "latitude": 37.5685140483319,
        "longitude": 127.011400811636,
        "address": "서울 중구 신당동 775",
        "road_address": "서울 중구 마장로 13",
        "phone": "",
        "category": "가정,생활 > 패션",
        "distance": ""
      },
      {
        "name": "애플공인서비스센터 투바 청량리",
        "latitude": 37.5764649676262,
        "longitude": 127.038623335851,
        "address": "서울 동대문구 용두동 27-3",
        "road_address": "서울 동대문구 고산자로 414",
        "phone": "1522-6222",
        "category": "가정,생활 > 전자제품 > 전자제품서비스센터 > 통신기기수리 > Apple 공인서비스센터",
        "distance": ""
      }
    ]
  }
}