{
  "key": "2b2ee2f43a974501dbf4bd5d3344e4cb4b01ac39dd31e2bd7cfa9d3d6d50b63d",
  "tool": "PlaceSearch_kakao",
  "created_at": "2025-12-15T13:54:08.045749",
  "input_params": {
    "keyword": "건국대학교",
    "size": 5,
    "sort": "accuracy",
    "x": 127.0458838,
    "y": 37.5829217
  },
  "raw_args": {
    "keyword": "건국대학교",
    "size": 5,
    "sort": "accuracy",
    "x": 127.0458838,
    "y": 37.5829217
  },
  "data": {
    "keyword": "건국대학교",
    "total_count": 1947,
    "places": [
      {
        "name": "건국대학교 서울캠퍼스",
        "latitude": 37.543536094587516,
        "longitude": 127.07741635877292,
        "address": "서울 광진구 화양동 1",
        "road_address": "서울 광진구 능동로 120",
        "phone": "02-450-3114",
        "category": "교육,학문 > 학교 > 대학교",
        "distance": "5183"
      },
      {
        "name": "건국대학교 글로컬캠퍼스",
        "latitude": 36.95014910225283,
        "longitude": 127.90813159045226,
        "address": "충북 충주시 단월동 322",
        "road_address": "충북 충주시 충원대로 268",
        "phone": "043-840-3114",
        "category": "교육,학문 > 학교 > 대학교",
        "distance": "103834"
      },
      {
        "name": "건국대학교병원",
        "latitude": 37.540641847402576,
        "longitude": 127.07209753450071,
        "address": "서울 광진구 화양동 4-12",
        "road_address": "서울 광진구 능동로 120-1",
        "phone": "1588-1533",
        "category": "의료,건강 > 병원 > 대학병원",
        "distance": "5233"
      },
      {
        "name": "건국대학교 새천년관대공연장",
        "latitude": 37.54319462054277,
        "longitude": 127.07740921638926,
        "address": "서울 광진구 화양동 1",
        "road_address": "서울 광진구 능동로 120",
        "phone": "02-455-1896",
        "category": "문화,예술 > 문화시설 > 공연장,연극극장",
        "distance": "5215"
      },
      {
        "name": "건국대학교병원 장례식장",
        "latitude": 37.54120685048105,
        "longitude": 127.07197248004147,
        "address": "서울 광진구 화양동 4-12",
        "road_address": "서울 광진구 능동로 120-1",
        "phone": "02-2030-7900",
        "category": "가정,생활 > 장례 > 장례식장",
        "distance": "5171"
      }
    ]
  }
}