{
  "key": "2bf4efe082485899c43fb7507dc35d7eb7ab8812a8546363496af78e313e2f2a",
  "tool": "PlaceSearch_kakao",
  "created_at": "2025-10-27T07:09:18.568779",
  "input_params": {
    "keyword": "주차장",
    "radius": 1000,
    "size": 10,
    "sort": "distance",
    "x": 127.111217,
    "y": 37.395402
  },
  "raw_args": {
    "keyword": "주차장",
    "x": 127.111217,
    "y": 37.395402,
    "radius": 1000,
    "size": 10,
    "sort": "distance"
  },
  "data": {
    "keyword": "주차장",
    "total_count": 80,
    "places": [
      {
        "name": "카카오 판교 아지트 주차장",
        "latitude": 37.3954296320512,
        "longitude": 127.110487319628,
        "address": "경기 성남시 분당구 백현동 532",
        "road_address": "경기 성남시 분당구 판교역로 166",
        "phone": "",
        "category": "교통,수송 > 교통시설 > 주차장",
        "distance": "64"
      },
      {
        "name": "판교역 환승 공영주차장",
        "latitude": 37.39473508906209,
        "longitude": 127.11129375840602,
        "address": "경기 성남시 분당구 백현동 532-1",
        "road_address": "경기 성남시 분당구 분당내곡로 121",
        "phone": "031-701-5182",
        "category": "교통,수송 > 교통시설 > 주차장 > 공영주차장",
        "distance": "74"
      },
      {
        "name": "카카오 T 판교테크원 주차장",
        "latitude": 37.395474938369574,
        "longitude": 127.11213055159179,
        "address": "경기 성남시 분당구 백현동 534",
        "road_address": "경기 성남시 분당구 분당내곡로 131",
        "phone": "",
        "category": "교통,수송 > 교통시설 > 주차장",
        "distance": "81"
      },
      {
        "name": "카카오판교아지트 주차장입구",
        "latitude": 37.3950318137811,
        "longitude": 127.110022586526,
        "address": "경기 성남시 분당구 백현동 532",
        "road_address": "경기 성남시 분당구 판교역로 166",
        "phone": "",
        "category": "교통,수송 > 입출구",
        "distance": "113"
      },
      {
        "name": "럭스타워 주차장",
        "latitude": 37.3964810239246,
        "longitude": 127.111553829114,
        "address": "경기 성남시 분당구 삼평동 651",
        "road_address": "경기 성남시 분당구 대왕판교로606번길 39",
        "phone": "",
        "category": "교통,수송 > 교통시설 > 주차장",
        "distance": "123"
      },
      {
        "name": "프라임스퀘어 주차장",
        "latitude": 37.3964519267223,
        "longitude": 127.111833861813,
        "address": "경기 성남시 분당구 삼평동 652",
        "road_address": "경기 성남시 분당구 대왕판교로606번길 41",
        "phone": "",
        "category": "교통,수송 > 교통시설 > 주차장",
        "distance": "128"
      },
      {
        "name": "AJ파크 메트로큐브점",
        "latitude": 37.3966080050735,
        "longitude": 127.110661838441,
        "address": "경기 성남시 분당구 삼평동 647",
        "road_address": "경기 성남시 분당구 대왕판교로606번길 31",
        "phone": "1899-1485",
        "category": "교통,수송 > 교통시설 > 주차장",
        "distance": "142"
      },
      {
        "name": "카카오T 판교알파돔타워 주차장",
        "latitude": 37.39447054205603,
        "longitude": 127.10995287833975,
        "address": "경기 성남시 분당구 백현동 537",
        "road_address": "경기 성남시 분당구 판교역로 152",
        "phone": "",
        "category": "교통,수송 > 교통시설 > 주차장",
        "distance": "152"
      },
      {
        "name": "서건타워 주차장",
        "latitude": 37.3965480775583,
        "longitude": 127.110189686443,
        "address": "경기 성남시 분당구 삼평동 646",
        "road_address": "경기 성남시 분당구 판교역로 178",
        "phone": "",
        "category": "교통,수송 > 교통시설 > 주차장",
        "distance": "155"
      },
      {
        "name": "그레이츠 판교 주차장",
        "latitude": 37.3944275782189,
        "longitude": 127.112523119742,
        "address": "경기 성남시 분당구 백현동 535",
        "road_address": "경기 성남시 분당구 분당내곡로 117",
        "phone": "",
        "category": "교통,수송 > 교통시설 > 주차장",
        "distance": "158"
      }
    ]
  }
}