{
  "key": "6573f88982466b3a70e516aa9f3ff129311275061efb0066a343497ac8ff5579",
  "tool": "PlaceSearch_kakao",
  "created_at": "2025-12-19T02:50:40.312582",
  "input_params": {
    "keyword": "남양주 남양",
    "radius": 1000,
    "sort": "accuracy",
    "x": 127.216475764948,
    "y": 37.6360236390492
  },
  "raw_args": {
    "x": 127.216475764948,
    "y": 37.6360236390492,
    "radius": 1000,
    "keyword": "남양주 남양"
  },
  "data": {
    "keyword": "남양주 남양",
    "total_count": 5,
    "places": [
      {
        "name": "남양스포츠",
        "latitude": 37.6337506217888,
        "longitude": 127.21191823920077,
        "address": "경기 남양주시 금곡동 152-75",
        "road_address": "경기 남양주시 경춘로992번길 6-1",
        "phone": "031-511-7207",
        "category": "스포츠,레저 > 스포츠용품",
        "distance": "474"
      },
      {
        "name": "남양빌라",
        "latitude": 37.63815979211796,
        "longitude": 127.21504080573061,
        "address": "경기 남양주시 금곡동 171-8",
        "road_address": "경기 남양주시 경춘로양골4길 5",
        "phone": "",
        "category": "부동산 > 주거시설 > 빌라,주택",
        "distance": "268"
      },
      {
        "name": "남양컴AS",
        "latitude": 37.63763956382956,
        "longitude": 127.21523871033989,
        "address": "경기 남양주시 금곡동 172-22",
        "road_address": "경기 남양주시 경춘로양골3길 30",
        "phone": "031-591-6341",
        "category": "가정,생활 > 전자제품 > 전자제품서비스센터 > 컴퓨터수리",
        "distance": "210"
      },
      {
        "name": "남양빌딩",
        "latitude": 37.6344302747864,
        "longitude": 127.210738525014,
        "address": "경기 남양주시 금곡동 156-20",
        "road_address": "경기 남양주시 금곡로 68",
        "phone": "",
        "category": "부동산 > 빌딩",
        "distance": "536"
      },
      {
        "name": "컴퓨터수리",
        "latitude": 37.6344355531589,
        "longitude": 127.210809914416,
        "address": "경기 남양주시 금곡동 156-20",
        "road_address": "경기 남양주시 금곡로 68",
        "phone": "031-8083-8332",
        "category": "가정,생활 > 전자제품 > 전자제품서비스센터 > 컴퓨터수리",
        "distance": "530"
      }
    ]
  }
}