{
  "key": "657e76bab9cae7b6f82dbde89b2495ab1d4039d95dc8e02ad07e860c0a681bbb",
  "tool": "PlaceSearch_kakao",
  "created_at": "2025-12-14T15:53:20.144144",
  "input_params": {
    "keyword": "애플 스토어",
    "page": 1,
    "radius": 20000,
    "size": 5,
    "sort": "distance",
    "x": 127.027636,
    "y": 37.497945
  },
  "raw_args": {
    "keyword": "애플 스토어",
    "x": 127.027636,
    "y": 37.497945,
    "page": 1,
    "size": 5,
    "radius": 20000,
    "sort": "distance"
  },
  "data": {
    "keyword": "애플 스토어",
    "total_count": 9,
    "places": [
      {
        "name": "Apple 강남",
        "latitude": 37.5036902997713,
        "longitude": 127.025310702725,
        "address": "서울 강남구 역삼동 809",
        "road_address": "서울 강남구 강남대로 464",
        "phone": "080-500-0456",
        "category": "가정,생활 > 전자제품 > 전자제품서비스센터 > 통신기기수리 > Apple 공인서비스센터",
        "distance": "669"
      },
      {
        "name": "Apple 가로수길",
        "latitude": 37.520819816124934,
        "longitude": 127.02272940977892,
        "address": "서울 강남구 신사동 534-19",
        "road_address": "서울 강남구 가로수길 43",
        "phone": "080-500-0029",
        "category": "가정,생활 > 전자제품 > 전자제품서비스센터 > 통신기기수리 > Apple 공인서비스센터",
        "distance": "2575"
      },
      {
        "name": "Apple 잠실",
        "latitude": 37.5139978977813,
        "longitude": 127.10408109426407,
        "address": "서울 송파구 신천동 29",
        "road_address": "서울 송파구 올림픽로 300",
        "phone": "080-500-0098",
        "category": "가정,생활 > 전자제품 > 전자제품서비스센터 > 통신기기수리 > Apple 공인서비스센터",
        "distance": "6990"
      },
      {
        "name": "애플 에이스토어 왕십리점",
        "latitude": 37.5614409428574,
        "longitude": 127.038391477602,
        "address": "서울 성동구 행당동 168-151",
        "road_address": "서울 성동구 왕십리광장로 17",
        "phone": "0507-1492-1573",
        "category": "가정,생활 > 전자제품 > 전자제품판매 > 에이스토어",
        "distance": "7111"
      },
      {
        "name": "Apple 명동",
        "latitude": 37.56468141612801,
        "longitude": 126.98284080132754,
        "address": "서울 중구 남대문로2가 9-1",
        "road_address": "서울 중구 남대문로 84",
        "phone": "080-500-1007",
        "category": "가정,생활 > 전자제품 > 전자제품서비스센터 > 통신기기수리 > Apple 공인서비스센터",
        "distance": "8398"
      }
    ]
  }
}