{
  "key": "92b8afb1e20a81fde03df5f62e35795e55971d18a6fcad2a2992dccdd8e09531",
  "tool": "PlaceSearch_kakao",
  "created_at": "2025-10-15T13:31:41.566021",
  "input_params": {
    "keyword": "병원",
    "radius": 1000,
    "sort": "distance",
    "x": 127.0439910760298,
    "y": 37.579551697242124
  },
  "raw_args": {
    "keyword": "병원",
    "x": 127.0439910760298,
    "y": 37.579551697242124,
    "radius": 1000,
    "sort": "distance"
  },
  "data": {
    "keyword": "병원",
    "total_count": 233,
    "places": [
      {
        "name": "청량리슬기동물병원",
        "latitude": 37.579535459515,
        "longitude": 127.044044275083,
        "address": "서울 동대문구 전농동 620-15",
        "road_address": "서울 동대문구 왕산로 186",
        "phone": "02-3293-7582",
        "category": "가정,생활 > 반려동물 > 동물병원",
        "distance": "5"
      },
      {
        "name": "믿음가는치과",
        "latitude": 37.579580497368106,
        "longitude": 127.04407600037581,
        "address": "서울 동대문구 전농동 620-15",
        "road_address": "서울 동대문구 왕산로 186",
        "phone": "02-6238-2879",
        "category": "의료,건강 > 병원 > 치과",
        "distance": "8"
      },
      {
        "name": "서울치과의원",
        "latitude": 37.579371432984715,
        "longitude": 127.04416644477759,
        "address": "서울 동대문구 전농동 620-15",
        "road_address": "서울 동대문구 왕산로 186",
        "phone": "02-961-8556",
        "category": "의료,건강 > 병원 > 치과",
        "distance": "25"
      },
      {
        "name": "같은마음 정신건강의학과의원 청량리",
        "latitude": 37.579375935829354,
        "longitude": 127.04417210791507,
        "address": "서울 동대문구 전농동 620-15",
        "road_address": "서울 동대문구 왕산로 186",
        "phone": "02-965-7557",
        "category": "의료,건강 > 병원 > 정신건강의학과",
        "distance": "25"
      },
      {
        "name": "제이사랑치과의원",
        "latitude": 37.579375935829354,
        "longitude": 127.04417210791507,
        "address": "서울 동대문구 전농동 620-15",
        "road_address": "서울 동대문구 왕산로 186",
        "phone": "02-964-2828",
        "category": "의료,건강 > 병원 > 치과",
        "distance": "25"
      },
      {
        "name": "닥터스피부과의원 동대문",
        "latitude": 37.5793687312682,
        "longitude": 127.044163046895,
        "address": "서울 동대문구 전농동 620-15",
        "road_address": "서울 동대문구 왕산로 186",
        "phone": "02-6949-1201",
        "category": "의료,건강 > 병원 > 피부과",
        "distance": "25"
      },
      {
        "name": "블리비의원 청량리점",
        "latitude": 37.5795849039836,
        "longitude": 127.04433864988415,
        "address": "서울 동대문구 전농동 620-6",
        "road_address": "서울 동대문구 왕산로 190",
        "phone": "1833-2789",
        "category": "의료,건강 > 병원 > 피부과",
        "distance": "31"
      },
      {
        "name": "세선부부한의원",
        "latitude": 37.57927232494571,
        "longitude": 127.04416298995335,
        "address": "서울 동대문구 전농동 620-15",
        "road_address": "서울 동대문구 왕산로 186",
        "phone": "02-965-7575",
        "category": "의료,건강 > 병원 > 한의원",
        "distance": "34"
      },
      {
        "name": "화인마취통증의학과의원",
        "latitude": 37.57951099356124,
        "longitude": 127.04441558869435,
        "address": "서울 동대문구 전농동 620-6",
        "road_address": "서울 동대문구 왕산로 190",
        "phone": "02-6735-7000",
        "category": "의료,건강 > 병원 > 통증클리닉",
        "distance": "37"
      },
      {
        "name": "큐플란트치과의원",
        "latitude": 37.579710989854156,
        "longitude": 127.04448023723553,
        "address": "서울 동대문구 전농동 620-130",
        "road_address": "서울 동대문구 왕산로 192-1",
        "phone": "02-960-7102",
        "category": "의료,건강 > 병원 > 치과",
        "distance": "47"
      },
      {
        "name": "자연튼튼의원",
        "latitude": 37.5799203573415,
        "longitude": 127.043576942931,
        "address": "서울 동대문구 청량리동 766",
        "road_address": "서울 동대문구 왕산로 183",
        "phone": "02-963-7711",
        "category": "의료,건강 > 병원 > 피부과",
        "distance": "54"
      },
      {
        "name": "경희팔팔한의원",
        "latitude": 37.57991945592991,
        "longitude": 127.04357807450913,
        "address": "서울 동대문구 청량리동 766",
        "road_address": "서울 동대문구 왕산로 183",
        "phone": "02-959-1088",
        "category": "의료,건강 > 병원 > 한의원",
        "distance": "54"
      },
      {
        "name": "김흥기산부인과의원",
        "latitude": 37.5799203573415,
        "longitude": 127.043576942931,
        "address": "서울 동대문구 청량리동 766",
        "road_address": "서울 동대문구 왕산로 183",
        "phone": "02-957-2224",
        "category": "의료,건강 > 병원 > 산부인과",
        "distance": "54"
      },
      {
        "name": "더힐피부과의원 동대문점",
        "latitude": 37.5792302337349,
        "longitude": 127.043474652315,
        "address": "서울 동대문구 전농동 620-56",
        "road_address": "서울 동대문구 왕산로36길 6",
        "phone": "02-960-3469",
        "category": "의료,건강 > 병원 > 피부과",
        "distance": "57"
      },
      {
        "name": "명성한의원",
        "latitude": 37.5792248286122,
        "longitude": 127.043472384986,
        "address": "서울 동대문구 전농동 620-56",
        "road_address": "서울 동대문구 왕산로36길 6",
        "phone": "02-965-4696",
        "category": "의료,건강 > 병원 > 한의원",
        "distance": "58"
      }
    ]
  }
}