{
  "key": "d263802ff77519e9f0a0884fa580ba267135fd6c9ab1aaed4164d69f206796a5",
  "tool": "PlaceSearch_kakao",
  "created_at": "2025-12-19T02:22:29.096777",
  "input_params": {
    "keyword": "대학교",
    "page": 1,
    "size": 5,
    "sort": "distance",
    "x": 126.9651548,
    "y": 37.5811302
  },
  "raw_args": {
    "keyword": "대학교",
    "x": 126.9651548,
    "y": 37.5811302,
    "size": 5,
    "page": 1,
    "sort": "distance"
  },
  "data": {
    "keyword": "대학교",
    "total_count": 26991,
    "places": [
      {
        "name": "배화여자대학교 전통조리과",
        "latitude": 37.5793574574008,
        "longitude": 126.965235615155,
        "address": "서울 종로구 누상동 159-11",
        "road_address": "서울 종로구 필운대로1길 34",
        "phone": "02-399-0816",
        "category": "교육,학문 > 학교부속시설",
        "distance": "196"
      },
      {
        "name": "배화여자대학교 식품영양과",
        "latitude": 37.57932502962162,
        "longitude": 126.96526280050875,
        "address": "서울 종로구 누상동 150-1",
        "road_address": "서울 종로구 필운대로1길 34",
        "phone": "02-399-0768",
        "category": "교육,학문 > 학교부속시설",
        "distance": "200"
      },
      {
        "name": "배화여자대학교 패션산업과",
        "latitude": 37.579271910220235,
        "longitude": 126.96539641228452,
        "address": "서울 종로구 누상동 150-1",
        "road_address": "서울 종로구 필운대로1길 34",
        "phone": "02-399-0847",
        "category": "교육,학문 > 학교부속시설",
        "distance": "207"
      },
      {
        "name": "배화여자대학교 유아교육과",
        "latitude": 37.579243994665134,
        "longitude": 126.96544850151038,
        "address": "서울 종로구 누상동 150-1",
        "road_address": "서울 종로구 필운대로1길 34",
        "phone": "02-399-0781",
        "category": "교육,학문 > 학교부속시설",
        "distance": "210"
      },
      {
        "name": "배화여자대학교 정심관",
        "latitude": 37.5791738684199,
        "longitude": 126.965969296494,
        "address": "서울 종로구 필운동 12",
        "road_address": "서울 종로구 필운대로1길 34",
        "phone": "",
        "category": "교육,학문 > 학교부속시설",
        "distance": "228"
      }
    ]
  }
}