{
  "key": "d2eadf5ea2bca75f3e5246d46074ff92d335ab01ffc4839875de39abd005e32a",
  "tool": "PlaceSearch_kakao",
  "created_at": "2025-10-15T14:52:19.519364",
  "input_params": {
    "keyword": "대학교",
    "radius": 2000,
    "sort": "distance",
    "x": 127.0459,
    "y": 37.5802
  },
  "raw_args": {
    "keyword": "대학교",
    "x": 127.0459,
    "y": 37.5802,
    "radius": 2000,
    "sort": "distance"
  },
  "data": {
    "keyword": "대학교",
    "total_count": 528,
    "places": [
      {
        "name": "카톨릭대학약국",
        "latitude": 37.579551697242124,
        "longitude": 127.0439910760298,
        "address": "서울 동대문구 전농동 620-15",
        "road_address": "서울 동대문구 왕산로 186",
        "phone": "02-957-9550",
        "category": "의료,건강 > 약국",
        "distance": "183"
      },
      {
        "name": "대학빌딩 주차장",
        "latitude": 37.577377953075526,
        "longitude": 127.03776343774763,
        "address": "서울 동대문구 용두동 45-10",
        "road_address": "",
        "phone": "",
        "category": "교통,수송 > 교통시설 > 주차장",
        "distance": "783"
      },
      {
        "name": "서울시립대학교 시대탑",
        "latitude": 37.5835633676407,
        "longitude": 127.053788875994,
        "address": "서울 동대문구 전농동 150-84",
        "road_address": "",
        "phone": "",
        "category": "여행 > 관광,명소 > 문화유적 > 탑,비석",
        "distance": "790"
      },
      {
        "name": "하북금융대학교 한국입시상담소",
        "latitude": 37.5778467399607,
        "longitude": 127.036910091862,
        "address": "서울 동대문구 용두동 788",
        "road_address": "서울 동대문구 왕산로 122",
        "phone": "",
        "category": "교육,학문 > 학원 > 입시학원",
        "distance": "835"
      },
      {
        "name": "서울시립대학교 정문",
        "latitude": 37.5834771622868,
        "longitude": 127.055113438416,
        "address": "서울 동대문구 전농동 694",
        "road_address": "서울 동대문구 서울시립대로 163",
        "phone": "",
        "category": "교통,수송 > 입출구",
        "distance": "891"
      },
      {
        "name": "수산노인대학",
        "latitude": 37.5787021816403,
        "longitude": 127.056416345149,
        "address": "서울 동대문구 전농동 183-6",
        "road_address": "서울 동대문구 전농로29길 97",
        "phone": "02-2212-3437",
        "category": "교육,학문 > 교육단체 > 평생교육원,사회교육원",
        "distance": "943"
      },
      {
        "name": "서울시립대학교 100주년기념관",
        "latitude": 37.58413916908455,
        "longitude": 127.05558943688139,
        "address": "서울 동대문구 전농동 694",
        "road_address": "서울 동대문구 서울시립대로 163",
        "phone": "",
        "category": "교육,학문 > 학교부속시설",
        "distance": "961"
      },
      {
        "name": "서울시립대학교 100주년 기념관 지하1층 주차장",
        "latitude": 37.5841662068658,
        "longitude": 127.055572474465,
        "address": "서울 동대문구 전농동 694",
        "road_address": "서울 동대문구 서울시립대로 163",
        "phone": "",
        "category": "교통,수송 > 교통시설 > 주차장",
        "distance": "961"
      },
      {
        "name": "서울시립대학교 캠퍼스타운사업단",
        "latitude": 37.5840562521389,
        "longitude": 127.055643719213,
        "address": "서울 동대문구 전농동 694",
        "road_address": "서울 동대문구 서울시립대로 163",
        "phone": "",
        "category": "교육,학문 > 학교부속시설",
        "distance": "961"
      },
      {
        "name": "서울시립대학교 100주년기념관 이룸라운지",
        "latitude": 37.5842112628964,
        "longitude": 127.055558921933,
        "address": "서울 동대문구 전농동 694",
        "road_address": "서울 동대문구 서울시립대로 163",
        "phone": "",
        "category": "교육,학문 > 학교부속시설",
        "distance": "962"
      },
      {
        "name": "서울시립대학교 법학관",
        "latitude": 37.5820664335478,
        "longitude": 127.056538890157,
        "address": "서울 동대문구 전농동 694",
        "road_address": "서울 동대문구 서울시립대로 163",
        "phone": "02-6490-6114",
        "category": "교육,학문 > 학교부속시설",
        "distance": "962"
      },
      {
        "name": "서울시립대학교 법학전문대학원",
        "latitude": 37.5820808429301,
        "longitude": 127.056552486691,
        "address": "서울 동대문구 전농동 694",
        "road_address": "서울 동대문구 서울시립대로 163",
        "phone": "02-6490-5068",
        "category": "교육,학문 > 학교 > 대학원",
        "distance": "963"
      },
      {
        "name": "서울시립대학교 주차장12",
        "latitude": 37.5841535700367,
        "longitude": 127.055621148291,
        "address": "서울 동대문구 휘경동 304",
        "road_address": "",
        "phone": "",
        "category": "교통,수송 > 교통시설 > 주차장",
        "distance": "964"
      },
      {
        "name": "경희사이버대학교 아카피스관",
        "latitude": 37.5884621720599,
        "longitude": 127.042481391654,
        "address": "서울 동대문구 청량리동 205-35",
        "road_address": "서울 동대문구 홍릉로 91",
        "phone": "02-3299-8793",
        "category": "교육,학문 > 학교 > 사이버대학",
        "distance": "965"
      },
      {
        "name": "서울시립대학교 창업지원단",
        "latitude": 37.5842517969192,
        "longitude": 127.055581595445,
        "address": "서울 동대문구 휘경동 370",
        "road_address": "서울 동대문구 서울시립대로 163",
        "phone": "02-6490-6741",
        "category": "교육,학문 > 학교부속시설",
        "distance": "966"
      }
    ]
  }
}