{
  "key": "5735b02e959df52972aa8eb156b7b87f8fd0b4dbe8ffbfa35c0bf79a16e09eca",
  "tool": "PlaceSearch_kakao",
  "created_at": "2025-10-27T03:28:54.506670",
  "input_params": {
    "keyword": "카페",
    "page": 1,
    "radius": 1000,
    "size": 5,
    "sort": "accuracy",
    "x": 127.0,
    "y": 37.495
  },
  "raw_args": {
    "keyword": "카페",
    "x": 127.0,
    "y": 37.495,
    "page": 1,
    "size": 5,
    "radius": 1000
  },
  "data": {
    "keyword": "카페",
    "total_count": 179,
    "places": [
      {
        "name": "마얘",
        "latitude": 37.4989176562548,
        "longitude": 126.997634199268,
        "address": "서울 서초구 반포동 106-6",
        "road_address": "서울 서초구 사평대로22길 14",
        "phone": "",
        "category": "음식점 > 카페 > 테마카페 > 디저트카페",
        "distance": "482"
      },
      {
        "name": "오뗄두스 서래점",
        "latitude": 37.499523151089605,
        "longitude": 126.9989075612043,
        "address": "서울 서초구 반포동 93-5",
        "road_address": "서울 서초구 서래로10길 9",
        "phone": "02-595-5705",
        "category": "음식점 > 카페 > 테마카페 > 디저트카페",
        "distance": "511"
      },
      {
        "name": "스퀘어가든",
        "latitude": 37.4979769875897,
        "longitude": 126.996860716802,
        "address": "서울 서초구 반포동 107-30",
        "road_address": "서울 서초구 서래로5길 26",
        "phone": "070-8888-5959",
        "category": "음식점 > 카페 > 커피전문점",
        "distance": "431"
      },
      {
        "name": "레망도 레 서래마을점",
        "latitude": 37.499777235681954,
        "longitude": 126.99900368339532,
        "address": "서울 서초구 반포동 68-1",
        "road_address": "서울 서초구 사평대로26길 9-3",
        "phone": "010-2540-3650",
        "category": "음식점 > 카페",
        "distance": "537"
      },
      {
        "name": "줄리에뜨",
        "latitude": 37.493980158937,
        "longitude": 127.001026771339,
        "address": "서울 서초구 반포동 577-41",
        "road_address": "서울 서초구 동광로 178",
        "phone": "02-535-4002",
        "category": "음식점 > 카페 > 테마카페 > 디저트카페",
        "distance": "145"
      }
    ]
  }
}