{
  "key": "057be0bdada71d1e4f99d52709563e411f8dd5e005904c2f6027c862f605df5a",
  "tool": "PlaceSearch_kakao",
  "created_at": "2025-10-21T05:31:22.241850",
  "input_params": {
    "keyword": "병원",
    "radius": 1000,
    "size": 15,
    "sort": "distance",
    "x": 127.05173889409078,
    "y": 37.5971656623384
  },
  "raw_args": {
    "keyword": "병원",
    "x": 127.05173889409078,
    "y": 37.5971656623384,
    "radius": 1000,
    "size": 15,
    "sort": "distance"
  },
  "data": {
    "keyword": "병원",
    "total_count": 86,
    "places": [
      {
        "name": "경희대학교한방병원 신장내분비내과",
        "latitude": 37.5941997967425,
        "longitude": 127.051285044921,
        "address": "서울 동대문구 회기동 1-5",
        "road_address": "서울 동대문구 경희대로 23",
        "phone": "02-958-8114",
        "category": "의료,건강 > 병원부속시설",
        "distance": "331"
      },
      {
        "name": "경희대학교병원 집단급식소",
        "latitude": 37.5941094343262,
        "longitude": 127.051887376465,
        "address": "서울 동대문구 회기동 1-5",
        "road_address": "서울 동대문구 경희대로 23",
        "phone": "",
        "category": "의료,건강 > 병원부속시설",
        "distance": "339"
      },
      {
        "name": "경희대학교치과병원 구강내과",
        "latitude": 37.5942854173416,
        "longitude": 127.053259872166,
        "address": "서울 동대문구 회기동 1-5",
        "road_address": "서울 동대문구 경희대로 26",
        "phone": "02-958-8114",
        "category": "의료,건강 > 병원부속시설",
        "distance": "346"
      },
      {
        "name": "경희대학교치과병원 치주과",
        "latitude": 37.5942710116973,
        "longitude": 127.053237215476,
        "address": "서울 동대문구 회기동 1-5",
        "road_address": "서울 동대문구 경희대로 26",
        "phone": "02-958-8114",
        "category": "의료,건강 > 병원부속시설",
        "distance": "347"
      },
      {
        "name": "경희대학교치과병원 보철과",
        "latitude": 37.5942710116973,
        "longitude": 127.053237215476,
        "address": "서울 동대문구 회기동 1-5",
        "road_address": "서울 동대문구 경희대로 26",
        "phone": "02-958-9340",
        "category": "의료,건강 > 병원부속시설",
        "distance": "347"
      },
      {
        "name": "경희대학교병원 소화기센터",
        "latitude": 37.5940202381719,
        "longitude": 127.051882785265,
        "address": "서울 동대문구 회기동 1-5",
        "road_address": "서울 동대문구 경희대로 23",
        "phone": "",
        "category": "의료,건강 > 병원부속시설",
        "distance": "349"
      },
      {
        "name": "경희대학교 치대부속병원 대한안면통증 구강내과학회",
        "latitude": 37.5942169358694,
        "longitude": 127.053273411204,
        "address": "서울 동대문구 회기동 1-5",
        "road_address": "서울 동대문구 경희대로 26",
        "phone": "02-958-9355",
        "category": "사회,공공기관 > 단체,협회",
        "distance": "354"
      },
      {
        "name": "경희대학교한방병원 언어치료센터",
        "latitude": 37.5939544896799,
        "longitude": 127.051828388433,
        "address": "서울 동대문구 회기동 1-5",
        "road_address": "서울 동대문구 경희대로 23",
        "phone": "02-958-9235",
        "category": "의료,건강 > 병원부속시설",
        "distance": "356"
      },
      {
        "name": "경희대학교한방병원 폐장호흡내과",
        "latitude": 37.5939328599194,
        "longitude": 127.051841961224,
        "address": "서울 동대문구 회기동 1-5",
        "road_address": "서울 동대문구 경희대로 23",
        "phone": "02-958-9145",
        "category": "의료,건강 > 병원부속시설",
        "distance": "358"
      },
      {
        "name": "경희대학교치과병원",
        "latitude": 37.59411424584499,
        "longitude": 127.05322238365355,
        "address": "서울 동대문구 회기동 1-5",
        "road_address": "서울 동대문구 경희대로 26",
        "phone": "02-958-8114",
        "category": "의료,건강 > 병원 > 치과",
        "distance": "362"
      },
      {
        "name": "경희대학교한방병원 침구과",
        "latitude": 37.5938860123455,
        "longitude": 127.051832870203,
        "address": "서울 동대문구 회기동 1-5",
        "road_address": "서울 동대문구 경희대로 23",
        "phone": "02-958-9207",
        "category": "의료,건강 > 병원부속시설",
        "distance": "364"
      },
      {
        "name": "경희의료원",
        "latitude": 37.5938752004487,
        "longitude": 127.051832862704,
        "address": "서울 동대문구 회기동 1-5",
        "road_address": "서울 동대문구 경희대로 23",
        "phone": "02-958-8114",
        "category": "의료,건강 > 병원 > 대학병원",
        "distance": "365"
      },
      {
        "name": "경희대학교한방병원",
        "latitude": 37.5938571806208,
        "longitude": 127.051832850206,
        "address": "서울 동대문구 회기동 1-5",
        "road_address": "서울 동대문구 경희대로 23",
        "phone": "02-958-8114",
        "category": "의료,건강 > 병원 > 한방병원",
        "distance": "367"
      },
      {
        "name": "경희대학교병원 내분비내과",
        "latitude": 37.5938463707129,
        "longitude": 127.051828313449,
        "address": "서울 동대문구 회기동 1-5",
        "road_address": "서울 동대문구 경희대로 23",
        "phone": "02-958-8822",
        "category": "의료,건강 > 병원부속시설",
        "distance": "368"
      },
      {
        "name": "경희대학교병원 의과학연구원",
        "latitude": 37.594012857849,
        "longitude": 127.050197892065,
        "address": "서울 동대문구 회기동 109-13",
        "road_address": "서울 동대문구 경희대로 23",
        "phone": "",
        "category": "의료,건강 > 병원부속시설",
        "distance": "375"
      }
    ]
  }
}