{
  "key": "05912487dd4964e1e365f6901618f58713b3a609b0a7e4acc3e3432fcb61ebcc",
  "tool": "PlaceSearch_kakao",
  "created_at": "2025-10-21T00:18:18.562822",
  "input_params": {
    "keyword": "주차장",
    "radius": 1000,
    "sort": "distance",
    "x": 127.0954,
    "y": 37.4678
  },
  "raw_args": {
    "keyword": "주차장",
    "x": 127.0954,
    "y": 37.4678,
    "radius": 1000,
    "sort": "distance"
  },
  "data": {
    "keyword": "주차장",
    "total_count": 17,
    "places": [
      {
        "name": "Tmap주차 운성주차장",
        "latitude": 37.4672752513511,
        "longitude": 127.099927618834,
        "address": "서울 강남구 세곡동 551",
        "road_address": "서울 강남구 헌릉로569길 18",
        "phone": "",
        "category": "교통,수송 > 교통시설 > 주차장",
        "distance": "404"
      },
      {
        "name": "스타벅스 강남세곡점 주차장",
        "latitude": 37.4672590331755,
        "longitude": 127.099927597247,
        "address": "서울 강남구 세곡동 551",
        "road_address": "서울 강남구 헌릉로569길 18",
        "phone": "",
        "category": "교통,수송 > 교통시설 > 주차장",
        "distance": "404"
      },
      {
        "name": "라온프라이빗오피스텔 주차장",
        "latitude": 37.466761785616804,
        "longitude": 127.09979693998659,
        "address": "서울 강남구 세곡동 590",
        "road_address": "서울 강남구 헌릉로569길 13",
        "phone": "",
        "category": "교통,수송 > 교통시설 > 주차장",
        "distance": "405"
      },
      {
        "name": "자곡문화센터 주차장",
        "latitude": 37.4714928395437,
        "longitude": 127.094502473745,
        "address": "서울 강남구 자곡동 628",
        "road_address": "서울 강남구 자곡로 100",
        "phone": "",
        "category": "교통,수송 > 교통시설 > 주차장",
        "distance": "417"
      },
      {
        "name": "나이스파크 자곡서강프라자 주차장",
        "latitude": 37.4720574502656,
        "longitude": 127.096020281605,
        "address": "서울 강남구 자곡동 636",
        "road_address": "서울 강남구 자곡로 114",
        "phone": "",
        "category": "교통,수송 > 교통시설 > 주차장",
        "distance": "475"
      },
      {
        "name": "강남드림하이오피스텔 주차장",
        "latitude": 37.466361845072996,
        "longitude": 127.10073123995919,
        "address": "서울 강남구 세곡동 615",
        "road_address": "서울 강남구 헌릉로569길 21-30",
        "phone": "",
        "category": "교통,수송 > 교통시설 > 주차장",
        "distance": "497"
      },
      {
        "name": "투루파킹 강남드림하이 주차장",
        "latitude": 37.4662933567586,
        "longitude": 127.100744712723,
        "address": "서울 강남구 세곡동 615",
        "road_address": "서울 강남구 헌릉로569길 21-30",
        "phone": "1688-1054",
        "category": "교통,수송 > 교통시설 > 주차장",
        "distance": "501"
      },
      {
        "name": "강남지웰파인즈오피스텔 주차장",
        "latitude": 37.466795057184,
        "longitude": 127.100935292375,
        "address": "서울 강남구 세곡동 587",
        "road_address": "서울 강남구 헌릉로569길 9",
        "phone": "",
        "category": "교통,수송 > 교통시설 > 주차장",
        "distance": "502"
      },
      {
        "name": "하이파킹 강남지웰파인즈 주차장",
        "latitude": 37.4666850576764,
        "longitude": 127.101024445593,
        "address": "서울 강남구 세곡동 587",
        "road_address": "서울 강남구 헌릉로569길 9",
        "phone": "",
        "category": "교통,수송 > 교통시설 > 주차장",
        "distance": "512"
      },
      {
        "name": "나이스파크 세곡 강남레체오피스텔 주차장",
        "latitude": 37.4660495650218,
        "longitude": 127.101351401882,
        "address": "서울 강남구 세곡동 582",
        "road_address": "서울 강남구 헌릉로571길 7",
        "phone": "",
        "category": "교통,수송 > 교통시설 > 주차장",
        "distance": "561"
      },
      {
        "name": "강남레체오피스텔 주차장",
        "latitude": 37.4660486649814,
        "longitude": 127.101350270283,
        "address": "서울 강남구 세곡동 582",
        "road_address": "서울 강남구 헌릉로571길 7",
        "phone": "",
        "category": "교통,수송 > 교통시설 > 주차장",
        "distance": "561"
      },
      {
        "name": "나이스파크 강남레체오피스텔 주차장",
        "latitude": 37.4660035291292,
        "longitude": 127.101449683098,
        "address": "서울 강남구 세곡동 582",
        "road_address": "서울 강남구 헌릉로571길 7",
        "phone": "",
        "category": "교통,수송 > 교통시설 > 주차장",
        "distance": "570"
      },
      {
        "name": "세곡리엔파크1단지아파트 주차장 입구",
        "latitude": 37.4637499516561,
        "longitude": 127.10056948688,
        "address": "서울 강남구 세곡동 508",
        "road_address": "서울 강남구 헌릉로590길 100",
        "phone": "",
        "category": "교통,수송 > 입출구",
        "distance": "641"
      },
      {
        "name": "세곡리엔파크1단지아파트 주차장",
        "latitude": 37.4637283466468,
        "longitude": 127.100546850958,
        "address": "서울 강남구 세곡동 508",
        "road_address": "서울 강남구 헌릉로590길 100",
        "phone": "",
        "category": "교통,수송 > 교통시설 > 주차장",
        "distance": "641"
      },
      {
        "name": "유탑유블레스 주차장",
        "latitude": 37.4735965915027,
        "longitude": 127.103243870675,
        "address": "서울 강남구 자곡동 651",
        "road_address": "서울 강남구 자곡로 180",
        "phone": "",
        "category": "교통,수송 > 교통시설 > 주차장",
        "distance": "946"
      }
    ]
  }
}