{
  "key": "8c177a0b95c8a39bc58ab705e22ebc49cf6627889b5eb0fdc0b8d9ea7b16aae2",
  "tool": "PlaceSearch_kakao",
  "created_at": "2025-10-26T10:36:21.866897",
  "input_params": {
    "keyword": "맛집",
    "radius": 1000,
    "sort": "accuracy",
    "x": 126.935,
    "y": 37.475
  },
  "raw_args": {
    "keyword": "맛집",
    "radius": 1000,
    "x": 126.935,
    "y": 37.475
  },
  "data": {
    "keyword": "맛집",
    "total_count": 938,
    "places": [
      {
        "name": "정원쌈밥보리밥",
        "latitude": 37.4719524605776,
        "longitude": 126.935029430017,
        "address": "서울 관악구 신림동 110-77",
        "road_address": "서울 관악구 신림로18가길 23",
        "phone": "02-887-6454",
        "category": "음식점 > 한식 > 쌈밥",
        "distance": "338"
      },
      {
        "name": "콩두주백 관악직영점",
        "latitude": 37.4738980862738,
        "longitude": 126.935659696858,
        "address": "서울 관악구 신림동 107-47",
        "road_address": "서울 관악구 신림로 184",
        "phone": "02-876-0233",
        "category": "음식점 > 한식 > 두부전문점",
        "distance": "135"
      },
      {
        "name": "윤지네과자점",
        "latitude": 37.474626879858,
        "longitude": 126.933805029807,
        "address": "서울 관악구 신림동 1694",
        "road_address": "서울 관악구 신림로29길 3-20",
        "phone": "0502-5552-3926",
        "category": "음식점 > 간식 > 제과,베이커리",
        "distance": "113"
      },
      {
        "name": "정남옥",
        "latitude": 37.472555872609114,
        "longitude": 126.93454958318215,
        "address": "서울 관악구 신림동 110-65",
        "road_address": "서울 관악구 신림로26길 24-8",
        "phone": "02-887-7888",
        "category": "음식점 > 한식 > 순대",
        "distance": "274"
      },
      {
        "name": "봉천연가 본점",
        "latitude": 37.471305222512,
        "longitude": 126.93610845248,
        "address": "서울 관악구 신림동 116-10",
        "road_address": "서울 관악구 신림로 120",
        "phone": "010-2464-0969",
        "category": "음식점 > 한식 > 육류,고기 > 닭요리",
        "distance": "421"
      },
      {
        "name": "희래원",
        "latitude": 37.47464399776243,
        "longitude": 126.93380275368254,
        "address": "서울 관악구 신림동 1694",
        "road_address": "서울 관악구 신림로29길 3-20",
        "phone": "02-876-9533",
        "category": "음식점 > 중식 > 중국요리",
        "distance": "113"
      },
      {
        "name": "명운추어탕 본점",
        "latitude": 37.4722622409796,
        "longitude": 126.934726193783,
        "address": "서울 관악구 신림동 110-83",
        "road_address": "서울 관악구 신림로18가길 32",
        "phone": "02-888-3850",
        "category": "음식점 > 한식 > 해물,생선 > 추어",
        "distance": "304"
      },
      {
        "name": "일구칠구 동태매운탕대구뽈찜전문점 신림본점",
        "latitude": 37.473097015050854,
        "longitude": 126.9338945572873,
        "address": "서울 관악구 신림동 112-48",
        "road_address": "서울 관악구 신림로26길 5",
        "phone": "02-888-1991",
        "category": "음식점 > 한식 > 해물,생선",
        "distance": "232"
      },
      {
        "name": "프롬카페",
        "latitude": 37.47756549434108,
        "longitude": 126.93295565006513,
        "address": "서울 관악구 신림동 409-13",
        "road_address": "서울 관악구 서원길 5",
        "phone": "0502-5552-7166",
        "category": "음식점 > 카페",
        "distance": "337"
      },
      {
        "name": "토방닭한마리 본점",
        "latitude": 37.4716498899324,
        "longitude": 126.93533717941,
        "address": "서울 관악구 신림동 116-2",
        "road_address": "서울 관악구 신림로22길 5",
        "phone": "02-874-6895",
        "category": "음식점 > 한식 > 육류,고기 > 닭요리",
        "distance": "373"
      },
      {
        "name": "길모퉁이",
        "latitude": 37.47581547208993,
        "longitude": 126.93740585487939,
        "address": "서울 관악구 신림동 96-95",
        "road_address": "서울 관악구 신림로 208",
        "phone": "",
        "category": "음식점 > 술집 > 호프,요리주점",
        "distance": "231"
      },
      {
        "name": "고시칼국수냉면",
        "latitude": 37.4724350294422,
        "longitude": 126.934355245892,
        "address": "서울 관악구 신림동 110-74",
        "road_address": "서울 관악구 신림로18가길 42",
        "phone": "070-7803-0001",
        "category": "음식점 > 한식 > 국수 > 칼국수",
        "distance": "290"
      },
      {
        "name": "마장돈",
        "latitude": 37.4711510330846,
        "longitude": 126.937575922436,
        "address": "서울 관악구 신림동 118-3",
        "road_address": "서울 관악구 신림로 108",
        "phone": "070-4833-5775",
        "category": "음식점 > 한식 > 육류,고기",
        "distance": "484"
      },
      {
        "name": "노브랜드버거 신림남부점",
        "latitude": 37.47067410529026,
        "longitude": 126.93372825338675,
        "address": "서울 관악구 신림동 1525-3",
        "road_address": "서울 관악구 호암로 600",
        "phone": "0502-5552-4965",
        "category": "음식점 > 패스트푸드 > 노브랜드버거",
        "distance": "493"
      },
      {
        "name": "최가네수제냉면돈가스",
        "latitude": 37.47490587334216,
        "longitude": 126.93820588957747,
        "address": "서울 관악구 신림동 96-105",
        "road_address": "서울 관악구 서림1길 4",
        "phone": "02-536-9970",
        "category": "음식점 > 한식 > 냉면",
        "distance": "283"
      }
    ]
  }
}