{
  "key": "8c61ab1dd52c2a7e5d60455f9563b78913d1eed8bc6dd2667d7907aadca70384",
  "tool": "PlaceSearch_kakao",
  "created_at": "2025-12-19T05:40:16.449241",
  "input_params": {
    "keyword": "홍대입구역",
    "size": 5,
    "sort": "accuracy"
  },
  "raw_args": {
    "keyword": "홍대입구역",
    "size": 5
  },
  "data": {
    "keyword": "홍대입구역",
    "total_count": 109,
    "places": [
      {
        "name": "홍대입구역 2호선",
        "latitude": 37.5568707448873,
        "longitude": 126.923778562273,
        "address": "서울 마포구 동교동 165",
        "road_address": "서울 마포구 양화로 지하 160",
        "phone": "02-6110-2391",
        "category": "교통,수송 > 지하철,전철 > 수도권2호선",
        "distance": ""
      },
      {
        "name": "홍대입구역 공항철도",
        "latitude": 37.5573052656667,
        "longitude": 126.927010430346,
        "address": "서울 마포구 동교동 190-1",
        "road_address": "서울 마포구 양화로 지하 188",
        "phone": "1599-7788",
        "category": "교통,수송 > 지하철,전철 > 공항철도",
        "distance": ""
      },
      {
        "name": "홍대입구역 경의중앙선",
        "latitude": 37.5574494922411,
        "longitude": 126.927118938976,
        "address": "서울 마포구 동교동 190-1",
        "road_address": "서울 마포구 양화로 지하 188",
        "phone": "1544-7788",
        "category": "교통,수송 > 지하철,전철 > 경의중앙선",
        "distance": ""
      },
      {
        "name": "홍대입구역사거리",
        "latitude": 37.5552258198989,
        "longitude": 126.921480562378,
        "address": "서울 마포구 서교동",
        "road_address": "",
        "phone": "",
        "category": "교통,수송 > 도로시설 > 교차로",
        "distance": ""
      },
      {
        "name": "올리브영 홍대입구역점",
        "latitude": 37.556257950840184,
        "longitude": 126.92359923889052,
        "address": "서울 마포구 동교동 165-8",
        "road_address": "서울 마포구 양화로 156",
        "phone": "1577-4887",
        "category": "가정,생활 > 드럭스토어 > 올리브영",
        "distance": ""
      }
    ]
  }
}