{
  "key": "9b2def2b04ba3ad864e59d2d45755be8a7bbdaaf0c847563d9396c2bf6d1ea89",
  "tool": "PlaceSearch_kakao",
  "created_at": "2025-12-14T15:18:43.505550",
  "input_params": {
    "keyword": "대학교",
    "radius": 2000,
    "sort": "accuracy",
    "x": 127.025,
    "y": 37.566
  },
  "raw_args": {
    "x": 127.025,
    "y": 37.566,
    "keyword": "대학교",
    "radius": 2000
  },
  "data": {
    "keyword": "대학교",
    "total_count": 140,
    "places": [
      {
        "name": "서울장로회신학",
        "latitude": 37.5747437255258,
        "longitude": 127.022561269005,
        "address": "서울 종로구 숭인동 1370",
        "road_address": "",
        "phone": "02-2238-6305",
        "category": "교육,학문 > 학교 > 대학교",
        "distance": "994"
      },
      {
        "name": "한양대학교병원",
        "latitude": 37.559672992601826,
        "longitude": 127.04410614745778,
        "address": "서울 성동구 사근동 110",
        "road_address": "서울 성동구 왕십리로 222-1",
        "phone": "02-2290-8114",
        "category": "의료,건강 > 병원 > 대학병원",
        "distance": "1828"
      },
      {
        "name": "한양대학교병원 장례식장",
        "latitude": 37.5598516591496,
        "longitude": 127.04337963710033,
        "address": "서울 성동구 사근동 110",
        "road_address": "서울 성동구 왕십리로 222-1",
        "phone": "02-2290-9442",
        "category": "가정,생활 > 장례 > 장례식장",
        "distance": "1761"
      },
      {
        "name": "나이스파크 경복대학교 산학협력관 주차장",
        "latitude": 37.57552357484288,
        "longitude": 127.02462294425484,
        "address": "서울 동대문구 신설동 101-9",
        "road_address": "",
        "phone": "",
        "category": "교통,수송 > 교통시설 > 주차장",
        "distance": "1057"
      },
      {
        "name": "동부대학약국",
        "latitude": 37.5750409830141,
        "longitude": 127.030841026214,
        "address": "서울 동대문구 용두동 118-99",
        "road_address": "서울 동대문구 무학로 122",
        "phone": "02-921-3212",
        "category": "의료,건강 > 약국",
        "distance": "1128"
      },
      {
        "name": "한양대학교 동문회관",
        "latitude": 37.5595549385814,
        "longitude": 127.04169082599,
        "address": "서울 성동구 행당동 15-1",
        "road_address": "서울 성동구 마조로 22-2",
        "phone": "",
        "category": "교육,학문 > 학교부속시설",
        "distance": "1638"
      },
      {
        "name": "성동구민대학",
        "latitude": 37.5593117369577,
        "longitude": 127.036009094802,
        "address": "서울 성동구 행당동 142-16",
        "road_address": "서울 성동구 왕십리로 281",
        "phone": "",
        "category": "교육,학문 > 문화센터",
        "distance": "1223"
      },
      {
        "name": "한양대학교사범대학 부속고등학교",
        "latitude": 37.5619189248829,
        "longitude": 127.042335023472,
        "address": "서울 성동구 사근동 223",
        "road_address": "서울 성동구 마조로 42",
        "phone": "02-2200-3520",
        "category": "교육,학문 > 학교 > 고등학교 > 자율형사립고등학교",
        "distance": "1597"
      },
      {
        "name": "아시아태평양대학 한국캠퍼스",
        "latitude": 37.5767578818522,
        "longitude": 127.024887119734,
        "address": "서울 동대문구 신설동 76-34",
        "road_address": "서울 동대문구 한빛로 12",
        "phone": "1577-0967",
        "category": "교육,학문 > 학교 > 전문대학",
        "distance": "1194"
      },
      {
        "name": "한양대학교 동문회관 주차장",
        "latitude": 37.5594327699952,
        "longitude": 127.041926623745,
        "address": "서울 성동구 사근동 110",
        "road_address": "서울 성동구 왕십리로 222",
        "phone": "",
        "category": "교통,수송 > 교통시설 > 주차장",
        "distance": "1663"
      },
      {
        "name": "한양대학교 제7학생생활관",
        "latitude": 37.56201776355689,
        "longitude": 127.04548610214573,
        "address": "서울 성동구 사근동 223",
        "road_address": "서울 성동구 살곶이2가길 51",
        "phone": "02-2220-1471",
        "category": "부동산 > 주거시설 > 기숙사,기숙시설",
        "distance": "1862"
      },
      {
        "name": "한양대학교병원 장례식장 주차장",
        "latitude": 37.5597868914255,
        "longitude": 127.043095517967,
        "address": "서울 성동구 사근동 110",
        "road_address": "",
        "phone": "",
        "category": "교통,수송 > 교통시설 > 주차장",
        "distance": "1740"
      },
      {
        "name": "대학약국",
        "latitude": 37.5599874473611,
        "longitude": 127.041605050013,
        "address": "서울 성동구 행당동 14-1",
        "road_address": "서울 성동구 사근동길 4",
        "phone": "02-2293-0554",
        "category": "의료,건강 > 약국",
        "distance": "1611"
      },
      {
        "name": "고려대학교 신공학관",
        "latitude": 37.5824734380177,
        "longitude": 127.026492136072,
        "address": "서울 성북구 안암동5가 126-16",
        "road_address": "서울 성북구 안암로 145",
        "phone": "",
        "category": "교육,학문 > 학교부속시설",
        "distance": "1833"
      },
      {
        "name": "와플대학 한양대캠퍼스",
        "latitude": 37.5597539354689,
        "longitude": 127.039427339566,
        "address": "서울 성동구 행당동 19-34",
        "road_address": "서울 성동구 마조로1길 28",
        "phone": "02-6160-7322",
        "category": "음식점 > 간식 > 제과,베이커리 > 와플대학",
        "distance": "1450"
      }
    ]
  }
}