{
  "key": "9b637532b6276002cfc62dc1499e364b9f22118e576e5894d433b6a469234b65",
  "tool": "PlaceSearch_kakao",
  "created_at": "2025-10-27T15:50:09.502691",
  "input_params": {
    "keyword": "박이",
    "radius": 1,
    "sort": "accuracy",
    "x": 127.236390492
  },
  "raw_args": {
    "x": 127.236390492,
    "keyword": "박이",
    "radius": 1
  },
  "data": {
    "keyword": "박이",
    "total_count": 7,
    "places": [
      {
        "name": "오박이식당",
        "latitude": 33.5147630534254,
        "longitude": 126.572812008076,
        "address": "제주특별자치도 제주시 화북이동 953-8",
        "road_address": "제주특별자치도 제주시 동화로 62",
        "phone": "",
        "category": "음식점 > 뷔페 > 한식뷔페",
        "distance": ""
      },
      {
        "name": "돈토박이",
        "latitude": 35.3054068826302,
        "longitude": 128.520792528391,
        "address": "경남 함안군 칠원읍 구성리 799-9",
        "road_address": "경남 함안군 칠원읍 서남길 85",
        "phone": "055-586-8235",
        "category": "음식점 > 한식 > 육류,고기",
        "distance": ""
      },
      {
        "name": "박이포차",
        "latitude": 35.1946603800257,
        "longitude": 128.077479713994,
        "address": "경남 진주시 봉곡동 15",
        "road_address": "경남 진주시 촉석로141번길 9-1",
        "phone": "",
        "category": "음식점 > 술집",
        "distance": ""
      },
      {
        "name": "박이뫼산",
        "latitude": 35.693033625758865,
        "longitude": 127.2596056143485,
        "address": "전북특별자치도 임실군 관촌면 슬치리 산 21",
        "road_address": "",
        "phone": "",
        "category": "여행 > 관광,명소 > 산",
        "distance": ""
      },
      {
        "name": "돈들박이",
        "latitude": 36.0654933653331,
        "longitude": 128.342144677711,
        "address": "경북 칠곡군 북삼읍 인평리",
        "road_address": "",
        "phone": "",
        "category": "부동산 > 지명",
        "distance": ""
      },
      {
        "name": "박이골",
        "latitude": 37.6991656473421,
        "longitude": 128.057051852286,
        "address": "강원특별자치도 홍천군 화촌면 군업리",
        "road_address": "",
        "phone": "",
        "category": "부동산 > 지명",
        "distance": ""
      },
      {
        "name": "옷난박이골",
        "latitude": 37.4978086650102,
        "longitude": 128.108716341143,
        "address": "강원특별자치도 횡성군 우천면 정금리",
        "road_address": "",
        "phone": "",
        "category": "부동산 > 지명",
        "distance": ""
      }
    ]
  }
}