{
  "key": "9b8b123c3a7f34e2b0d96e7064a5ab2d19022741e47075c490ab7b99782b2935",
  "tool": "PlaceSearch_kakao",
  "created_at": "2025-10-26T08:27:58.450834",
  "input_params": {
    "keyword": "주차장",
    "radius": 1000,
    "sort": "accuracy",
    "x": 127.0984,
    "y": 37.4731
  },
  "raw_args": {
    "keyword": "주차장",
    "x": 127.0984,
    "y": 37.4731,
    "radius": 1000,
    "sort": "accuracy"
  },
  "data": {
    "keyword": "주차장",
    "total_count": 21,
    "places": [
      {
        "name": "나이스파크 자곡서강프라자 주차장",
        "latitude": 37.4720574502656,
        "longitude": 127.096020281605,
        "address": "서울 강남구 자곡동 636",
        "road_address": "서울 강남구 자곡로 114",
        "phone": "",
        "category": "교통,수송 > 교통시설 > 주차장",
        "distance": "239"
      },
      {
        "name": "자곡문화센터 주차장",
        "latitude": 37.4714928395437,
        "longitude": 127.094502473745,
        "address": "서울 강남구 자곡동 628",
        "road_address": "서울 강남구 자곡로 100",
        "phone": "",
        "category": "교통,수송 > 교통시설 > 주차장",
        "distance": "388"
      },
      {
        "name": "유탑유블레스 주차장",
        "latitude": 37.4735965915027,
        "longitude": 127.103243870675,
        "address": "서울 강남구 자곡동 651",
        "road_address": "서울 강남구 자곡로 180",
        "phone": "",
        "category": "교통,수송 > 교통시설 > 주차장",
        "distance": "432"
      },
      {
        "name": "방죽1마을주차장",
        "latitude": 37.4703552106967,
        "longitude": 127.105787444396,
        "address": "서울 강남구 율현동 311",
        "road_address": "",
        "phone": "",
        "category": "교통,수송 > 교통시설 > 주차장",
        "distance": "721"
      },
      {
        "name": "강남더샵라르고 주차장",
        "latitude": 37.4753332253963,
        "longitude": 127.104849342512,
        "address": "서울 강남구 자곡동 596",
        "road_address": "서울 강남구 자곡로 201",
        "phone": "",
        "category": "교통,수송 > 교통시설 > 주차장",
        "distance": "622"
      },
      {
        "name": "스타벅스 강남세곡점 주차장",
        "latitude": 37.4672590331755,
        "longitude": 127.099927597247,
        "address": "서울 강남구 세곡동 551",
        "road_address": "서울 강남구 헌릉로569길 18",
        "phone": "",
        "category": "교통,수송 > 교통시설 > 주차장",
        "distance": "662"
      },
      {
        "name": "힐스테이트에코 주차장",
        "latitude": 37.4747122608998,
        "longitude": 127.105039532,
        "address": "서울 강남구 자곡동 659",
        "road_address": "서울 강남구 자곡로 202",
        "phone": "",
        "category": "교통,수송 > 교통시설 > 주차장",
        "distance": "614"
      },
      {
        "name": "강남드림하이오피스텔 주차장",
        "latitude": 37.466361845072996,
        "longitude": 127.10073123995919,
        "address": "서울 강남구 세곡동 615",
        "road_address": "서울 강남구 헌릉로569길 21-30",
        "phone": "",
        "category": "교통,수송 > 교통시설 > 주차장",
        "distance": "775"
      },
      {
        "name": "단미그린비 주차장",
        "latitude": 37.479247298117,
        "longitude": 127.102696528241,
        "address": "서울 강남구 자곡동 286",
        "road_address": "",
        "phone": "",
        "category": "교통,수송 > 교통시설 > 주차장",
        "distance": "781"
      },
      {
        "name": "라온프라이빗오피스텔 주차장",
        "latitude": 37.466761785616804,
        "longitude": 127.09979693998659,
        "address": "서울 강남구 세곡동 590",
        "road_address": "서울 강남구 헌릉로569길 13",
        "phone": "",
        "category": "교통,수송 > 교통시설 > 주차장",
        "distance": "714"
      },
      {
        "name": "하이파킹 강남지웰파인즈 주차장",
        "latitude": 37.4666850576764,
        "longitude": 127.101024445593,
        "address": "서울 강남구 세곡동 587",
        "road_address": "서울 강남구 헌릉로569길 9",
        "phone": "",
        "category": "교통,수송 > 교통시설 > 주차장",
        "distance": "748"
      },
      {
        "name": "강남훼미리타운상가 주차장",
        "latitude": 37.4738335942492,
        "longitude": 127.107248432437,
        "address": "서울 강남구 자곡동 56-117",
        "road_address": "서울 강남구 밤고개로 227",
        "phone": "",
        "category": "교통,수송 > 교통시설 > 주차장",
        "distance": "787"
      },
      {
        "name": "Tmap주차 운성주차장",
        "latitude": 37.4672752513511,
        "longitude": 127.099927618834,
        "address": "서울 강남구 세곡동 551",
        "road_address": "서울 강남구 헌릉로569길 18",
        "phone": "",
        "category": "교통,수송 > 교통시설 > 주차장",
        "distance": "660"
      },
      {
        "name": "나이스파크 세곡 강남레체오피스텔 주차장",
        "latitude": 37.4660495650218,
        "longitude": 127.101351401882,
        "address": "서울 강남구 세곡동 582",
        "road_address": "서울 강남구 헌릉로571길 7",
        "phone": "",
        "category": "교통,수송 > 교통시설 > 주차장",
        "distance": "825"
      },
      {
        "name": "투루파킹 강남드림하이 주차장",
        "latitude": 37.4662933567586,
        "longitude": 127.100744712723,
        "address": "서울 강남구 세곡동 615",
        "road_address": "서울 강남구 헌릉로569길 21-30",
        "phone": "1688-1054",
        "category": "교통,수송 > 교통시설 > 주차장",
        "distance": "783"
      }
    ]
  }
}