{
  "key": "6624886c8d2fb9d5e8946d8d5ef0206ef323e417f8e4b9e45da1c63a35cac90d",
  "tool": "PlaceSearch_kakao",
  "created_at": "2025-10-26T12:20:39.624348",
  "input_params": {
    "keyword": "마카롱",
    "radius": 1000,
    "size": 15,
    "sort": "distance",
    "x": 127.0276,
    "y": 37.4979
  },
  "raw_args": {
    "keyword": "마카롱",
    "x": 127.0276,
    "y": 37.4979,
    "radius": 1000,
    "sort": "distance",
    "size": 15
  },
  "data": {
    "keyword": "마카롱",
    "total_count": 16,
    "places": [
      {
        "name": "고디바 삼성타운점",
        "latitude": 37.4958330047953,
        "longitude": 127.027637567435,
        "address": "서울 서초구 서초동 1327-3",
        "road_address": "서울 서초구 서초대로78길 22",
        "phone": "02-517-3975",
        "category": "음식점 > 간식 > 초콜릿",
        "distance": "229"
      },
      {
        "name": "크리미숑",
        "latitude": 37.494799318551806,
        "longitude": 127.02860968978608,
        "address": "서울 서초구 서초동 1328-11",
        "road_address": "서울 서초구 강남대로 359",
        "phone": "010-8030-7695",
        "category": "음식점 > 간식 > 제과,베이커리",
        "distance": "355"
      },
      {
        "name": "팡뮤제 강남본점",
        "latitude": 37.4962481668029,
        "longitude": 127.032007284629,
        "address": "서울 강남구 역삼동 827-64",
        "road_address": "서울 강남구 테헤란로8길 40",
        "phone": "",
        "category": "음식점 > 간식 > 제과,베이커리",
        "distance": "430"
      },
      {
        "name": "테이크원커피 SG아트타워",
        "latitude": 37.5020048306787,
        "longitude": 127.02792257379,
        "address": "서울 강남구 역삼동 621-1",
        "road_address": "서울 강남구 봉은사로18길 71",
        "phone": "",
        "category": "음식점 > 카페",
        "distance": "456"
      },
      {
        "name": "아방베이커리 강남점",
        "latitude": 37.5004665399375,
        "longitude": 127.032514598888,
        "address": "서울 강남구 역삼동 647",
        "road_address": "서울 강남구 테헤란로13길 12",
        "phone": "02-554-0647",
        "category": "음식점 > 간식 > 제과,베이커리",
        "distance": "519"
      },
      {
        "name": "몽슈슈 강남점",
        "latitude": 37.49419228545968,
        "longitude": 127.0311990099186,
        "address": "서울 강남구 역삼동 831-38",
        "road_address": "서울 강남구 역삼로3길 11",
        "phone": "0503-7153-5258",
        "category": "음식점 > 카페 > 테마카페 > 디저트카페",
        "distance": "520"
      },
      {
        "name": "블리스라운드 역삼본점",
        "latitude": 37.4981875307888,
        "longitude": 127.033812979016,
        "address": "서울 강남구 역삼동 735-17",
        "road_address": "서울 강남구 논현로85길 52",
        "phone": "",
        "category": "음식점 > 간식 > 제과,베이커리",
        "distance": "550"
      },
      {
        "name": "요거트퍼플 강남역점",
        "latitude": 37.4935022767484,
        "longitude": 127.03057678389,
        "address": "서울 강남구 역삼동 831-11",
        "road_address": "서울 강남구 강남대로 338",
        "phone": "",
        "category": "음식점 > 카페 > 테마카페 > 디저트카페",
        "distance": "554"
      },
      {
        "name": "아란로빈",
        "latitude": 37.5028961296973,
        "longitude": 127.027044165443,
        "address": "서울 강남구 역삼동 812-7",
        "road_address": "서울 강남구 봉은사로4길 31-3",
        "phone": "0507-1352-9306",
        "category": "음식점 > 카페",
        "distance": "556"
      },
      {
        "name": "크라프트카페",
        "latitude": 37.5033363584559,
        "longitude": 127.028585804312,
        "address": "서울 강남구 역삼동 618-4",
        "road_address": "서울 강남구 강남대로102길 38-5",
        "phone": "070-4667-2436",
        "category": "음식점 > 카페",
        "distance": "609"
      },
      {
        "name": "김영모과자점 서초동성당점",
        "latitude": 37.4937764144473,
        "longitude": 127.021317886112,
        "address": "서울 서초구 서초동 1635-1",
        "road_address": "서울 서초구 서초대로64길 41-4",
        "phone": "02-3473-5484",
        "category": "음식점 > 간식 > 제과,베이커리 > 김영모과자점",
        "distance": "720"
      },
      {
        "name": "커피일루",
        "latitude": 37.4965129073865,
        "longitude": 127.035693947676,
        "address": "서울 강남구 역삼동 749",
        "road_address": "서울 강남구 논현로75길 37",
        "phone": "",
        "category": "음식점 > 카페 > 커피전문점",
        "distance": "731"
      },
      {
        "name": "로얄마카롱",
        "latitude": 37.5022676929746,
        "longitude": 127.035497643301,
        "address": "서울 강남구 역삼동 641-15",
        "road_address": "서울 강남구 테헤란로25길 26",
        "phone": "070-4110-2000",
        "category": "음식점 > 카페 > 테마카페 > 디저트카페",
        "distance": "849"
      },
      {
        "name": "하타가야",
        "latitude": 37.5060496779603,
        "longitude": 127.030615830307,
        "address": "서울 강남구 역삼동 604-6",
        "road_address": "서울 강남구 봉은사로 146",
        "phone": "",
        "category": "음식점 > 간식 > 제과,베이커리",
        "distance": "942"
      },
      {
        "name": "밀갸또",
        "latitude": 37.49311380422772,
        "longitude": 127.01813790966504,
        "address": "서울 서초구 서초동 1668-16",
        "road_address": "서울 서초구 서초대로58길 37",
        "phone": "02-585-9997",
        "category": "음식점 > 간식 > 제과,베이커리",
        "distance": "991"
      }
    ]
  }
}