{
  "key": "663afa4e75e41535c4ad8f26888fa61bd434367e617197d29588a986289f19ba",
  "tool": "PlaceSearch_kakao",
  "created_at": "2025-12-19T02:16:46.877351",
  "input_params": {
    "keyword": "한국외국어대학교",
    "sort": "accuracy"
  },
  "raw_args": {
    "keyword": "한국외국어대학교"
  },
  "data": {
    "keyword": "한국외국어대학교",
    "total_count": 224,
    "places": [
      {
        "name": "한국외국어대학교 서울캠퍼스",
        "latitude": 37.5975430443335,
        "longitude": 127.05784829549488,
        "address": "서울 동대문구 이문동 270-1",
        "road_address": "서울 동대문구 이문로 107",
        "phone": "02-2173-2114",
        "category": "교육,학문 > 학교 > 대학교",
        "distance": ""
      },
      {
        "name": "한국외국어대학교 글로벌캠퍼스",
        "latitude": 37.33707269715763,
        "longitude": 127.26543237686843,
        "address": "경기 용인시 처인구 모현읍 왕산리 산 55-4",
        "road_address": "경기 용인시 처인구 모현읍 외대로 81",
        "phone": "031-330-4114",
        "category": "교육,학문 > 학교 > 대학교",
        "distance": ""
      },
      {
        "name": "한국외국어대학교 서울캠퍼스 본관",
        "latitude": 37.59733758845446,
        "longitude": 127.05790928428522,
        "address": "서울 동대문구 이문동 270-1",
        "road_address": "서울 동대문구 이문로 107",
        "phone": "02-2173-2114",
        "category": "교육,학문 > 학교부속시설",
        "distance": ""
      },
      {
        "name": "한국외대정문",
        "latitude": 37.5965021772992,
        "longitude": 127.060096346596,
        "address": "서울 동대문구 이문동 270-1",
        "road_address": "서울 동대문구 이문로 107",
        "phone": "",
        "category": "교통,수송 > 입출구",
        "distance": ""
      },
      {
        "name": "한국외국어대학교 글로벌홀",
        "latitude": 37.59673253665961,
        "longitude": 127.06067176993938,
        "address": "서울 동대문구 이문동 288-10",
        "road_address": "서울 동대문구 이문로 114",
        "phone": "02-6235-2862",
        "category": "부동산 > 주거시설 > 기숙사,기숙시설",
        "distance": ""
      },
      {
        "name": "한국외국어대학교 국제학사",
        "latitude": 37.59635575623338,
        "longitude": 127.05740122936658,
        "address": "서울 동대문구 이문동 277-1",
        "road_address": "서울 동대문구 이문로 107",
        "phone": "02-2173-2136",
        "category": "교육,학문 > 학교부속시설",
        "distance": ""
      },
      {
        "name": "사이버한국외국어대학교",
        "latitude": 37.5964744757648,
        "longitude": 127.05964451486702,
        "address": "서울 동대문구 이문동 270-1",
        "road_address": "서울 동대문구 이문로 107",
        "phone": "02-2173-2580",
        "category": "교육,학문 > 학교 > 사이버대학",
        "distance": ""
      },
      {
        "name": "한국외국어대학교 서울캠퍼스 사이버관",
        "latitude": 37.596303228499,
        "longitude": 127.059761010427,
        "address": "서울 동대문구 이문동 270-1",
        "road_address": "서울 동대문구 이문로 107",
        "phone": "",
        "category": "교육,학문 > 학교부속시설",
        "distance": ""
      },
      {
        "name": "한국외국어대학교 인문과학관",
        "latitude": 37.5979955661099,
        "longitude": 127.057388900539,
        "address": "서울 동대문구 이문동 270-1",
        "road_address": "서울 동대문구 이문로 107",
        "phone": "",
        "category": "교육,학문 > 학교부속시설",
        "distance": ""
      },
      {
        "name": "한국외국어대학교 사회과학관",
        "latitude": 37.5960997002405,
        "longitude": 127.057758854908,
        "address": "서울 동대문구 이문동 277-1",
        "road_address": "서울 동대문구 이문로 107",
        "phone": "",
        "category": "교육,학문 > 학교부속시설",
        "distance": ""
      },
      {
        "name": "우리은행 한국외국어대학교지점",
        "latitude": 37.595604218476424,
        "longitude": 127.05944566051546,
        "address": "서울 동대문구 이문동 284-1",
        "road_address": "서울 동대문구 이문로 99",
        "phone": "02-969-0050",
        "category": "금융,보험 > 금융서비스 > 은행 > 우리은행",
        "distance": ""
      },
      {
        "name": "한국외국어대학교 경영대학원",
        "latitude": 37.5964699690937,
        "longitude": 127.059647908333,
        "address": "서울 동대문구 이문동 270-1",
        "road_address": "서울 동대문구 이문로 107",
        "phone": "02-2173-2408",
        "category": "교육,학문 > 학교 > 대학원",
        "distance": ""
      },
      {
        "name": "한국외국어대학교 교수회관",
        "latitude": 37.5958141596486,
        "longitude": 127.059425445325,
        "address": "서울 동대문구 이문동 284-1",
        "road_address": "서울 동대문구 이문로 99",
        "phone": "",
        "category": "교육,학문 > 학교부속시설",
        "distance": ""
      },
      {
        "name": "한국외국어대학교 오바마홀",
        "latitude": 37.5972670252893,
        "longitude": 127.058489001263,
        "address": "서울 동대문구 이문동 270-1",
        "road_address": "서울 동대문구 이문로 107",
        "phone": "",
        "category": "교육,학문 > 학교부속시설",
        "distance": ""
      },
      {
        "name": "한국외국어대학교 서울캠퍼스 주차장",
        "latitude": 37.59690847020297,
        "longitude": 127.05840945532915,
        "address": "서울 동대문구 이문동 270-1",
        "road_address": "서울 동대문구 이문로 107",
        "phone": "",
        "category": "교통,수송 > 교통시설 > 주차장",
        "distance": ""
      }
    ]
  }
}