{
  "key": "66b9f53088d3d664af39066b9720f1010f5550518b8c9d9c620318f18f82ab4e",
  "tool": "PlaceSearch_kakao",
  "created_at": "2025-12-14T15:27:04.787731",
  "input_params": {
    "keyword": "맛집",
    "radius": 1000,
    "size": 5,
    "sort": "distance",
    "x": 127.216475764948,
    "y": 37.6360236390492
  },
  "raw_args": {
    "keyword": "맛집",
    "x": 127.216475764948,
    "y": 37.6360236390492,
    "radius": 1000,
    "size": 5,
    "sort": "distance"
  },
  "data": {
    "keyword": "맛집",
    "total_count": 112,
    "places": [
      {
        "name": "뜨란",
        "latitude": 37.6358722995465,
        "longitude": 127.216461730489,
        "address": "경기 남양주시 금곡동 185-10",
        "road_address": "경기 남양주시 경춘로 1037",
        "phone": "031-592-7150",
        "category": "음식점 > 카페 > 커피전문점",
        "distance": "16"
      },
      {
        "name": "매머드익스프레스 남양주시청제1청사점",
        "latitude": 37.6364148527216,
        "longitude": 127.215882096747,
        "address": "경기 남양주시 금곡동 203-31",
        "road_address": "경기 남양주시 경춘로양골1길 13",
        "phone": "",
        "category": "음식점 > 카페 > 커피전문점 > 매머드익스프레스",
        "distance": "67"
      },
      {
        "name": "티롤",
        "latitude": 37.6364096913831,
        "longitude": 127.215748392725,
        "address": "경기 남양주시 금곡동 203-32",
        "road_address": "경기 남양주시 경춘로양골1길 11",
        "phone": "",
        "category": "음식점 > 카페",
        "distance": "77"
      },
      {
        "name": "풀문",
        "latitude": 37.6361732018748,
        "longitude": 127.215491661151,
        "address": "경기 남양주시 금곡동 185-41",
        "road_address": "경기 남양주시 경춘로양골1길 10",
        "phone": "070-7543-3894",
        "category": "음식점 > 카페",
        "distance": "88"
      },
      {
        "name": "달리는커피 남양주금곡점",
        "latitude": 37.6370749815033,
        "longitude": 127.216533197623,
        "address": "경기 남양주시 금곡동 204-2",
        "road_address": "경기 남양주시 경춘로양골1길 9-27",
        "phone": "031-559-5202",
        "category": "음식점 > 카페",
        "distance": "116"
      }
    ]
  }
}