{
  "key": "66c609c52124fb97baa3e3a284b3cb2cc2f80c466f728888194a1afa8c8ef920",
  "tool": "PlaceSearch_kakao",
  "created_at": "2025-10-27T09:04:07.277276",
  "input_params": {
    "keyword": "맛집",
    "radius": 1000,
    "sort": "accuracy",
    "x": 126.947,
    "y": 37.4826
  },
  "raw_args": {
    "keyword": "맛집",
    "radius": 1000,
    "x": 126.947,
    "y": 37.4826
  },
  "data": {
    "keyword": "맛집",
    "total_count": 1556,
    "places": [
      {
        "name": "논밭골 봉천점",
        "latitude": 37.4804959271283,
        "longitude": 126.945948171788,
        "address": "서울 관악구 봉천동 915-26",
        "road_address": "서울 관악구 청룡길 30",
        "phone": "02-875-6493",
        "category": "음식점 > 한식 > 육류,고기 > 갈비",
        "distance": "251"
      },
      {
        "name": "육진정육식당 본점",
        "latitude": 37.4832593775756,
        "longitude": 126.944132628584,
        "address": "서울 관악구 봉천동 924-39",
        "road_address": "서울 관악구 봉천로 397",
        "phone": "02-872-3376",
        "category": "음식점 > 한식 > 육류,고기",
        "distance": "263"
      },
      {
        "name": "장군포차 봉천점",
        "latitude": 37.481398535760654,
        "longitude": 126.94550771211325,
        "address": "서울 관악구 봉천동 913-8",
        "road_address": "서울 관악구 청룡2길 12-1",
        "phone": "02-872-0562",
        "category": "음식점 > 술집 > 실내포장마차",
        "distance": "187"
      },
      {
        "name": "스시려",
        "latitude": 37.482076480385494,
        "longitude": 126.95047858185644,
        "address": "서울 관악구 봉천동 874-1",
        "road_address": "서울 관악구 봉천로 456",
        "phone": "02-874-1275",
        "category": "음식점 > 일식 > 초밥,롤",
        "distance": "313"
      },
      {
        "name": "24시서울밥집 봉천점",
        "latitude": 37.481703478082665,
        "longitude": 126.94255091867976,
        "address": "서울 관악구 봉천동 927-18",
        "road_address": "서울 관악구 장군봉1길 45",
        "phone": "",
        "category": "음식점 > 한식",
        "distance": "405"
      },
      {
        "name": "목포회센타",
        "latitude": 37.4817393541584,
        "longitude": 126.946024158316,
        "address": "서울 관악구 봉천동 913-1",
        "road_address": "서울 관악구 남부순환로 1766",
        "phone": "",
        "category": "음식점 > 한식 > 해물,생선 > 회",
        "distance": "128"
      },
      {
        "name": "빼누카츠",
        "latitude": 37.480896907511834,
        "longitude": 126.94601685004824,
        "address": "서울 관악구 봉천동 914-3",
        "road_address": "서울 관악구 청룡길 20",
        "phone": "02-6449-0974",
        "category": "음식점 > 일식 > 돈까스,우동",
        "distance": "208"
      },
      {
        "name": "상봉해물",
        "latitude": 37.481270659719,
        "longitude": 126.945653654151,
        "address": "서울 관악구 봉천동 914-21",
        "road_address": "서울 관악구 청룡2길 9",
        "phone": "02-887-8650",
        "category": "음식점 > 한식 > 해물,생선",
        "distance": "189"
      },
      {
        "name": "피자파쪼",
        "latitude": 37.4818852340336,
        "longitude": 126.949926964037,
        "address": "서울 관악구 봉천동 874-6",
        "road_address": "서울 관악구 남부순환로 1797",
        "phone": "0507-1307-1335",
        "category": "음식점 > 양식 > 피자",
        "distance": "270"
      },
      {
        "name": "네이티브서울",
        "latitude": 37.4811278859595,
        "longitude": 126.946722185516,
        "address": "서울 관악구 봉천동 895-21",
        "road_address": "서울 관악구 청룡1길 8",
        "phone": "010-8475-2609",
        "category": "음식점 > 카페",
        "distance": "165"
      },
      {
        "name": "남도포장마차",
        "latitude": 37.481195095356,
        "longitude": 126.945916011004,
        "address": "서울 관악구 봉천동 914-27",
        "road_address": "서울 관악구 청룡2길 3",
        "phone": "02-871-9121",
        "category": "음식점 > 술집 > 실내포장마차",
        "distance": "183"
      },
      {
        "name": "태스시",
        "latitude": 37.4812246053731,
        "longitude": 126.947417443875,
        "address": "서울 관악구 봉천동 894-2",
        "road_address": "서울 관악구 청룡1길 19",
        "phone": "",
        "category": "음식점 > 일식 > 초밥,롤",
        "distance": "157"
      },
      {
        "name": "관악산가마솥녹두삼계탕",
        "latitude": 37.48063508339251,
        "longitude": 126.9509996110443,
        "address": "서울 관악구 봉천동 868-23",
        "road_address": "서울 관악구 관악로17길 13",
        "phone": "02-887-0188",
        "category": "음식점 > 한식 > 육류,고기 > 닭요리 > 삼계탕",
        "distance": "415"
      },
      {
        "name": "팀홀튼 서울대입구역점",
        "latitude": 37.4816982219847,
        "longitude": 126.950874548571,
        "address": "서울 관악구 봉천동 870-12",
        "road_address": "서울 관악구 남부순환로 1805",
        "phone": "070-7450-1006",
        "category": "음식점 > 카페 > 커피전문점 > 팀홀튼",
        "distance": "357"
      },
      {
        "name": "농장사람들 서울대입구역점",
        "latitude": 37.482036231399206,
        "longitude": 126.95119090236291,
        "address": "서울 관악구 봉천동 870-2",
        "road_address": "서울 관악구 봉천로 462",
        "phone": "02-878-5678",
        "category": "음식점 > 한식 > 육류,고기",
        "distance": "376"
      }
    ]
  }
}