{
  "key": "da4598a986745403a98ea624f03ccf6110ff9af58705bde02d8c1b150d24f779",
  "tool": "CategorySearch_kakao",
  "created_at": "2025-10-21T01:54:27.642407",
  "input_params": {
    "category": "FD6",
    "radius": 1000,
    "size": 15,
    "x": 126.9772,
    "y": 37.5868
  },
  "raw_args": {
    "radius": 1000,
    "y": 37.5868,
    "category": "FD6",
    "x": 126.9772
  },
  "data": {
    "category": "FD6",
    "total_count": 213,
    "places": [
      {
        "name": "삼청동수제비",
        "latitude": 37.5845977743306,
        "longitude": 126.98197124938,
        "address": "서울 종로구 삼청동 102-2",
        "phone": "02-735-2965",
        "distance": "486"
      },
      {
        "name": "황생가칼국수",
        "latitude": 37.58006016029821,
        "longitude": 126.98064098689737,
        "address": "서울 종로구 소격동 84",
        "phone": "02-739-6334",
        "distance": "807"
      },
      {
        "name": "부영도가니탕",
        "latitude": 37.58719634044674,
        "longitude": 126.98265447996478,
        "address": "서울 종로구 삼청동 27-14",
        "phone": "02-730-9440",
        "distance": "483"
      },
      {
        "name": "소선재푸드",
        "latitude": 37.5855203606309,
        "longitude": 126.981771761666,
        "address": "서울 종로구 삼청동 113-3",
        "phone": "02-730-7002",
        "distance": "427"
      },
      {
        "name": "편안한집",
        "latitude": 37.5872937461736,
        "longitude": 126.983338315565,
        "address": "서울 종로구 삼청동 27-3",
        "phone": "02-735-0092",
        "distance": "544"
      },
      {
        "name": "청수정",
        "latitude": 37.5835958287631,
        "longitude": 126.981704301353,
        "address": "서울 종로구 삼청동 88-23",
        "phone": "02-738-8288",
        "distance": "533"
      },
      {
        "name": "다락정",
        "latitude": 37.58723851547563,
        "longitude": 126.98152338766235,
        "address": "서울 종로구 삼청동 127",
        "phone": "02-725-1697",
        "distance": "384"
      },
      {
        "name": "온지음 레스토랑",
        "latitude": 37.580494739542516,
        "longitude": 126.97339071212892,
        "address": "서울 종로구 창성동 17-1",
        "phone": "02-6952-0024",
        "distance": "776"
      },
      {
        "name": "몽중헌 안국점",
        "latitude": 37.579594816597805,
        "longitude": 126.98375890795886,
        "address": "서울 종로구 화동 117",
        "phone": "02-730-2051",
        "distance": "987"
      },
      {
        "name": "잘빠진메밀 서촌점",
        "latitude": 37.57966895174509,
        "longitude": 126.97098201026118,
        "address": "서울 종로구 통인동 120",
        "phone": "070-4142-1214",
        "distance": "963"
      },
      {
        "name": "PKM가든레스토랑",
        "latitude": 37.5840929192001,
        "longitude": 126.980110088442,
        "address": "서울 종로구 삼청동 157-83",
        "phone": "02-734-9466",
        "distance": "395"
      },
      {
        "name": "눈나무집",
        "latitude": 37.58746562127582,
        "longitude": 126.98188224468566,
        "address": "서울 종로구 삼청동 20-8",
        "phone": "02-739-6742",
        "distance": "420"
      },
      {
        "name": "경춘자의라면땡기는날",
        "latitude": 37.57929457090153,
        "longitude": 126.98226687271689,
        "address": "서울 종로구 화동 138-21",
        "phone": "02-733-3330",
        "distance": "945"
      },
      {
        "name": "들풀건강한밥상 청운동점",
        "latitude": 37.586427998006215,
        "longitude": 126.97015514328469,
        "address": "서울 종로구 청운동 69",
        "phone": "02-720-4323",
        "distance": "623"
      },
      {
        "name": "두오모 북스앤쿡스",
        "latitude": 37.5816116340889,
        "longitude": 126.971556378056,
        "address": "서울 종로구 효자동 40-2",
        "phone": "02-730-0902",
        "distance": "761"
      }
    ]
  }
}