{
  "key": "178d931734e9c47d9775c09576d0657466ba93cd4dba84a86454753b79418653",
  "tool": "CategorySearch_kakao",
  "created_at": "2025-10-27T15:39:10.719493",
  "input_params": {
    "category": "CE7",
    "radius": 1000,
    "size": 15,
    "x": 127621,
    "y": 37.498095
  },
  "raw_args": {
    "category": "CE7",
    "x": 127621,
    "y": 37.498095
  },
  "data": {
    "category": "CE7",
    "total_count": 139681,
    "places": [
      {
        "name": "벌툰 엔틱 강남역점",
        "latitude": 37.5007307950853,
        "longitude": 127.027978644718,
        "address": "서울 강남구 역삼동 817-35",
        "phone": "02-569-4976",
        "distance": ""
      },
      {
        "name": "놀숲 종로관철점",
        "latitude": 37.56924729467428,
        "longitude": 126.98701096148542,
        "address": "서울 종로구 관철동 7-5",
        "phone": "02-730-2049",
        "distance": ""
      },
      {
        "name": "벌툰 부산서면본점",
        "latitude": 35.15500361350804,
        "longitude": 129.06064674134765,
        "address": "부산 부산진구 부전동 183-1",
        "phone": "051-819-0045",
        "distance": ""
      },
      {
        "name": "벌툰 인더스트리얼 홍대본점",
        "latitude": 37.550604561853106,
        "longitude": 126.92007762539521,
        "address": "서울 마포구 서교동 395-18",
        "phone": "02-3142-8880",
        "distance": ""
      },
      {
        "name": "보드게임카페 레드버튼 서면점",
        "latitude": 35.1543200194312,
        "longitude": 129.062106403266,
        "address": "부산 부산진구 부전동 222-1",
        "phone": "051-806-3799",
        "distance": ""
      },
      {
        "name": "벌툰 대학로점",
        "latitude": 37.5816005866323,
        "longitude": 127.0037133843,
        "address": "서울 종로구 동숭동 1-96",
        "phone": "02-742-4158",
        "distance": ""
      },
      {
        "name": "놀숲 마곡발산점",
        "latitude": 37.56013550392,
        "longitude": 126.837699291529,
        "address": "서울 강서구 마곡동 795-7",
        "phone": "02-2694-4455",
        "distance": ""
      },
      {
        "name": "벌툰 인더스트리얼 안산중앙역점",
        "latitude": 37.3173871408581,
        "longitude": 126.837238940712,
        "address": "경기 안산시 단원구 고잔동 541",
        "phone": "031-410-8880",
        "distance": ""
      },
      {
        "name": "벌툰 엔틱 부천상동점",
        "latitude": 37.5051770388653,
        "longitude": 126.753728282146,
        "address": "경기 부천시 원미구 상동 541-1",
        "phone": "070-5208-5524",
        "distance": ""
      },
      {
        "name": "놀숲 강남역점",
        "latitude": 37.50098307994714,
        "longitude": 127.02796516792077,
        "address": "서울 강남구 역삼동 620-9",
        "phone": "02-558-5846",
        "distance": ""
      },
      {
        "name": "벌툰 엔틱 잠실새내점",
        "latitude": 37.51085824391266,
        "longitude": 127.08189778634174,
        "address": "서울 송파구 잠실동 180-9",
        "phone": "070-7575-0600",
        "distance": ""
      },
      {
        "name": "보드게임카페레드버튼 수원점",
        "latitude": 37.2677473647444,
        "longitude": 127.00118603911,
        "address": "경기 수원시 팔달구 매산로1가 16-5",
        "phone": "031-256-3799",
        "distance": ""
      },
      {
        "name": "벌툰 제주한라대점",
        "latitude": 33.476149696707445,
        "longitude": 126.48032524586539,
        "address": "제주특별자치도 제주시 노형동 677-2",
        "phone": "064-711-3059",
        "distance": ""
      },
      {
        "name": "벌툰 몽유도원 서울대입구역점",
        "latitude": 37.48030518786515,
        "longitude": 126.95290488616565,
        "address": "서울 관악구 봉천동 856-1",
        "phone": "0503-7150-1627",
        "distance": ""
      },
      {
        "name": "보드게임카페 레드버튼 부평점",
        "latitude": 37.49248074492003,
        "longitude": 126.7242543613984,
        "address": "인천 부평구 부평동 193-73",
        "phone": "032-525-3799",
        "distance": ""
      }
    ]
  }
}