{
  "key": "ddddd9909e072790a97f3d2462da61c669d4d7c8f1b034b666ee0c1832a7ffb9",
  "tool": "CategorySearch_kakao",
  "created_at": "2025-10-21T01:12:56.095931",
  "input_params": {
    "category": "CE7",
    "radius": 2000,
    "size": 15,
    "x": 126.9753,
    "y": 37.514
  },
  "raw_args": {
    "category": "CE7",
    "x": 126.9753,
    "y": 37.514,
    "radius": 2000,
    "size": 15
  },
  "data": {
    "category": "CE7",
    "total_count": 329,
    "places": [
      {
        "name": "동빙고",
        "latitude": 37.51796173437219,
        "longitude": 126.98190698034487,
        "address": "서울 용산구 이촌동 301-162",
        "phone": "02-794-7171",
        "distance": "730"
      },
      {
        "name": "헬카페스피리터스",
        "latitude": 37.5193102506462,
        "longitude": 126.975349160467,
        "address": "서울 용산구 이촌동 300-23",
        "phone": "070-7612-4687",
        "distance": "589"
      },
      {
        "name": "동작노을카페",
        "latitude": 37.505994297130705,
        "longitude": 126.98005391990012,
        "address": "서울 동작구 동작동 316-3",
        "phone": "",
        "distance": "983"
      },
      {
        "name": "커피앳웍스 동부이촌동점",
        "latitude": 37.52034746248741,
        "longitude": 126.9720117697889,
        "address": "서울 용산구 이촌동 300-27",
        "phone": "02-793-8100",
        "distance": "761"
      },
      {
        "name": "스타벅스 이촌점",
        "latitude": 37.5186474971495,
        "longitude": 126.977267855613,
        "address": "서울 용산구 이촌동 300-20",
        "phone": "1522-3232",
        "distance": "544"
      },
      {
        "name": "멜랑",
        "latitude": 37.519802780732356,
        "longitude": 126.97386713300666,
        "address": "서울 용산구 이촌동 300-23",
        "phone": "02-796-6141",
        "distance": "656"
      },
      {
        "name": "메가MGC커피 동부이촌점",
        "latitude": 37.51926252150681,
        "longitude": 126.97546455722525,
        "address": "서울 용산구 이촌동 300-23",
        "phone": "02-790-2121",
        "distance": "584"
      },
      {
        "name": "뚜스뚜스 흑석역점",
        "latitude": 37.5097602559997,
        "longitude": 126.963856376198,
        "address": "서울 동작구 흑석동 1-3",
        "phone": "02-3664-9000",
        "distance": "1115"
      },
      {
        "name": "미스랄라",
        "latitude": 37.52089952505498,
        "longitude": 126.97489841542954,
        "address": "서울 용산구 이촌동 301-18",
        "phone": "",
        "distance": "766"
      },
      {
        "name": "스타벅스 동부이촌동점",
        "latitude": 37.52108554442141,
        "longitude": 126.9690443188777,
        "address": "서울 용산구 이촌동 302-60",
        "phone": "1522-3232",
        "distance": "961"
      },
      {
        "name": "스노우볼",
        "latitude": 37.5208274577936,
        "longitude": 126.974959524937,
        "address": "서울 용산구 이촌동 301-18",
        "phone": "02-749-7491",
        "distance": "758"
      },
      {
        "name": "동빙고 2호점",
        "latitude": 37.521212176928685,
        "longitude": 126.96752164949301,
        "address": "서울 용산구 이촌동 302-68",
        "phone": "02-790-7779",
        "distance": "1055"
      },
      {
        "name": "요커 동부이촌점",
        "latitude": 37.51912925762442,
        "longitude": 126.97587522094956,
        "address": "서울 용산구 이촌동 300-301",
        "phone": "02-797-6579",
        "distance": "571"
      },
      {
        "name": "이디야커피 동부이촌동점",
        "latitude": 37.5206509108809,
        "longitude": 126.975194875157,
        "address": "서울 용산구 이촌동 301-53",
        "phone": "02-793-5353",
        "distance": "738"
      },
      {
        "name": "더리버",
        "latitude": 37.50713836397242,
        "longitude": 126.98468620738129,
        "address": "서울 용산구 용산동6가 451",
        "phone": "",
        "distance": "1126"
      }
    ]
  }
}