{
  "key": "20a45f53af6f81dcd232c7a4e69bffd59a3f7e7ace38295e8c30f361d7f4127b",
  "tool": "PlaceSearch_kakao",
  "created_at": "2025-10-21T07:03:27.793432",
  "input_params": {
    "keyword": "강남역 카페",
    "size": 15,
    "sort": "accuracy"
  },
  "raw_args": {
    "keyword": "강남역 카페",
    "size": 15,
    "sort": "accuracy"
  },
  "data": {
    "keyword": "강남역 카페",
    "total_count": 2905,
    "places": [
      {
        "name": "키이스케이프 강남점",
        "latitude": 37.5001035869388,
        "longitude": 127.028430769789,
        "address": "서울 강남구 역삼동 817-21",
        "road_address": "서울 강남구 강남대로96길 17",
        "phone": "010-7456-6082",
        "category": "음식점 > 카페 > 테마카페",
        "distance": ""
      },
      {
        "name": "할리스 강남역점",
        "latitude": 37.49871619356776,
        "longitude": 127.02777433522404,
        "address": "서울 강남구 역삼동 820-11",
        "road_address": "서울 강남구 강남대로 402",
        "phone": "02-555-0890",
        "category": "음식점 > 카페 > 커피전문점 > 할리스",
        "distance": ""
      },
      {
        "name": "스타벅스 강남R점",
        "latitude": 37.4976744709989,
        "longitude": 127.028443419181,
        "address": "서울 강남구 역삼동 825",
        "road_address": "서울 강남구 강남대로 390",
        "phone": "1522-3232",
        "category": "음식점 > 카페 > 커피전문점 > 스타벅스",
        "distance": ""
      },
      {
        "name": "커피빈 강남역먹자골목점",
        "latitude": 37.500098449489826,
        "longitude": 127.02729195389342,
        "address": "서울 강남구 역삼동 816-6",
        "road_address": "서울 강남구 테헤란로1길 29",
        "phone": "02-552-6311",
        "category": "음식점 > 카페 > 커피전문점 > 커피빈",
        "distance": ""
      },
      {
        "name": "소과당",
        "latitude": 37.499734261007006,
        "longitude": 127.02806874426594,
        "address": "서울 강남구 역삼동 818-1",
        "road_address": "서울 강남구 강남대로96길 12",
        "phone": "02-538-8188",
        "category": "음식점 > 카페 > 테마카페 > 디저트카페",
        "distance": ""
      },
      {
        "name": "셀렉티드닉스",
        "latitude": 37.4962223486255,
        "longitude": 127.030837985875,
        "address": "서울 강남구 역삼동 827-13",
        "road_address": "서울 강남구 테헤란로4길 37",
        "phone": "",
        "category": "음식점 > 카페",
        "distance": ""
      },
      {
        "name": "스타벅스 강남서초초교점",
        "latitude": 37.50015830491417,
        "longitude": 127.0255526536779,
        "address": "서울 서초구 서초동 1307-19",
        "road_address": "서울 서초구 서초대로77길 27",
        "phone": "1522-3232",
        "category": "음식점 > 카페 > 커피전문점 > 스타벅스",
        "distance": ""
      },
      {
        "name": "커피빈 강남역12번출구점",
        "latitude": 37.4988455657308,
        "longitude": 127.029316901779,
        "address": "서울 강남구 역삼동 822-5",
        "road_address": "서울 강남구 테헤란로 111",
        "phone": "02-569-5838",
        "category": "음식점 > 카페 > 커피전문점 > 커피빈",
        "distance": ""
      },
      {
        "name": "넥스트에디션 강남5호점",
        "latitude": 37.499545006601,
        "longitude": 127.028249615716,
        "address": "서울 강남구 역삼동 818-13",
        "road_address": "서울 강남구 강남대로94길 11",
        "phone": "02-558-9818",
        "category": "음식점 > 카페 > 테마카페",
        "distance": ""
      },
      {
        "name": "커피빈 강남역세계빌딩점",
        "latitude": 37.49861752417937,
        "longitude": 127.02582919310726,
        "address": "서울 서초구 서초동 1317-31",
        "road_address": "서울 서초구 서초대로73길 12",
        "phone": "02-592-0053",
        "category": "음식점 > 카페 > 커피전문점 > 커피빈",
        "distance": ""
      },
      {
        "name": "스타벅스 강남비젼타워점",
        "latitude": 37.49649026006633,
        "longitude": 127.0296167853337,
        "address": "서울 강남구 역삼동 826-26",
        "road_address": "서울 강남구 테헤란로2길 27",
        "phone": "1522-3232",
        "category": "음식점 > 카페 > 커피전문점 > 스타벅스",
        "distance": ""
      },
      {
        "name": "블루보틀 역삼 카페",
        "latitude": 37.50003049065215,
        "longitude": 127.03237757132041,
        "address": "서울 강남구 역삼동 648-9",
        "road_address": "서울 강남구 테헤란로 129",
        "phone": "1533-6906",
        "category": "음식점 > 카페 > 커피전문점 > 블루보틀",
        "distance": ""
      },
      {
        "name": "셀렉티드마롱",
        "latitude": 37.4961925947187,
        "longitude": 127.030917132353,
        "address": "서울 강남구 역삼동 827-13",
        "road_address": "서울 강남구 테헤란로4길 37",
        "phone": "070-4284-5104",
        "category": "음식점 > 카페",
        "distance": ""
      },
      {
        "name": "스타벅스 강남GT타워점",
        "latitude": 37.49788583490465,
        "longitude": 127.02615689173884,
        "address": "서울 서초구 서초동 1317-23",
        "road_address": "서울 서초구 서초대로 411",
        "phone": "1522-3232",
        "category": "음식점 > 카페 > 커피전문점 > 스타벅스",
        "distance": ""
      },
      {
        "name": "디저트39 강남 테헤란로점",
        "latitude": 37.4977283224454,
        "longitude": 127.029298371216,
        "address": "서울 강남구 역삼동 825-20",
        "road_address": "서울 강남구 테헤란로4길 6",
        "phone": "02-555-0390",
        "category": "음식점 > 카페 > 테마카페 > 디저트카페 > 디저트39",
        "distance": ""
      }
    ]
  }
}