{
  "key": "2aea5090fc25c93b5ffba13339079d8eb9b05079fb1010e218db5b3719bccdf8",
  "tool": "PlaceSearch_kakao",
  "created_at": "2025-10-26T12:01:23.050550",
  "input_params": {
    "keyword": "홍대입구역 편의점",
    "page": 1,
    "size": 15,
    "sort": "accuracy"
  },
  "raw_args": {
    "keyword": "홍대입구역 편의점",
    "page": 1,
    "size": 15
  },
  "data": {
    "keyword": "홍대입구역 편의점",
    "total_count": 384,
    "places": [
      {
        "name": "GS25 팰리스점",
        "latitude": 37.55584510136267,
        "longitude": 126.92330201293582,
        "address": "서울 마포구 동교동 165-8",
        "road_address": "서울 마포구 양화로 156",
        "phone": "",
        "category": "가정,생활 > 편의점 > GS25",
        "distance": ""
      },
      {
        "name": "세븐일레븐 홍대중앙점",
        "latitude": 37.555809838279814,
        "longitude": 126.92450735091259,
        "address": "서울 마포구 서교동 347-21",
        "road_address": "서울 마포구 어울마당로 130",
        "phone": "1577-0711",
        "category": "가정,생활 > 편의점 > 세븐일레븐",
        "distance": ""
      },
      {
        "name": "CU 앰배서더홍대점",
        "latitude": 37.5551501437983,
        "longitude": 126.922859087486,
        "address": "서울 마포구 동교동 163-10",
        "road_address": "서울 마포구 홍익로6길 14",
        "phone": "",
        "category": "가정,생활 > 편의점 > CU",
        "distance": ""
      },
      {
        "name": "세븐일레븐 마포홍익점",
        "latitude": 37.5563089188037,
        "longitude": 126.924394804546,
        "address": "서울 마포구 동교동 164-23",
        "road_address": "서울 마포구 홍익로6길 52",
        "phone": "",
        "category": "가정,생활 > 편의점 > 세븐일레븐",
        "distance": ""
      },
      {
        "name": "GS25 S홍대역사점",
        "latitude": 37.5568923015441,
        "longitude": 126.923674418839,
        "address": "서울 마포구 동교동 155-6",
        "road_address": "서울 마포구 양화로 지하 160",
        "phone": "",
        "category": "가정,생활 > 편의점 > GS25",
        "distance": ""
      },
      {
        "name": "CU 홍대입구역점",
        "latitude": 37.556680528954,
        "longitude": 126.922235046328,
        "address": "서울 마포구 동교동 158-17",
        "road_address": "서울 마포구 동교로 182-5",
        "phone": "",
        "category": "가정,생활 > 편의점 > CU",
        "distance": ""
      },
      {
        "name": "CU 홍대동교로점",
        "latitude": 37.5570672499341,
        "longitude": 126.92252890148,
        "address": "서울 마포구 동교동 158-27",
        "road_address": "서울 마포구 동교로 190",
        "phone": "02-335-2752",
        "category": "가정,생활 > 편의점 > CU",
        "distance": ""
      },
      {
        "name": "GS25 동교사랑점",
        "latitude": 37.5575696280494,
        "longitude": 126.923329671289,
        "address": "서울 마포구 동교동 158-1",
        "road_address": "서울 마포구 월드컵북로2길 57",
        "phone": "",
        "category": "가정,생활 > 편의점 > GS25",
        "distance": ""
      },
      {
        "name": "GS25 홍대아트점",
        "latitude": 37.55438922472823,
        "longitude": 126.92213217758726,
        "address": "서울 마포구 서교동 356-1",
        "road_address": "서울 마포구 홍익로 25",
        "phone": "",
        "category": "가정,생활 > 편의점 > GS25",
        "distance": ""
      },
      {
        "name": "CU 홍대서교점",
        "latitude": 37.5563896117115,
        "longitude": 126.92662200228,
        "address": "서울 마포구 서교동 330-17",
        "road_address": "서울 마포구 와우산로29길 70",
        "phone": "02-333-9689",
        "category": "가정,생활 > 편의점 > CU",
        "distance": ""
      },
      {
        "name": "CU 라이즈홍대점",
        "latitude": 37.5542793583466,
        "longitude": 126.920860243509,
        "address": "서울 마포구 서교동 354-19",
        "road_address": "서울 마포구 양화로 124",
        "phone": "",
        "category": "가정,생활 > 편의점 > CU",
        "distance": ""
      },
      {
        "name": "세븐일레븐 홍대역점",
        "latitude": 37.5539868308729,
        "longitude": 126.922667895679,
        "address": "서울 마포구 서교동 358-1",
        "road_address": "서울 마포구 홍익로 19",
        "phone": "",
        "category": "가정,생활 > 편의점 > 세븐일레븐",
        "distance": ""
      },
      {
        "name": "GS25 연남한양점",
        "latitude": 37.5589369606516,
        "longitude": 126.922745400433,
        "address": "서울 마포구 동교동 198-1",
        "road_address": "서울 마포구 월드컵북로4길 72",
        "phone": "",
        "category": "가정,생활 > 편의점 > GS25",
        "distance": ""
      },
      {
        "name": "GS25 홍대공원점",
        "latitude": 37.55695337749929,
        "longitude": 126.9262072267262,
        "address": "서울 마포구 동교동 170-27",
        "road_address": "서울 마포구 양화로18안길 28",
        "phone": "02-332-4800",
        "category": "가정,생활 > 편의점 > GS25",
        "distance": ""
      },
      {
        "name": "CU 홍대한벗점",
        "latitude": 37.553642946351424,
        "longitude": 126.92451859039288,
        "address": "서울 마포구 서교동 342-12",
        "road_address": "서울 마포구 와우산로23길 14",
        "phone": "070-4213-0980",
        "category": "가정,생활 > 편의점 > CU",
        "distance": ""
      }
    ]
  }
}