{
  "key": "b0332d715f65e77f04cf8188f8c244bb00a994c6ad6fe0dcd240a2c0e00f5986",
  "tool": "PlaceSearch_kakao",
  "created_at": "2025-10-21T01:42:50.118884",
  "input_params": {
    "keyword": "맛집",
    "radius": 1000,
    "size": 5,
    "sort": "accuracy",
    "x": 126.8263,
    "y": 37.5545
  },
  "raw_args": {
    "keyword": "맛집",
    "x": 126.8263,
    "y": 37.5545,
    "radius": 1000,
    "size": 5
  },
  "data": {
    "keyword": "맛집",
    "total_count": 1238,
    "places": [
      {
        "name": "오복순대국 마곡본점",
        "latitude": 37.5539031081767,
        "longitude": 126.826775972826,
        "address": "서울 강서구 내발산동 741",
        "road_address": "서울 강서구 강서로47길 158",
        "phone": "02-2667-7281",
        "category": "음식점 > 한식 > 순대",
        "distance": "78"
      },
      {
        "name": "개성손만두",
        "latitude": 37.553215627248186,
        "longitude": 126.82986031082062,
        "address": "서울 강서구 내발산동 691",
        "road_address": "서울 강서구 강서로47길 113",
        "phone": "02-2666-5255",
        "category": "음식점 > 한식 > 찌개,전골",
        "distance": "345"
      },
      {
        "name": "홍성원",
        "latitude": 37.558721349583905,
        "longitude": 126.83030050546918,
        "address": "서울 강서구 마곡동 800",
        "road_address": "서울 강서구 공항대로 206",
        "phone": "02-2662-8870",
        "category": "음식점 > 중식 > 중국요리",
        "distance": "587"
      },
      {
        "name": "빵쌤 마곡점",
        "latitude": 37.55894469951397,
        "longitude": 126.82590188178894,
        "address": "서울 강서구 마곡동 798-10",
        "road_address": "서울 강서구 마곡중앙로 59-5",
        "phone": "02-2667-0595",
        "category": "음식점 > 간식 > 제과,베이커리",
        "distance": "494"
      },
      {
        "name": "빵백화점 마곡점",
        "latitude": 37.55847054255604,
        "longitude": 126.82513450777431,
        "address": "서울 강서구 마곡동 798-16",
        "road_address": "서울 강서구 마곡중앙1로 14",
        "phone": "0507-1357-5116",
        "category": "음식점 > 간식 > 제과,베이커리",
        "distance": "452"
      }
    ]
  }
}