{
  "key": "b07ed25ce0f3bf1c985736f26aef664d7adc2889bf67c35a17db2d2ee5f5853b",
  "tool": "PlaceSearch_kakao",
  "created_at": "2025-10-13T14:36:50.191362",
  "input_params": {
    "keyword": "강남역",
    "sort": "accuracy"
  },
  "raw_args": {
    "keyword": "강남역"
  },
  "data": {
    "keyword": "강남역",
    "total_count": 2542,
    "places": [
      {
        "name": "강남역 2호선",
        "latitude": 37.49808633653005,
        "longitude": 127.02800140627488,
        "address": "서울 강남구 역삼동 858",
        "road_address": "서울 강남구 강남대로 지하 396",
        "phone": "02-6110-2221",
        "category": "교통,수송 > 지하철,전철 > 수도권2호선",
        "distance": ""
      },
      {
        "name": "강남역 신분당선",
        "latitude": 37.4967771303817,
        "longitude": 127.028185245594,
        "address": "서울 강남구 역삼동 858",
        "road_address": "서울 강남구 강남대로 지하 396",
        "phone": "02-810-5840",
        "category": "교통,수송 > 지하철,전철 > 신분당선",
        "distance": ""
      },
      {
        "name": "강남역센트럴푸르지오시티오피스텔",
        "latitude": 37.49773012417759,
        "longitude": 127.02929950278187,
        "address": "서울 강남구 역삼동 825-20",
        "road_address": "서울 강남구 테헤란로4길 6",
        "phone": "",
        "category": "부동산 > 주거시설 > 오피스텔",
        "distance": ""
      },
      {
        "name": "강남역사거리",
        "latitude": 37.4979521720737,
        "longitude": 127.027638348418,
        "address": "서울 강남구 역삼동",
        "road_address": "",
        "phone": "",
        "category": "교통,수송 > 도로시설 > 교차로",
        "distance": ""
      },
      {
        "name": "교보문고 강남점",
        "latitude": 37.503718471783074,
        "longitude": 127.02416053377571,
        "address": "서울 서초구 서초동 1303-22",
        "road_address": "서울 서초구 강남대로 465",
        "phone": "1544-1900",
        "category": "문화,예술 > 도서 > 서점 > 교보문고",
        "distance": ""
      },
      {
        "name": "강남역효성해링턴타워더퍼스트오피스텔",
        "latitude": 37.49699028030376,
        "longitude": 127.0297696476572,
        "address": "서울 강남구 역삼동 825-24",
        "road_address": "서울 강남구 강남대로84길 15",
        "phone": "",
        "category": "부동산 > 주거시설 > 오피스텔",
        "distance": ""
      },
      {
        "name": "진대감 강남역 삼성타운점",
        "latitude": 37.493428845295675,
        "longitude": 127.02878104817891,
        "address": "서울 서초구 서초동 1330-13",
        "road_address": "서울 서초구 서초대로78길 50",
        "phone": "02-587-0073",
        "category": "음식점 > 한식 > 육류,고기",
        "distance": ""
      },
      {
        "name": "다이소 강남역2호점",
        "latitude": 37.49879250087535,
        "longitude": 127.02893351340299,
        "address": "서울 강남구 역삼동 822-4",
        "road_address": "서울 강남구 테헤란로 109",
        "phone": "1522-4400",
        "category": "가정,생활 > 생활용품점 > 다이소",
        "distance": ""
      },
      {
        "name": "으뜸50안경 강남서초점",
        "latitude": 37.49632849997189,
        "longitude": 127.02788653501293,
        "address": "서울 서초구 서초동 1319-13",
        "road_address": "서울 서초구 강남대로 375",
        "phone": "02-523-7712",
        "category": "가정,생활 > 패션 > 패션잡화점 > 안경,렌즈 > 으뜸50안경",
        "distance": ""
      },
      {
        "name": "ZARA 강남점",
        "latitude": 37.50219107183554,
        "longitude": 127.02509758193328,
        "address": "서울 서초구 서초동 1304-3",
        "road_address": "서울 서초구 강남대로 447",
        "phone": "080-305-1200",
        "category": "가정,생활 > 패션 > 의류판매 > 수입의류 > ZARA",
        "distance": ""
      },
      {
        "name": "강남역두산위브센티움오피스텔",
        "latitude": 37.498653600819594,
        "longitude": 127.03292884424495,
        "address": "서울 강남구 역삼동 823-26",
        "road_address": "서울 강남구 테헤란로14길 8",
        "phone": "",
        "category": "부동산 > 주거시설 > 오피스텔",
        "distance": ""
      },
      {
        "name": "강남역리가스퀘어오피스텔",
        "latitude": 37.501125334709435,
        "longitude": 127.02436778622841,
        "address": "서울 서초구 서초동 1308-26",
        "road_address": "서울 서초구 서초대로73길 42",
        "phone": "",
        "category": "부동산 > 주거시설 > 오피스텔",
        "distance": ""
      },
      {
        "name": "강남역와이즈플레이스오피스텔",
        "latitude": 37.491729662398065,
        "longitude": 127.03183800223744,
        "address": "서울 강남구 역삼동 837-13",
        "road_address": "서울 강남구 강남대로66길 14",
        "phone": "",
        "category": "부동산 > 주거시설 > 오피스텔",
        "distance": ""
      },
      {
        "name": "강남역지하상가",
        "latitude": 37.4977358827516,
        "longitude": 127.027841823871,
        "address": "서울 강남구 역삼동 858",
        "road_address": "서울 강남구 강남대로 지하 396",
        "phone": "",
        "category": "가정,생활 > 상가,아케이드",
        "distance": ""
      },
      {
        "name": "강남역쉐르빌오피스텔",
        "latitude": 37.49235886445821,
        "longitude": 127.03070861914014,
        "address": "서울 강남구 역삼동 832-3",
        "road_address": "서울 강남구 강남대로 328",
        "phone": "",
        "category": "부동산 > 주거시설 > 오피스텔",
        "distance": ""
      }
    ]
  }
}