{
  "key": "b08c3c4933d2a8b9ef5cb674ac48c846a29bb5a36b4def660b7635fc9f411965",
  "tool": "PlaceSearch_kakao",
  "created_at": "2025-10-26T11:33:43.344662",
  "input_params": {
    "keyword": "청량리역",
    "page": 1,
    "size": 5,
    "sort": "accuracy"
  },
  "raw_args": {
    "keyword": "청량리역",
    "page": 1,
    "size": 5
  },
  "data": {
    "keyword": "청량리역",
    "total_count": 221,
    "places": [
      {
        "name": "청량리역",
        "latitude": 37.57997010526071,
        "longitude": 127.04773632414528,
        "address": "서울 동대문구 전농동 591-92",
        "road_address": "서울 동대문구 왕산로 214",
        "phone": "1544-7788",
        "category": "교통,수송 > 기차,철도 > 기차역 > KTX정차역",
        "distance": ""
      },
      {
        "name": "청량리역 1호선",
        "latitude": 37.580037056302906,
        "longitude": 127.04472723023305,
        "address": "서울 동대문구 전농동 620-67",
        "road_address": "서울 동대문구 왕산로 지하 205",
        "phone": "1577-1234",
        "category": "교통,수송 > 지하철,전철 > 수도권1호선",
        "distance": ""
      },
      {
        "name": "청량리역 경의중앙선",
        "latitude": 37.580279093795085,
        "longitude": 127.04786558187519,
        "address": "서울 동대문구 전농동 591-92",
        "road_address": "서울 동대문구 왕산로 214",
        "phone": "1544-7788",
        "category": "교통,수송 > 지하철,전철 > 경의중앙선",
        "distance": ""
      },
      {
        "name": "청량리역 경춘선",
        "latitude": 37.581273475892466,
        "longitude": 127.0486360630067,
        "address": "서울 동대문구 전농동 591-92",
        "road_address": "서울 동대문구 왕산로 214",
        "phone": "1544-7788",
        "category": "교통,수송 > 지하철,전철 > 경춘선",
        "distance": ""
      },
      {
        "name": "청량리역 수인분당선",
        "latitude": 37.5808953806814,
        "longitude": 127.047847862522,
        "address": "서울 동대문구 전농동 591-92",
        "road_address": "서울 동대문구 왕산로 214",
        "phone": "1544-7788",
        "category": "교통,수송 > 지하철,전철 > 수인분당선",
        "distance": ""
      }
    ]
  }
}