{
  "key": "b0c4c7a6012d648a7c50c116d660f8c24610b6cbf3142acf15378a8283f6ff67",
  "tool": "PlaceSearch_kakao",
  "created_at": "2025-12-14T14:05:16.277704",
  "input_params": {
    "keyword": "파스타",
    "page": 1,
    "radius": 1000,
    "size": 15,
    "sort": "distance",
    "x": 127.02758,
    "y": 37.4979
  },
  "raw_args": {
    "keyword": "파스타",
    "x": 127.02758,
    "y": 37.4979,
    "page": 1,
    "size": 15,
    "radius": 1000,
    "sort": "distance"
  },
  "data": {
    "keyword": "파스타",
    "total_count": 178,
    "places": [
      {
        "name": "로리스더프라임립",
        "latitude": 37.49808140984054,
        "longitude": 127.02590025308936,
        "address": "서울 서초구 서초동 1317-23",
        "road_address": "서울 서초구 서초대로 411",
        "phone": "02-590-2800",
        "category": "음식점 > 양식 > 스테이크,립",
        "distance": "149"
      },
      {
        "name": "더플라잉팬 레드",
        "latitude": 37.4980931286224,
        "longitude": 127.025874247186,
        "address": "서울 서초구 서초동 1317-27",
        "road_address": "서울 서초구 서초대로 411",
        "phone": "02-590-2488",
        "category": "음식점 > 양식",
        "distance": "152"
      },
      {
        "name": "닥터로빈시그니처 서초점",
        "latitude": 37.4966332657545,
        "longitude": 127.026914121286,
        "address": "서울 서초구 서초동 1320-10",
        "road_address": "서울 서초구 서초대로74길 11",
        "phone": "02-522-3101",
        "category": "음식점 > 양식 > 이탈리안",
        "distance": "152"
      },
      {
        "name": "파머스포케 강남역점",
        "latitude": 37.4976670570902,
        "longitude": 127.029285907809,
        "address": "서울 강남구 역삼동 825-20",
        "road_address": "서울 강남구 테헤란로4길 6",
        "phone": "0507-2090-9584",
        "category": "음식점 > 샐러드",
        "distance": "153"
      },
      {
        "name": "오늘와인 한잔 강남역1번출구점",
        "latitude": 37.4977283224454,
        "longitude": 127.029298371216,
        "address": "서울 강남구 역삼동 825-20",
        "road_address": "서울 강남구 테헤란로4길 6",
        "phone": "02-555-9132",
        "category": "음식점 > 술집 > 와인바",
        "distance": "153"
      },
      {
        "name": "보이브라질 강남점",
        "latitude": 37.4991936196164,
        "longitude": 127.02822686566,
        "address": "서울 강남구 역삼동 819",
        "road_address": "서울 강남구 강남대로94길 10",
        "phone": "070-5172-0907",
        "category": "음식점 > 양식 > 멕시칸,브라질",
        "distance": "154"
      },
      {
        "name": "코지하우스 강남역점",
        "latitude": 37.4991936196164,
        "longitude": 127.02822686566,
        "address": "서울 강남구 역삼동 819",
        "road_address": "서울 강남구 강남대로94길 10",
        "phone": "02-555-6683",
        "category": "음식점 > 양식",
        "distance": "154"
      },
      {
        "name": "매드포갈릭 강남삼성타운점",
        "latitude": 37.496601724597085,
        "longitude": 127.02694011940008,
        "address": "서울 서초구 서초동 1320-10",
        "road_address": "서울 서초구 서초대로74길 11",
        "phone": "02-585-1175",
        "category": "음식점 > 패밀리레스토랑 > 매드포갈릭",
        "distance": "155"
      },
      {
        "name": "더페이트",
        "latitude": 37.4994280268679,
        "longitude": 127.027610620179,
        "address": "서울 강남구 역삼동 820-2",
        "road_address": "서울 강남구 테헤란로1길 17",
        "phone": "02-6253-0002",
        "category": "음식점 > 술집 > 칵테일바",
        "distance": "169"
      },
      {
        "name": "띠엘로",
        "latitude": 37.49926562402995,
        "longitude": 127.02854354059278,
        "address": "서울 강남구 역삼동 819-1",
        "road_address": "서울 강남구 강남대로94길 14",
        "phone": "0502-5552-4909",
        "category": "음식점 > 술집 > 와인바",
        "distance": "173"
      },
      {
        "name": "와인공간",
        "latitude": 37.4992890436282,
        "longitude": 127.028570690758,
        "address": "서울 강남구 역삼동 819-1",
        "road_address": "서울 강남구 강남대로94길 14",
        "phone": "010-5805-5207",
        "category": "가정,생활 > 식품판매 > 주류판매",
        "distance": "177"
      },
      {
        "name": "포케올데이 서초사옥점",
        "latitude": 37.4964585174409,
        "longitude": 127.026707114345,
        "address": "서울 서초구 서초동 1320-10",
        "road_address": "서울 서초구 서초대로74길 11",
        "phone": "02-588-0874",
        "category": "음식점 > 샐러드 > 포케올데이",
        "distance": "177"
      },
      {
        "name": "더몰트하우스 강남역점",
        "latitude": 37.4983086090296,
        "longitude": 127.025227463506,
        "address": "서울 서초구 서초동 1316-29",
        "road_address": "서울 서초구 서초대로73길 9",
        "phone": "02-534-5818",
        "category": "음식점 > 양식",
        "distance": "212"
      },
      {
        "name": "아이해브어드림",
        "latitude": 37.49927804222547,
        "longitude": 127.02934308121847,
        "address": "서울 강남구 역삼동 819-5",
        "road_address": "서울 강남구 테헤란로5길 7",
        "phone": "02-3453-7697",
        "category": "음식점 > 퓨전요리",
        "distance": "218"
      },
      {
        "name": "다락마을 강남킵유어포크점",
        "latitude": 37.4969893784424,
        "longitude": 127.029773039852,
        "address": "서울 강남구 역삼동 825-24",
        "road_address": "서울 강남구 강남대로84길 15",
        "phone": "",
        "category": "음식점 > 양식 > 이탈리안",
        "distance": "218"
      }
    ]
  }
}