{
  "key": "b0e67d0e2f6e4a1baa3e4f8489caba106f1d920ecc7c245e9eddbf82a4fc45ab",
  "tool": "PlaceSearch_kakao",
  "created_at": "2025-10-27T16:47:15.366711",
  "input_params": {
    "keyword": "병원",
    "radius": 2000,
    "size": 10,
    "sort": "distance",
    "x": 127.039188180289,
    "y": 37.595808197942
  },
  "raw_args": {
    "x": 127.039188180289,
    "y": 37.595808197942,
    "sort": "distance",
    "keyword": "병원",
    "size": 10,
    "radius": 2000
  },
  "data": {
    "keyword": "병원",
    "total_count": 637,
    "places": [
      {
        "name": "성북중앙병원 신관동 개방화장실",
        "latitude": 37.5967247237873,
        "longitude": 127.035660232167,
        "address": "서울 성북구 종암동 10-125",
        "road_address": "서울 성북구 종암로 72",
        "phone": "",
        "category": "가정,생활 > 화장실",
        "distance": "327"
      },
      {
        "name": "성북중앙병원 (휴업중)",
        "latitude": 37.5968833132713,
        "longitude": 127.035610483975,
        "address": "서울 성북구 종암동 10-125",
        "road_address": "서울 성북구 종암로 72",
        "phone": "02-919-3404",
        "category": "의료,건강 > 병원",
        "distance": "337"
      },
      {
        "name": "성북중앙병원 주차장",
        "latitude": 37.59723647715677,
        "longitude": 127.03569218264563,
        "address": "서울 성북구 종암동 10-27",
        "road_address": "",
        "phone": "",
        "category": "교통,수송 > 교통시설 > 주차장",
        "distance": "347"
      },
      {
        "name": "강북동물병원",
        "latitude": 37.5962887786795,
        "longitude": 127.03521161281,
        "address": "서울 성북구 종암동 19-1",
        "road_address": "서울 성북구 종암로 65",
        "phone": "02-924-4555",
        "category": "가정,생활 > 반려동물 > 동물병원",
        "distance": "355"
      },
      {
        "name": "GS25 중앙병원점",
        "latitude": 37.5965987318073,
        "longitude": 127.035170994033,
        "address": "서울 성북구 종암동 45-166",
        "road_address": "서울 성북구 종암로 71",
        "phone": "",
        "category": "가정,생활 > 편의점 > GS25",
        "distance": "365"
      },
      {
        "name": "김효석내과의원",
        "latitude": 37.5974527982421,
        "longitude": 127.035415987831,
        "address": "서울 성북구 종암동 10-114",
        "road_address": "서울 성북구 종암로 80",
        "phone": "02-943-1412",
        "category": "의료,건강 > 병원 > 내과",
        "distance": "379"
      },
      {
        "name": "성북서울요양병원",
        "latitude": 37.5931098775333,
        "longitude": 127.035884967943,
        "address": "서울 성북구 종암동 25-6",
        "road_address": "서울 성북구 종암로 31",
        "phone": "02-6312-3700",
        "category": "의료,건강 > 병원 > 노인,요양병원",
        "distance": "418"
      },
      {
        "name": "노블레스타워 부속의원",
        "latitude": 37.5984546579807,
        "longitude": 127.03555687839,
        "address": "서울 성북구 종암동 3-91",
        "road_address": "서울 성북구 종암로 90",
        "phone": "02-917-6090",
        "category": "의료,건강 > 병원 > 일반의원",
        "distance": "434"
      },
      {
        "name": "성북제일의원",
        "latitude": 37.5979783158405,
        "longitude": 127.03460771944629,
        "address": "서울 성북구 종암동 66-3",
        "road_address": "서울 성북구 종암로 87",
        "phone": "02-927-6011",
        "category": "의료,건강 > 병원 > 일반의원",
        "distance": "470"
      },
      {
        "name": "장남진치과의원",
        "latitude": 37.5986206350008,
        "longitude": 127.034904702381,
        "address": "서울 성북구 종암동 16-15",
        "road_address": "서울 성북구 종암로 92",
        "phone": "02-916-7315",
        "category": "의료,건강 > 병원 > 치과",
        "distance": "490"
      }
    ]
  }
}