{
  "key": "f57442755df65b956fada9857de9003137123d9d4d7e0fa815c4ad03e556a250",
  "tool": "PlaceSearch_kakao",
  "created_at": "2025-10-26T12:20:21.074285",
  "input_params": {
    "keyword": "북카페",
    "radius": 1200,
    "size": 15,
    "sort": "distance",
    "x": 127.0276,
    "y": 37.4979
  },
  "raw_args": {
    "keyword": "북카페",
    "x": 127.0276,
    "y": 37.4979,
    "radius": 1200,
    "sort": "distance",
    "size": 15
  },
  "data": {
    "keyword": "북카페",
    "total_count": 11,
    "places": [
      {
        "name": "사유의서재 강남점",
        "latitude": 37.50087867685724,
        "longitude": 127.02748109974698,
        "address": "서울 강남구 역삼동 619-28",
        "road_address": "서울 강남구 강남대로98길 11",
        "phone": "010-2197-0957",
        "category": "음식점 > 술집 > 와인바",
        "distance": "330"
      },
      {
        "name": "놀숲 강남역점",
        "latitude": 37.50098307994714,
        "longitude": 127.02796516792077,
        "address": "서울 강남구 역삼동 620-9",
        "road_address": "서울 강남구 강남대로98길 17",
        "phone": "02-558-5846",
        "category": "가정,생활 > 여가시설 > 만화방 > 만화카페 > 놀숲",
        "distance": "343"
      },
      {
        "name": "쿠지 커피로스터스 강남역점",
        "latitude": 37.4946830502246,
        "longitude": 127.03225652702,
        "address": "서울 강남구 역삼동 830-59",
        "road_address": "서울 강남구 역삼로5길 12",
        "phone": "02-555-8138",
        "category": "음식점 > 카페",
        "distance": "544"
      },
      {
        "name": "놀숲 강남교보타워점",
        "latitude": 37.502548906046734,
        "longitude": 127.02445419990524,
        "address": "서울 서초구 서초동 1303-36",
        "road_address": "서울 서초구 서초대로77길 58",
        "phone": "02-533-7533",
        "category": "가정,생활 > 여가시설 > 만화방 > 만화카페 > 놀숲",
        "distance": "585"
      },
      {
        "name": "그레이스케일커피",
        "latitude": 37.5032535497272,
        "longitude": 127.028237441604,
        "address": "서울 강남구 역삼동 618-8",
        "road_address": "서울 강남구 강남대로102길 38",
        "phone": "",
        "category": "음식점 > 카페",
        "distance": "596"
      },
      {
        "name": "서울북카페 욕망의북카페",
        "latitude": 37.5038455049071,
        "longitude": 127.028260283629,
        "address": "서울 강남구 역삼동 616-10",
        "road_address": "서울 강남구 강남대로102길 45",
        "phone": "010-3151-2608",
        "category": "음식점 > 카페 > 테마카페 > 북카페",
        "distance": "662"
      },
      {
        "name": "셋어스펠",
        "latitude": 37.5008226777495,
        "longitude": 127.034831984977,
        "address": "서울 강남구 역삼동 646-13",
        "road_address": "서울 강남구 강남대로94길 94",
        "phone": "",
        "category": "음식점 > 카페",
        "distance": "716"
      },
      {
        "name": "커피랑도서관 교대역점",
        "latitude": 37.49533490061649,
        "longitude": 127.01737853183536,
        "address": "서울 서초구 서초동 1686-6",
        "road_address": "서울 서초구 서초중앙로24길 35",
        "phone": "070-4184-1140",
        "category": "음식점 > 카페 > 테마카페 > 북카페 > 커피랑도서관",
        "distance": "947"
      },
      {
        "name": "마이리틀케이브",
        "latitude": 37.5024726826252,
        "longitude": 127.036931763963,
        "address": "서울 강남구 역삼동 668-20",
        "road_address": "서울 강남구 논현로94길 7",
        "phone": "0502-5550-1371",
        "category": "음식점 > 술집 > 칵테일바",
        "distance": "968"
      },
      {
        "name": "카페무가공",
        "latitude": 37.48927311918249,
        "longitude": 127.02990792665015,
        "address": "서울 서초구 서초동 1339-2",
        "road_address": "서울 서초구 효령로 423",
        "phone": "02-586-3715",
        "category": "음식점 > 카페 > 커피전문점",
        "distance": "979"
      },
      {
        "name": "우리동네 서재",
        "latitude": 37.49033844097802,
        "longitude": 127.01976212706444,
        "address": "서울 서초구 서초동 1648-2",
        "road_address": "서울 서초구 사임당로19길 6",
        "phone": "02-6348-0801",
        "category": "음식점 > 카페 > 테마카페 > 북카페",
        "distance": "1088"
      }
    ]
  }
}