{
  "key": "80be008bc982a564f97522cbd407ce87786672e0bf191da46c2af49714d6c36e",
  "tool": "CategorySearch_kakao",
  "created_at": "2025-10-15T02:04:38.429622",
  "input_params": {
    "category": "PM9",
    "radius": 1000,
    "size": 15,
    "x": 126.9779451,
    "y": 37.5711902
  },
  "raw_args": {
    "category": "PM9",
    "x": 126.9779451,
    "y": 37.5711902
  },
  "data": {
    "category": "PM9",
    "total_count": 71,
    "places": [
      {
        "name": "삼원온누리약국",
        "latitude": 37.570481772624,
        "longitude": 126.976183539916,
        "address": "서울 종로구 신문로1가 1",
        "phone": "02-739-8744",
        "distance": "174"
      },
      {
        "name": "종각호약국",
        "latitude": 37.569950089941976,
        "longitude": 126.98718289629328,
        "address": "서울 종로구 종로2가 71-4",
        "phone": "02-6949-0940",
        "distance": "827"
      },
      {
        "name": "새명성약국",
        "latitude": 37.5703552066396,
        "longitude": 126.974155109518,
        "address": "서울 종로구 신문로1가 33",
        "phone": "02-735-2870",
        "distance": "347"
      },
      {
        "name": "광화문123약국",
        "latitude": 37.5723997485735,
        "longitude": 126.97970681417,
        "address": "서울 종로구 청진동 215-1",
        "phone": "02-723-0124",
        "distance": "205"
      },
      {
        "name": "송송약국",
        "latitude": 37.570570744374166,
        "longitude": 126.97980013133822,
        "address": "서울 종로구 종로1가 24",
        "phone": "02-733-4425",
        "distance": "177"
      },
      {
        "name": "종로엔약국",
        "latitude": 37.57040028996443,
        "longitude": 126.98468458387403,
        "address": "서울 종로구 종로2가 8-4",
        "phone": "02-739-9856",
        "distance": "602"
      },
      {
        "name": "홍신약국",
        "latitude": 37.56714345301058,
        "longitude": 126.98036814403505,
        "address": "서울 중구 다동 155",
        "phone": "02-776-5117",
        "distance": "497"
      },
      {
        "name": "행복약국",
        "latitude": 37.5763202687714,
        "longitude": 126.972281770404,
        "address": "서울 종로구 내자동 67-1",
        "phone": "",
        "distance": "757"
      },
      {
        "name": "세종약국",
        "latitude": 37.57175597702993,
        "longitude": 126.97291850299607,
        "address": "서울 종로구 당주동 100",
        "phone": "02-3210-2292",
        "distance": "448"
      },
      {
        "name": "덕수궁돌담약국",
        "latitude": 37.563679315674975,
        "longitude": 126.97649130729978,
        "address": "서울 중구 태평로2가 344-3",
        "phone": "02-318-3758",
        "distance": "843"
      },
      {
        "name": "청실약국",
        "latitude": 37.567277456415326,
        "longitude": 126.97894642672937,
        "address": "서울 중구 무교동 32-2",
        "phone": "02-3789-6953",
        "distance": "443"
      },
      {
        "name": "에이스약국",
        "latitude": 37.5684187957458,
        "longitude": 126.97773494060418,
        "address": "서울 중구 태평로1가 84",
        "phone": "02-779-7697",
        "distance": "308"
      },
      {
        "name": "당근약국",
        "latitude": 37.5704290484631,
        "longitude": 126.973973970369,
        "address": "서울 종로구 신문로1가 34",
        "phone": "02-735-0709",
        "distance": "360"
      },
      {
        "name": "광화문이층약국",
        "latitude": 37.5704742160246,
        "longitude": 126.974513899999,
        "address": "서울 종로구 신문로1가 25",
        "phone": "0503-7151-4141",
        "distance": "313"
      },
      {
        "name": "대박약국",
        "latitude": 37.570845568197754,
        "longitude": 126.97991891360107,
        "address": "서울 종로구 종로1가 24",
        "phone": "02-2075-7171",
        "distance": "178"
      }
    ]
  }
}