{
  "key": "b17098b18536cb354324691a4ecee8dd766353be9a81255cd23ecabb0cc34863",
  "tool": "PlaceSearch_kakao",
  "created_at": "2025-10-26T10:31:06.489656",
  "input_params": {
    "keyword": "대학교",
    "radius": 1000,
    "sort": "accuracy",
    "x": 126.9377,
    "y": 37.5816
  },
  "raw_args": {
    "keyword": "대학교",
    "x": 126.9377,
    "y": 37.5816,
    "radius": 1000,
    "sort": "accuracy"
  },
  "data": {
    "keyword": "대학교",
    "total_count": 12,
    "places": [
      {
        "name": "디지털서울문화예술대학교 서울캠퍼스",
        "latitude": 37.5854760066341,
        "longitude": 126.94391140634,
        "address": "서울 서대문구 홍제동 318-18",
        "road_address": "서울 서대문구 통일로37길 60",
        "phone": "1588-7101",
        "category": "교육,학문 > 학교 > 사이버대학",
        "distance": "697"
      },
      {
        "name": "연세대학교 북문",
        "latitude": 37.5726756675515,
        "longitude": 126.93864138705,
        "address": "서울 서대문구 연희동 7",
        "road_address": "서울 서대문구 연세로 50",
        "phone": "",
        "category": "교통,수송 > 입출구",
        "distance": "993"
      },
      {
        "name": "연세대학교 무악학사4학사",
        "latitude": 37.5735300190403,
        "longitude": 126.939043680599,
        "address": "서울 서대문구 연희동 7",
        "road_address": "서울 서대문구 연세로 50",
        "phone": "02-2123-8419",
        "category": "부동산 > 주거시설 > 기숙사,기숙시설",
        "distance": "903"
      },
      {
        "name": "연세대학교 무악학사3학사",
        "latitude": 37.5737503626297,
        "longitude": 126.940021557942,
        "address": "서울 서대문구 연희동 7",
        "road_address": "서울 서대문구 연세로 50",
        "phone": "",
        "category": "교육,학문 > 학교부속시설",
        "distance": "894"
      },
      {
        "name": "연세대학교 무악학사1학사",
        "latitude": 37.5747521114179,
        "longitude": 126.939712843578,
        "address": "서울 서대문구 연희동 7",
        "road_address": "서울 서대문구 연세로 50",
        "phone": "",
        "category": "교육,학문 > 학교부속시설",
        "distance": "780"
      },
      {
        "name": "연세대학교 무악학사2학사",
        "latitude": 37.57458416949357,
        "longitude": 126.9390179168631,
        "address": "서울 서대문구 신촌동 134",
        "road_address": "서울 서대문구 연세로 50",
        "phone": "",
        "category": "부동산 > 주거시설 > 기숙사,기숙시설",
        "distance": "786"
      },
      {
        "name": "연세대학교 테니스장3",
        "latitude": 37.5743406486008,
        "longitude": 126.938531347151,
        "address": "서울 서대문구 연희동 7",
        "road_address": "서울 서대문구 연세로 50",
        "phone": "",
        "category": "스포츠,레저 > 테니스 > 테니스장",
        "distance": "808"
      },
      {
        "name": "디지털 서울문화예술대학교 평생교육원",
        "latitude": 37.5854471511888,
        "longitude": 126.943861611742,
        "address": "서울 서대문구 홍제동 318-18",
        "road_address": "서울 서대문구 통일로37길 60",
        "phone": "02-2287-0280",
        "category": "교육,학문 > 교육단체 > 평생교육원,사회교육원",
        "distance": "691"
      },
      {
        "name": "디지털서울문화예술대학교 국제언어교육원",
        "latitude": 37.5854543742022,
        "longitude": 126.94389330757,
        "address": "서울 서대문구 홍제동 318-18",
        "road_address": "서울 서대문구 통일로37길 60",
        "phone": "02-379-0004",
        "category": "교육,학문 > 학교부속시설",
        "distance": "694"
      },
      {
        "name": "와플대학 홍제캠퍼스",
        "latitude": 37.58576671439764,
        "longitude": 126.9471379363312,
        "address": "서울 서대문구 홍제동 147-10",
        "road_address": "서울 서대문구 통일로 405",
        "phone": "02-733-0714",
        "category": "음식점 > 간식 > 제과,베이커리 > 와플대학",
        "distance": "953"
      },
      {
        "name": "연세대학교 테니스장1",
        "latitude": 37.5727119931561,
        "longitude": 126.939193770626,
        "address": "서울 서대문구 신촌동 134",
        "road_address": "서울 서대문구 연세로 50",
        "phone": "",
        "category": "스포츠,레저 > 테니스 > 테니스장",
        "distance": "995"
      },
      {
        "name": "우리은행 365코너 연세대학교 무악2학사",
        "latitude": 37.5746364283268,
        "longitude": 126.939020138296,
        "address": "서울 서대문구 연희동 7",
        "road_address": "서울 서대문구 연세로 50",
        "phone": "02-313-3198",
        "category": "금융,보험 > 금융서비스 > 은행 > ATM",
        "distance": "781"
      }
    ]
  }
}