{
  "key": "b197be3035e6410a338c772d76f770a4be3fdfcb4370272d0860c4fa0d559a17",
  "tool": "PlaceSearch_kakao",
  "created_at": "2025-10-27T07:37:44.539358",
  "input_params": {
    "keyword": "디저트 카페",
    "radius": 500,
    "size": 5,
    "sort": "accuracy",
    "x": 127.0276368,
    "y": 37.4979502
  },
  "raw_args": {
    "keyword": "디저트 카페",
    "x": 127.0276368,
    "y": 37.4979502,
    "radius": 500,
    "size": 5,
    "sort": "accuracy"
  },
  "data": {
    "keyword": "디저트 카페",
    "total_count": 28,
    "places": [
      {
        "name": "장꼬방",
        "latitude": 37.498331428974,
        "longitude": 127.023807097178,
        "address": "서울 서초구 서초동 1316",
        "road_address": "서울 서초구 강남대로61길 27",
        "phone": "02-597-5511",
        "category": "음식점 > 카페 > 테마카페 > 디저트카페",
        "distance": "341"
      },
      {
        "name": "소과당",
        "latitude": 37.499734261007006,
        "longitude": 127.02806874426594,
        "address": "서울 강남구 역삼동 818-1",
        "road_address": "서울 강남구 강남대로96길 12",
        "phone": "02-538-8188",
        "category": "음식점 > 카페 > 테마카페 > 디저트카페",
        "distance": "202"
      },
      {
        "name": "설빙 강남역점",
        "latitude": 37.50113103589973,
        "longitude": 127.02714644191718,
        "address": "서울 강남구 역삼동 619-18",
        "road_address": "서울 강남구 테헤란로1길 42",
        "phone": "02-558-7708",
        "category": "음식점 > 카페 > 테마카페 > 디저트카페 > 설빙",
        "distance": "355"
      },
      {
        "name": "노티드 강남역점",
        "latitude": 37.500815986414466,
        "longitude": 127.02579602312332,
        "address": "서울 서초구 서초동 1305-7",
        "road_address": "서울 서초구 강남대로 429",
        "phone": "070-8869-9377",
        "category": "음식점 > 카페 > 테마카페 > 디저트카페 > 노티드",
        "distance": "357"
      },
      {
        "name": "디저트39 강남 테헤란로점",
        "latitude": 37.4977283224454,
        "longitude": 127.029298371216,
        "address": "서울 강남구 역삼동 825-20",
        "road_address": "서울 강남구 테헤란로4길 6",
        "phone": "02-555-0390",
        "category": "음식점 > 카페 > 테마카페 > 디저트카페 > 디저트39",
        "distance": "148"
      }
    ]
  }
}