{
  "key": "b1d6ef55607f887af576bca335e4f2112ef44dbc12c44a92e567ffdd8b5a9056",
  "tool": "PlaceSearch_kakao",
  "created_at": "2025-10-21T00:23:45.958872",
  "input_params": {
    "keyword": "서울역 맛집",
    "size": 10,
    "sort": "accuracy"
  },
  "raw_args": {
    "keyword": "서울역 맛집",
    "size": 10
  },
  "data": {
    "keyword": "서울역 맛집",
    "total_count": 14718,
    "places": [
      {
        "name": "만리재비스트로",
        "latitude": 37.5556079449278,
        "longitude": 126.967831535859,
        "address": "서울 중구 만리동1가 62-11",
        "road_address": "서울 중구 만리재로 201",
        "phone": "02-393-1824",
        "category": "음식점 > 양식",
        "distance": ""
      },
      {
        "name": "국민회관",
        "latitude": 37.55620808718745,
        "longitude": 126.96811874112136,
        "address": "서울 중구 만리동1가 34",
        "road_address": "서울 중구 만리재로 209-2",
        "phone": "",
        "category": "음식점 > 한식 > 육류,고기 > 삼겹살",
        "distance": ""
      },
      {
        "name": "해랑스시",
        "latitude": 37.5570149191751,
        "longitude": 126.973544041677,
        "address": "서울 중구 남대문로5가 84-11",
        "road_address": "서울 중구 통일로 10",
        "phone": "0507-1385-0099",
        "category": "음식점 > 일식 > 초밥,롤",
        "distance": ""
      },
      {
        "name": "도원스타일 서울역점",
        "latitude": 37.554896159299545,
        "longitude": 126.97133905825409,
        "address": "서울 중구 봉래동2가 122-11",
        "road_address": "서울 중구 한강대로 405",
        "phone": "02-392-0985",
        "category": "음식점 > 중식 > 중국요리",
        "distance": ""
      },
      {
        "name": "일상정원 서울역점",
        "latitude": 37.55541233771503,
        "longitude": 126.97095746653784,
        "address": "서울 중구 봉래동2가 122-11",
        "road_address": "서울 중구 한강대로 405",
        "phone": "02-362-9799",
        "category": "음식점 > 샤브샤브",
        "distance": ""
      },
      {
        "name": "동강나루터",
        "latitude": 37.55823655256039,
        "longitude": 126.97301846582216,
        "address": "서울 중구 남대문로5가 6-10",
        "road_address": "서울 중구 세종대로1길 6",
        "phone": "02-775-9331",
        "category": "음식점 > 한식 > 해물,생선 > 매운탕,해물탕",
        "distance": ""
      },
      {
        "name": "파이브가이즈 서울역점",
        "latitude": 37.555479912251364,
        "longitude": 126.97095630857912,
        "address": "서울 중구 봉래동2가 122-11",
        "road_address": "서울 중구 한강대로 405",
        "phone": "",
        "category": "음식점 > 양식 > 햄버거",
        "distance": ""
      },
      {
        "name": "루싱",
        "latitude": 37.5555733768187,
        "longitude": 126.973784479223,
        "address": "서울 중구 남대문로5가 541",
        "road_address": "서울 중구 한강대로 416",
        "phone": "02-6456-8911",
        "category": "음식점 > 중식",
        "distance": ""
      },
      {
        "name": "공일부엌",
        "latitude": 37.55606573509078,
        "longitude": 126.96813917313966,
        "address": "서울 중구 만리동1가 62-27",
        "road_address": "서울 중구 만리재로 209",
        "phone": "010-6622-0195",
        "category": "음식점 > 한식",
        "distance": ""
      },
      {
        "name": "돈오리",
        "latitude": 37.549943617455,
        "longitude": 126.972365098288,
        "address": "서울 용산구 동자동 42-9",
        "road_address": "서울 용산구 한강대로102길 3",
        "phone": "02-6080-6852",
        "category": "음식점 > 한식 > 육류,고기 > 오리",
        "distance": ""
      }
    ]
  }
}