{
  "key": "2d2c79eab167da0d9295349aeae8a078befb97ea33bbb0a4dc0a10e6f03ac348",
  "tool": "CategorySearch_tmap",
  "created_at": "2025-12-19T05:21:01.015691",
  "input_params": {
    "categories": "병원",
    "centerLat": 37.5865,
    "centerLon": 127.0305,
    "count": 30,
    "radius": 2
  },
  "raw_args": {
    "count": 30,
    "categories": "병원",
    "centerLat": 37.5865,
    "centerLon": 127.0305,
    "radius": 2
  },
  "data": {
    "totalCount": 720,
    "count": 30,
    "page": 1,
    "pois": [
      {
        "name": "사람인치과의원 주차장",
        "telNo": "029292857",
        "latitude": "37.58650836",
        "longitude": "127.03009909",
        "address": "서울 성북구 안암동5가",
        "roadName": "고려대로27길",
        "buildingNo": "-",
        "radius_km": "0.025",
        "dataKind": "",
        "stId": "",
        "parkFlag": "0",
        "merchantFlag": ""
      },
      {
        "name": "사람인치과의원",
        "telNo": "029292857",
        "latitude": "37.58653613",
        "longitude": "127.03021019",
        "address": "서울 성북구 안암동5가",
        "roadName": "고려대로27길",
        "buildingNo": "-",
        "radius_km": "0.025",
        "dataKind": "",
        "stId": "",
        "parkFlag": "1",
        "merchantFlag": ""
      },
      {
        "name": "에이치앤피고대치과의원",
        "telNo": "",
        "latitude": "37.58653613",
        "longitude": "127.03018241",
        "address": "서울 성북구 안암동5가",
        "roadName": "고려대로27길",
        "buildingNo": "-",
        "radius_km": "0.027",
        "dataKind": "",
        "stId": "",
        "parkFlag": "1",
        "merchantFlag": ""
      },
      {
        "name": "위드치과의원",
        "telNo": "029252874",
        "latitude": "37.58670277",
        "longitude": "127.02951580",
        "address": "서울 성북구 안암동5가",
        "roadName": "개운사길",
        "buildingNo": "-",
        "radius_km": "0.089",
        "dataKind": "",
        "stId": "",
        "parkFlag": "1",
        "merchantFlag": ""
      },
      {
        "name": "위드치과의원 주차장",
        "telNo": "029252874",
        "latitude": "37.58681386",
        "longitude": "127.02937692",
        "address": "서울 성북구 안암동5가",
        "roadName": "개운사길",
        "buildingNo": "-",
        "radius_km": "0.089",
        "dataKind": "",
        "stId": "",
        "parkFlag": "0",
        "merchantFlag": ""
      },
      {
        "name": "서울의원",
        "telNo": "029972682",
        "latitude": "37.58609173",
        "longitude": "127.02948804",
        "address": "서울 성북구 안암동5가",
        "roadName": "고려대로",
        "buildingNo": "-",
        "radius_km": "0.1",
        "dataKind": "",
        "stId": "",
        "parkFlag": "0",
        "merchantFlag": ""
      },
      {
        "name": "닥터민치과의원",
        "telNo": "029252879",
        "latitude": "37.58659166",
        "longitude": "127.02921028",
        "address": "서울 성북구 안암동5가",
        "roadName": "개운사길",
        "buildingNo": "-",
        "radius_km": "0.113",
        "dataKind": "",
        "stId": "",
        "parkFlag": "1",
        "merchantFlag": ""
      },
      {
        "name": "에이치앤비의원",
        "telNo": "029235905",
        "latitude": "37.58645279",
        "longitude": "127.02918250",
        "address": "서울 성북구 안암동5가",
        "roadName": "고려대로",
        "buildingNo": "-",
        "radius_km": "0.116",
        "dataKind": "",
        "stId": "",
        "parkFlag": "0",
        "merchantFlag": ""
      },
      {
        "name": "휴앤힐정신건강의학과의원",
        "telNo": "029221183",
        "latitude": "37.58570288",
        "longitude": "127.02948805",
        "address": "서울 성북구 안암동5가",
        "roadName": "고려대로24길",
        "buildingNo": "-",
        "radius_km": "0.126",
        "dataKind": "",
        "stId": "",
        "parkFlag": "0",
        "merchantFlag": ""
      },
      {
        "name": "이민수정신건강의학과의원",
        "telNo": "029256900",
        "latitude": "37.58536958",
        "longitude": "127.02921031",
        "address": "서울 성북구 안암동5가",
        "roadName": "고려대로24길",
        "buildingNo": "-",
        "radius_km": "0.17",
        "dataKind": "",
        "stId": "",
        "parkFlag": "0",
        "merchantFlag": ""
      },
      {
        "name": "우신향병원",
        "telNo": "029267505",
        "latitude": "37.58475858",
        "longitude": "127.03104349",
        "address": "서울 성북구 안암동5가",
        "roadName": "안암로",
        "buildingNo": "-",
        "radius_km": "0.201",
        "dataKind": "",
        "stId": "",
        "parkFlag": "1",
        "merchantFlag": ""
      },
      {
        "name": "우신향병원 정문",
        "telNo": "029267505",
        "latitude": "37.58470303",
        "longitude": "127.03121015",
        "address": "서울 성북구 안암동5가",
        "roadName": "안암로",
        "buildingNo": "-",
        "radius_km": "0.201",
        "dataKind": "",
        "stId": "",
        "parkFlag": "0",
        "merchantFlag": ""
      },
      {
        "name": "한창학신경정신과의원",
        "telNo": "029287878",
        "latitude": "37.58595291",
        "longitude": "127.03273775",
        "address": "서울 동대문구 제기동",
        "roadName": "안암로",
        "buildingNo": "-",
        "radius_km": "0.207",
        "dataKind": "",
        "stId": "",
        "parkFlag": "0",
        "merchantFlag": ""
      },
      {
        "name": "대한비만대사외과학회",
        "telNo": "028499701",
        "latitude": "37.58711934",
        "longitude": "127.02696047",
        "address": "서울 성북구 안암동5가",
        "roadName": "고려대로",
        "buildingNo": "-",
        "radius_km": "0.319",
        "dataKind": "",
        "stId": "",
        "parkFlag": "0",
        "merchantFlag": ""
      },
      {
        "name": "고려대부속안암병원",
        "telNo": "15770083",
        "latitude": "37.58736930",
        "longitude": "127.02634940",
        "address": "서울 성북구 안암동5가",
        "roadName": "고려대로",
        "buildingNo": "-",
        "radius_km": "0.377",
        "dataKind": "",
        "stId": "",
        "parkFlag": "1",
        "merchantFlag": ""
      },
      {
        "name": "고려대부속안암병원 정문",
        "telNo": "15770083",
        "latitude": "37.58650831",
        "longitude": "127.02746044",
        "address": "서울 성북구 안암동5가",
        "roadName": "고려대로",
        "buildingNo": "-",
        "radius_km": "0.377",
        "dataKind": "",
        "stId": "",
        "parkFlag": "0",
        "merchantFlag": ""
      },
      {
        "name": "임충남치과의원",
        "telNo": "029212875",
        "latitude": "37.58311985",
        "longitude": "127.02973810",
        "address": "서울 성북구 안암동5가",
        "roadName": "안암로",
        "buildingNo": "-",
        "radius_km": "0.383",
        "dataKind": "",
        "stId": "",
        "parkFlag": "0",
        "merchantFlag": ""
      },
      {
        "name": "고려대부속안암병원 응급실",
        "telNo": "029205373",
        "latitude": "37.58695267",
        "longitude": "127.02584946",
        "address": "서울 성북구 안암동5가",
        "roadName": "고려대로",
        "buildingNo": "-",
        "radius_km": "0.412",
        "dataKind": "",
        "stId": "",
        "parkFlag": "1",
        "merchantFlag": ""
      },
      {
        "name": "예담치과의원",
        "telNo": "029532804",
        "latitude": "37.58281434",
        "longitude": "127.03009919",
        "address": "서울 동대문구 제기동",
        "roadName": "약령시로",
        "buildingNo": "-",
        "radius_km": "0.413",
        "dataKind": "",
        "stId": "",
        "parkFlag": "0",
        "merchantFlag": ""
      },
      {
        "name": "연세정내과의원",
        "telNo": "029246575",
        "latitude": "37.58250882",
        "longitude": "127.03015475",
        "address": "서울 동대문구 제기동",
        "roadName": "약령시로",
        "buildingNo": "-",
        "radius_km": "0.446",
        "dataKind": "",
        "stId": "",
        "parkFlag": "0",
        "merchantFlag": ""
      },
      {
        "name": "안암정형외과의원",
        "telNo": "029265311",
        "latitude": "37.58186999",
        "longitude": "127.02937706",
        "address": "서울 동대문구 용두동",
        "roadName": "무학로",
        "buildingNo": "-",
        "radius_km": "0.526",
        "dataKind": "",
        "stId": "",
        "parkFlag": "0",
        "merchantFlag": ""
      },
      {
        "name": "날개병원",
        "telNo": "029599191",
        "latitude": "37.58162002",
        "longitude": "127.02948817",
        "address": "서울 동대문구 용두동",
        "roadName": "무학로",
        "buildingNo": "-",
        "radius_km": "0.551",
        "dataKind": "",
        "stId": "",
        "parkFlag": "1",
        "merchantFlag": ""
      },
      {
        "name": "날개병원 주차장",
        "telNo": "029599191",
        "latitude": "37.58167557",
        "longitude": "127.02934929",
        "address": "서울 동대문구 용두동",
        "roadName": "무학로",
        "buildingNo": "-",
        "radius_km": "0.551",
        "dataKind": "",
        "stId": "",
        "parkFlag": "0",
        "merchantFlag": ""
      },
      {
        "name": "고운숨결내과의원",
        "telNo": "029259696",
        "latitude": "37.58700818",
        "longitude": "127.02368299",
        "address": "서울 성북구 안암동2가",
        "roadName": "고려대로13길",
        "buildingNo": "-",
        "radius_km": "0.603",
        "dataKind": "",
        "stId": "",
        "parkFlag": "1",
        "merchantFlag": ""
      },
      {
        "name": "고운숨결내과의원 주차장",
        "telNo": "029259696",
        "latitude": "37.58695263",
        "longitude": "127.02348856",
        "address": "서울 성북구 안암동2가",
        "roadName": "고려대로13길",
        "buildingNo": "-",
        "radius_km": "0.603",
        "dataKind": "",
        "stId": "",
        "parkFlag": "0",
        "merchantFlag": ""
      },
      {
        "name": "나은치과의원",
        "telNo": "029222788",
        "latitude": "37.58700818",
        "longitude": "127.02362744",
        "address": "서울 성북구 안암동2가",
        "roadName": "고려대로13길",
        "buildingNo": "-",
        "radius_km": "0.608",
        "dataKind": "",
        "stId": "",
        "parkFlag": "1",
        "merchantFlag": ""
      },
      {
        "name": "나은치과의원 주차장",
        "telNo": "029222788",
        "latitude": "37.58695263",
        "longitude": "127.02348856",
        "address": "서울 성북구 안암동2가",
        "roadName": "고려대로13길",
        "buildingNo": "-",
        "radius_km": "0.608",
        "dataKind": "",
        "stId": "",
        "parkFlag": "0",
        "merchantFlag": ""
      },
      {
        "name": "동호권가정의학과의원 주차장",
        "telNo": "029636868",
        "latitude": "37.58775835",
        "longitude": "127.03804277",
        "address": "서울 동대문구 제기동",
        "roadName": "고산자로",
        "buildingNo": "-",
        "radius_km": "0.678",
        "dataKind": "",
        "stId": "",
        "parkFlag": "0",
        "merchantFlag": ""
      },
      {
        "name": "허치과의원 주차장",
        "telNo": "029665420",
        "latitude": "37.58753616",
        "longitude": "127.03829275",
        "address": "서울 동대문구 제기동",
        "roadName": "고산자로",
        "buildingNo": "-",
        "radius_km": "0.678",
        "dataKind": "",
        "stId": "",
        "parkFlag": "0",
        "merchantFlag": ""
      },
      {
        "name": "동호권가정의학과의원",
        "telNo": "029636868",
        "latitude": "37.58753616",
        "longitude": "127.03807055",
        "address": "서울 동대문구 제기동",
        "roadName": "고산자로",
        "buildingNo": "-",
        "radius_km": "0.678",
        "dataKind": "",
        "stId": "",
        "parkFlag": "1",
        "merchantFlag": ""
      }
    ]
  }
}