{
  "key": "04528083cdc564a1a0a7cf9141b2d7737a6e640fbbef585c6e740277630970ef",
  "tool": "PlaceSearch_kakao",
  "created_at": "2025-12-19T06:11:29.605078",
  "input_params": {
    "keyword": "대학교",
    "page": 1,
    "radius": 2000,
    "size": 10,
    "sort": "distance",
    "x": 127.0325,
    "y": 37.5955
  },
  "raw_args": {
    "size": 10,
    "x": 127.0325,
    "y": 37.5955,
    "page": 1,
    "sort": "distance",
    "keyword": "대학교",
    "radius": 2000
  },
  "data": {
    "keyword": "대학교",
    "total_count": 539,
    "places": [
      {
        "name": "와플대학 종암캠퍼스",
        "latitude": 37.59782478823329,
        "longitude": 127.03270752294581,
        "address": "서울 성북구 종암동 53-20",
        "road_address": "서울 성북구 종암로19길 37",
        "phone": "02-6082-1114",
        "category": "음식점 > 간식 > 제과,베이커리 > 와플대학",
        "distance": "258"
      },
      {
        "name": "고려대학교 한국어센터",
        "latitude": 37.59202237622953,
        "longitude": 127.03280236011608,
        "address": "서울 성북구 종암동 32-1",
        "road_address": "서울 성북구 북악산로27길 41",
        "phone": "02-3290-2971",
        "category": "교육,학문 > 학교부속시설",
        "distance": "386"
      },
      {
        "name": "고려대학교 한국어교육관",
        "latitude": 37.5920043500959,
        "longitude": 127.032824997942,
        "address": "서울 성북구 종암동 32-1",
        "road_address": "서울 성북구 북악산로27길 41",
        "phone": "",
        "category": "교육,학문 > 학교부속시설",
        "distance": "389"
      },
      {
        "name": "고려대학교 체육생활관",
        "latitude": 37.5921405730062,
        "longitude": 127.035345532981,
        "address": "서울 성북구 종암동 29-26",
        "road_address": "서울 성북구 종암로 13",
        "phone": "",
        "category": "교육,학문 > 학교부속시설",
        "distance": "449"
      },
      {
        "name": "고려대학교 사범대학부설 교육연수원",
        "latitude": 37.5916795362348,
        "longitude": 127.03442816655,
        "address": "서울 성북구 안암동5가 1-2",
        "road_address": "서울 성북구 안암로 145",
        "phone": "02-3290-1333",
        "category": "교육,학문 > 학교부속시설",
        "distance": "457"
      },
      {
        "name": "고려대학교 운초우선교육관",
        "latitude": 37.5916434972176,
        "longitude": 127.034425885386,
        "address": "서울 성북구 종암동 29-26",
        "road_address": "서울 성북구 안암로 145",
        "phone": "",
        "category": "교육,학문 > 학교부속시설",
        "distance": "460"
      },
      {
        "name": "고려대학교 교육대학원 총학생회",
        "latitude": 37.5916326767243,
        "longitude": 127.034455319714,
        "address": "서울 성북구 종암동 29-26",
        "road_address": "서울 성북구 안암로 145",
        "phone": "02-3290-1371",
        "category": "교육,학문 > 학교부속시설",
        "distance": "462"
      },
      {
        "name": "고려대학교 사범대학",
        "latitude": 37.59157503931713,
        "longitude": 127.03436584299205,
        "address": "서울 성북구 종암동 29-26",
        "road_address": "서울 성북구 안암로 145",
        "phone": "02-3290-1332",
        "category": "교육,학문 > 학교부속시설",
        "distance": "465"
      },
      {
        "name": "고려대학교 죽음교육연구센터",
        "latitude": 37.59208461819808,
        "longitude": 127.03565575345766,
        "address": "서울 성북구 종암동 29-26",
        "road_address": "서울 성북구 종암로 13",
        "phone": "02-924-4007",
        "category": "교육,학문 > 학교부속시설",
        "distance": "470"
      },
      {
        "name": "고려대학교 교육대학원",
        "latitude": 37.591502966222,
        "longitude": 127.034344296545,
        "address": "서울 성북구 종암동 29-26",
        "road_address": "서울 성북구 안암로 145",
        "phone": "02-3290-1378",
        "category": "교육,학문 > 학교 > 대학원",
        "distance": "472"
      }
    ]
  }
}