{
  "key": "045c8ff418570359876c5600a507c60991522fea511dc0cfbdac85ce76029c82",
  "tool": "PlaceSearch_kakao",
  "created_at": "2025-10-26T13:48:24.398300",
  "input_params": {
    "keyword": "카페",
    "radius": 1000,
    "sort": "accuracy",
    "x": 126.978669,
    "y": 37.566535
  },
  "raw_args": {
    "keyword": "카페",
    "x": 126.978669,
    "y": 37.566535,
    "radius": 1000,
    "sort": "accuracy"
  },
  "data": {
    "keyword": "카페",
    "total_count": 1024,
    "places": [
      {
        "name": "다락",
        "latitude": 37.56429453406736,
        "longitude": 126.97569088373174,
        "address": "서울 중구 서소문동 37",
        "road_address": "서울 중구 덕수궁길 15",
        "phone": "02-2133-1125",
        "category": "음식점 > 카페",
        "distance": "361"
      },
      {
        "name": "롯데호텔서울 페닌슐라 라운지&바",
        "latitude": 37.56536318873118,
        "longitude": 126.98100246603234,
        "address": "서울 중구 을지로1가 140-1",
        "road_address": "서울 중구 을지로 30",
        "phone": "02-317-7131",
        "category": "음식점 > 카페",
        "distance": "243"
      },
      {
        "name": "가배도 시청점",
        "latitude": 37.5634315063944,
        "longitude": 126.976314815893,
        "address": "서울 중구 태평로2가 329-12",
        "road_address": "서울 중구 세종대로 79",
        "phone": "0507-1390-2542",
        "category": "음식점 > 카페",
        "distance": "402"
      },
      {
        "name": "더라운지",
        "latitude": 37.5646706864769,
        "longitude": 126.977914892109,
        "address": "서울 중구 태평로2가 23",
        "road_address": "서울 중구 소공로 119",
        "phone": "02-310-7400",
        "category": "음식점 > 카페",
        "distance": "217"
      },
      {
        "name": "덕수궁 리에제와플",
        "latitude": 37.5647929393394,
        "longitude": 126.976452473606,
        "address": "서울 중구 태평로2가 365",
        "road_address": "서울 중구 덕수궁길 5",
        "phone": "02-318-5202",
        "category": "음식점 > 카페",
        "distance": "275"
      },
      {
        "name": "스타벅스 을지로국제빌딩점",
        "latitude": 37.5670482592095,
        "longitude": 126.98234221842628,
        "address": "서울 중구 다동 111",
        "road_address": "서울 중구 남대문로 109",
        "phone": "1522-3232",
        "category": "음식점 > 카페 > 커피전문점 > 스타벅스",
        "distance": "329"
      },
      {
        "name": "팀홀튼 서울시청점",
        "latitude": 37.56572510054965,
        "longitude": 126.97928643033805,
        "address": "서울 중구 을지로1가 188-3",
        "road_address": "서울 중구 을지로 16",
        "phone": "070-7450-1017",
        "category": "음식점 > 카페 > 커피전문점 > 팀홀튼",
        "distance": "104"
      },
      {
        "name": "스타벅스 무교동점",
        "latitude": 37.5679865311548,
        "longitude": 126.978896422532,
        "address": "서울 중구 무교동 45",
        "road_address": "서울 중구 무교로 21",
        "phone": "1522-3232",
        "category": "음식점 > 카페 > 커피전문점 > 스타벅스",
        "distance": "162"
      },
      {
        "name": "쇼코엘 광화문점",
        "latitude": 37.56840092713372,
        "longitude": 126.97855219904167,
        "address": "서울 중구 무교동 97",
        "road_address": "서울 중구 세종대로 136",
        "phone": "02-3789-3245",
        "category": "음식점 > 카페",
        "distance": "207"
      },
      {
        "name": "스타벅스 환구단점",
        "latitude": 37.564473589052284,
        "longitude": 126.97912831504493,
        "address": "서울 중구 소공동 87-1",
        "road_address": "서울 중구 소공로 112",
        "phone": "1522-3232",
        "category": "음식점 > 카페 > 커피전문점 > 스타벅스",
        "distance": "232"
      },
      {
        "name": "적당",
        "latitude": 37.566527245158646,
        "longitude": 126.98081427481779,
        "address": "서울 중구 을지로1가 87",
        "road_address": "서울 중구 을지로 29",
        "phone": "070-7543-8928",
        "category": "음식점 > 카페",
        "distance": "189"
      },
      {
        "name": "빽다방 을지로입구역점",
        "latitude": 37.56678149654731,
        "longitude": 126.9818940470047,
        "address": "서울 중구 다동 116",
        "road_address": "서울 중구 남대문로9길 10",
        "phone": "02-318-1770",
        "category": "음식점 > 카페 > 커피전문점 > 빽다방",
        "distance": "286"
      },
      {
        "name": "다동커피집",
        "latitude": 37.56746424195725,
        "longitude": 126.98057633227081,
        "address": "서울 중구 다동 164-1",
        "road_address": "서울 중구 다동길 24-8",
        "phone": "02-777-7484",
        "category": "음식점 > 카페",
        "distance": "197"
      },
      {
        "name": "카페비온디앤",
        "latitude": 37.56369323514144,
        "longitude": 126.97861919651966,
        "address": "서울 중구 북창동 1-2",
        "road_address": "서울 중구 세종대로18길 28",
        "phone": "0503-7151-6714",
        "category": "음식점 > 카페",
        "distance": "315"
      },
      {
        "name": "라운드앤드",
        "latitude": 37.5660606555229,
        "longitude": 126.972363673049,
        "address": "서울 중구 정동 11-3",
        "road_address": "서울 중구 정동길 35",
        "phone": "",
        "category": "음식점 > 카페 > 테마카페 > 디저트카페",
        "distance": "559"
      }
    ]
  }
}