{
  "key": "04f1c2f34fad70270bc661358f28dcce06acda6e2fba181775c62711a72bae46",
  "tool": "PlaceSearch_kakao",
  "created_at": "2025-10-20T23:40:58.615076",
  "input_params": {
    "keyword": "주차장",
    "radius": 1000,
    "sort": "distance",
    "x": 126.9356,
    "y": 37.4957
  },
  "raw_args": {
    "keyword": "주차장",
    "x": 126.9356,
    "y": 37.4957,
    "radius": 1000,
    "sort": "distance"
  },
  "data": {
    "keyword": "주차장",
    "total_count": 49,
    "places": [
      {
        "name": "성대거주자우선주차장",
        "latitude": 37.497075583206,
        "longitude": 126.933958240438,
        "address": "서울 동작구 상도동 256-187",
        "road_address": "서울 동작구 성대로6가길 41-2",
        "phone": "",
        "category": "교통,수송 > 교통시설 > 주차장 > 공영주차장",
        "distance": "210"
      },
      {
        "name": "국사봉거주자우선주차장",
        "latitude": 37.4943145292549,
        "longitude": 126.933300278527,
        "address": "서울 동작구 상도동 301-176",
        "road_address": "",
        "phone": "",
        "category": "교통,수송 > 교통시설 > 주차장",
        "distance": "255"
      },
      {
        "name": "빙수골 장미 공영주차장",
        "latitude": 37.493222928414355,
        "longitude": 126.9340475731989,
        "address": "서울 동작구 상도동 301-132",
        "road_address": "",
        "phone": "",
        "category": "교통,수송 > 교통시설 > 주차장 > 공영주차장",
        "distance": "307"
      },
      {
        "name": "빙수골 거주자 우선주차장",
        "latitude": 37.4953228849734,
        "longitude": 126.931946914487,
        "address": "서울 동작구 상도동 299-16",
        "road_address": "서울 동작구 국사봉12길 11",
        "phone": "",
        "category": "교통,수송 > 교통시설 > 주차장",
        "distance": "325"
      },
      {
        "name": "정도주택 주차장",
        "latitude": 37.4955055644959,
        "longitude": 126.931557743815,
        "address": "서울 동작구 상도동 299-140",
        "road_address": "서울 동작구 국사봉12길 6",
        "phone": "",
        "category": "교통,수송 > 교통시설 > 주차장",
        "distance": "358"
      },
      {
        "name": "삼선이앤티 주차장",
        "latitude": 37.4965174439905,
        "longitude": 126.939930716559,
        "address": "서울 동작구 상도동 210-291",
        "road_address": "서울 동작구 양녕로23길 51",
        "phone": "02-822-1234",
        "category": "교통,수송 > 교통시설 > 주차장",
        "distance": "393"
      },
      {
        "name": "도화공영주차장",
        "latitude": 37.49954129841674,
        "longitude": 126.93497160734259,
        "address": "서울 동작구 상도동 244-181",
        "road_address": "서울 동작구 성대로17길 지하 52",
        "phone": "",
        "category": "교통,수송 > 교통시설 > 주차장 > 공영주차장",
        "distance": "429"
      },
      {
        "name": "신성하이츠 주차장",
        "latitude": 37.4954084189637,
        "longitude": 126.930295829805,
        "address": "서울 동작구 상도동 299-68",
        "road_address": "",
        "phone": "",
        "category": "교통,수송 > 교통시설 > 주차장",
        "distance": "470"
      },
      {
        "name": "유진주차장",
        "latitude": 37.499240549749,
        "longitude": 126.93210168313,
        "address": "서울 동작구 상도동 315-39",
        "road_address": "서울 동작구 성대로2길 5-7",
        "phone": "02-823-5663",
        "category": "교통,수송 > 교통시설 > 주차장",
        "distance": "500"
      },
      {
        "name": "삼선이엔티주차장",
        "latitude": 37.495951558610734,
        "longitude": 126.9416217681445,
        "address": "서울 동작구 상도동 산 65-145",
        "road_address": "서울 동작구 양녕로23길 12",
        "phone": "02-823-1234",
        "category": "교통,수송 > 교통시설 > 주차장",
        "distance": "533"
      },
      {
        "name": "상도성대시장 주차장",
        "latitude": 37.4997818292006,
        "longitude": 126.931711035033,
        "address": "서울 동작구 상도동 324-1",
        "road_address": "서울 동작구 상도로 102",
        "phone": "",
        "category": "교통,수송 > 교통시설 > 주차장",
        "distance": "568"
      },
      {
        "name": "투루파킹 성대시장점 주차장",
        "latitude": 37.4998963124287,
        "longitude": 126.931807056802,
        "address": "서울 동작구 상도동 324-1",
        "road_address": "서울 동작구 상도로 102",
        "phone": "1688-1054",
        "category": "교통,수송 > 교통시설 > 주차장",
        "distance": "574"
      },
      {
        "name": "아산주차장",
        "latitude": 37.4994865459014,
        "longitude": 126.9305883319012,
        "address": "서울 동작구 상도동 324-62",
        "road_address": "",
        "phone": "02-823-8482",
        "category": "교통,수송 > 교통시설 > 주차장",
        "distance": "610"
      },
      {
        "name": "쏘카존 아산주차장",
        "latitude": 37.499493754610185,
        "longitude": 126.93058945611689,
        "address": "서울 동작구 상도동 324-2",
        "road_address": "서울 동작구 상도로 88",
        "phone": "",
        "category": "교통,수송 > 교통시설 > 카셰어링 > 쏘카존",
        "distance": "611"
      },
      {
        "name": "상진주차장",
        "latitude": 37.498492988099,
        "longitude": 126.929492304491,
        "address": "서울 동작구 상도동 323-12",
        "road_address": "서울 동작구 국사봉1길 18",
        "phone": "",
        "category": "교통,수송 > 교통시설 > 주차장",
        "distance": "622"
      }
    ]
  }
}