{
  "key": "d6bd955df903140f8732ef245a4e3004e590b2e06bd6bb679308ae435a68a8c0",
  "tool": "PlaceSearch_kakao",
  "created_at": "2025-10-27T02:14:07.719028",
  "input_params": {
    "keyword": "애플",
    "radius": 1000,
    "sort": "accuracy",
    "x": 127.042,
    "y": 37.5072
  },
  "raw_args": {
    "keyword": "애플",
    "x": 127.042,
    "y": 37.5072,
    "radius": 1000
  },
  "data": {
    "keyword": "애플",
    "total_count": 17,
    "places": [
      {
        "name": "애플",
        "latitude": 37.5012982208869,
        "longitude": 127.041029624075,
        "address": "서울 강남구 역삼동 719-18",
        "road_address": "서울 강남구 언주로87길 24",
        "phone": "010-3144-1175",
        "category": "가정,생활 > 유흥시설 > 유흥주점",
        "distance": "660"
      },
      {
        "name": "나인애플",
        "latitude": 37.5046039627709,
        "longitude": 127.052526567013,
        "address": "서울 강남구 대치동 890-33",
        "road_address": "서울 강남구 테헤란로68길 11",
        "phone": "02-538-9221",
        "category": "가정,생활 > 미용 > 미용실",
        "distance": "974"
      },
      {
        "name": "애플원룸텔 역삼점",
        "latitude": 37.5000528633745,
        "longitude": 127.04150844295,
        "address": "서울 강남구 역삼동 723-17",
        "road_address": "서울 강남구 언주로85길 23-12",
        "phone": "02-566-1288",
        "category": "부동산 > 주거시설 > 고시원,고시텔",
        "distance": "794"
      },
      {
        "name": "애플뮤직",
        "latitude": 37.503472061874646,
        "longitude": 127.03335167319348,
        "address": "서울 강남구 역삼동 626-31",
        "road_address": "서울 강남구 논현로99길 24",
        "phone": "02-2263-2616",
        "category": "문화,예술 > 음악 > 음반,레코드샵",
        "distance": "869"
      },
      {
        "name": "애플에이엠씨대부",
        "latitude": 37.5062733824168,
        "longitude": 127.041575222332,
        "address": "서울 강남구 역삼동 689-27",
        "road_address": "서울 강남구 봉은사로44길 48",
        "phone": "0507-0079-0888",
        "category": "금융,보험 > 금융서비스",
        "distance": "109"
      },
      {
        "name": "애플가든",
        "latitude": 37.504837168943,
        "longitude": 127.046442116836,
        "address": "서울 강남구 역삼동 704-51",
        "road_address": "서울 강남구 선릉로93길 26",
        "phone": "",
        "category": "음식점 > 술집",
        "distance": "472"
      },
      {
        "name": "디애플공인중개사사무소",
        "latitude": 37.51392735655982,
        "longitude": 127.04879592557238,
        "address": "서울 강남구 삼성동 47",
        "road_address": "서울 강남구 봉은사로69길 30",
        "phone": "02-556-3212",
        "category": "부동산 > 부동산서비스 > 부동산중개업소",
        "distance": "958"
      },
      {
        "name": "선릉애플치과의원",
        "latitude": 37.5036987618868,
        "longitude": 127.045247126453,
        "address": "서울 강남구 역삼동 702-13",
        "road_address": "서울 강남구 테헤란로 313",
        "phone": "02-538-3694",
        "category": "의료,건강 > 병원 > 치과",
        "distance": "483"
      },
      {
        "name": "애플선불폰",
        "latitude": 37.504648938692,
        "longitude": 127.05063336108,
        "address": "서울 강남구 대치동 889-13",
        "road_address": "서울 강남구 테헤란로 410",
        "phone": "010-6387-4596",
        "category": "가정,생활 > 전자제품 > 전자제품판매 > 휴대폰판매",
        "distance": "814"
      },
      {
        "name": "애플팩토리",
        "latitude": 37.5041827445532,
        "longitude": 127.051499360974,
        "address": "서울 강남구 대치동 890-54",
        "road_address": "서울 강남구 테헤란로64길 13",
        "phone": "070-7720-7705",
        "category": "가정,생활 > 전자제품 > 전자제품서비스센터 > 휴대폰수리",
        "distance": "904"
      },
      {
        "name": "애플앤유",
        "latitude": 37.5071442835624,
        "longitude": 127.034314660187,
        "address": "서울 강남구 역삼동 650",
        "road_address": "서울 강남구 논현로 570",
        "phone": "02-1688-3696",
        "category": "서비스,산업 > 농업 > 원예업",
        "distance": "679"
      },
      {
        "name": "파인앤애플시스템즈",
        "latitude": 37.50323332801711,
        "longitude": 127.04657231297917,
        "address": "서울 강남구 역삼동 707-35",
        "road_address": "서울 강남구 테헤란로 322",
        "phone": "070-7010-5960",
        "category": "서비스,산업 > 인터넷,IT",
        "distance": "597"
      },
      {
        "name": "제이드애플스튜디오",
        "latitude": 37.51172930501782,
        "longitude": 127.04782177175497,
        "address": "서울 강남구 삼성동 44-12",
        "road_address": "서울 강남구 봉은사로 439",
        "phone": "02-525-4682",
        "category": "서비스,산업 > 전문대행",
        "distance": "719"
      },
      {
        "name": "애플클리닉",
        "latitude": 37.5043888227798,
        "longitude": 127.049988536902,
        "address": "서울 강남구 대치동 889-5",
        "road_address": "서울 강남구 테헤란로 406",
        "phone": "",
        "category": "가정,생활 > 전자제품 > 전자제품서비스센터 > 통신기기수리",
        "distance": "772"
      },
      {
        "name": "더애플",
        "latitude": 37.504053196169,
        "longitude": 127.051046889097,
        "address": "서울 강남구 대치동 889-56",
        "road_address": "서울 강남구 테헤란로64길 14",
        "phone": "",
        "category": "가정,생활 > 전자제품 > 전자제품서비스센터 > 휴대폰수리",
        "distance": "872"
      }
    ]
  }
}