{
  "key": "602d73168e7f07d4acd233f959c1860d1dae133e92546894c97fc9a1b6d1ee25",
  "tool": "PlaceSearch_kakao",
  "created_at": "2025-10-26T08:26:24.819046",
  "input_params": {
    "keyword": "맛집",
    "radius": 1000,
    "sort": "accuracy",
    "x": 126.935,
    "y": 37.488
  },
  "raw_args": {
    "keyword": "맛집",
    "radius": 1000,
    "x": 126.935,
    "y": 37.488
  },
  "data": {
    "keyword": "맛집",
    "total_count": 1561,
    "places": [
      {
        "name": "신풍루곱창구이",
        "latitude": 37.4858150122932,
        "longitude": 126.937676791569,
        "address": "서울 관악구 봉천동 957-18",
        "road_address": "서울 관악구 은천로2길 18",
        "phone": "02-877-6681",
        "category": "음식점 > 한식 > 육류,고기 > 곱창,막창",
        "distance": "338"
      },
      {
        "name": "상도스시",
        "latitude": 37.48691602648182,
        "longitude": 126.93431770158557,
        "address": "서울 관악구 봉천동 967-15",
        "road_address": "서울 관악구 봉천로 299",
        "phone": "02-3285-9997",
        "category": "음식점 > 일식 > 초밥,롤",
        "distance": "134"
      },
      {
        "name": "서울갈비 신림점",
        "latitude": 37.4849874642852,
        "longitude": 126.933593500042,
        "address": "서울 관악구 신림동 1410-17",
        "road_address": "서울 관악구 남부순환로 1645",
        "phone": "02-885-7610",
        "category": "음식점 > 한식 > 육류,고기 > 갈비",
        "distance": "356"
      },
      {
        "name": "도미노피자 보라매점",
        "latitude": 37.487560306716674,
        "longitude": 126.93282121020303,
        "address": "서울 관악구 봉천동 968-29",
        "road_address": "서울 관악구 봉천로 283-1",
        "phone": "02-883-3085",
        "category": "음식점 > 양식 > 피자 > 도미노피자",
        "distance": "198"
      },
      {
        "name": "아리차이 신림점",
        "latitude": 37.4876152971167,
        "longitude": 126.928272317548,
        "address": "서울 관악구 신림동 1430-11",
        "road_address": "서울 관악구 신림동길 4",
        "phone": "02-877-1272",
        "category": "음식점 > 중식 > 중국요리",
        "distance": "596"
      },
      {
        "name": "어시장활어회 본점",
        "latitude": 37.48585477570524,
        "longitude": 126.93790289509387,
        "address": "서울 관악구 봉천동 956-3",
        "road_address": "서울 관악구 봉천로25길 13",
        "phone": "02-875-2881",
        "category": "음식점 > 한식 > 해물,생선 > 회",
        "distance": "350"
      },
      {
        "name": "고앤고 본점",
        "latitude": 37.485058890822344,
        "longitude": 126.93566821768789,
        "address": "서울 관악구 봉천동 959-2",
        "road_address": "서울 관악구 남부순환로 1665",
        "phone": "02-882-8492",
        "category": "음식점 > 한식 > 육류,고기",
        "distance": "331"
      },
      {
        "name": "장충동영양족발",
        "latitude": 37.484421318465124,
        "longitude": 126.93629854263953,
        "address": "서울 관악구 신림동 10-627",
        "road_address": "서울 관악구 남부순환로 1672",
        "phone": "02-876-6869",
        "category": "음식점 > 한식 > 육류,고기 > 족발,보쌈",
        "distance": "413"
      },
      {
        "name": "강강술래 신림점",
        "latitude": 37.4845810083297,
        "longitude": 126.935032063852,
        "address": "서울 관악구 신림동 10-518",
        "road_address": "서울 관악구 남부순환로 1660",
        "phone": "02-886-9233",
        "category": "음식점 > 한식 > 육류,고기 > 갈비",
        "distance": "379"
      },
      {
        "name": "정담은보쌈 신림점",
        "latitude": 37.48520831314562,
        "longitude": 126.93540238140316,
        "address": "서울 관악구 봉천동 959-4",
        "road_address": "서울 관악구 남부순환로 1661",
        "phone": "02-888-8401",
        "category": "음식점 > 한식 > 육류,고기 > 족발,보쌈",
        "distance": "311"
      },
      {
        "name": "달다어요",
        "latitude": 37.4864926643333,
        "longitude": 126.93134435131,
        "address": "서울 관악구 신림동 1419-23",
        "road_address": "서울 관악구 신림로68길 38",
        "phone": "",
        "category": "음식점 > 카페",
        "distance": "364"
      },
      {
        "name": "시골집",
        "latitude": 37.4861269181571,
        "longitude": 126.934632723395,
        "address": "서울 관악구 봉천동 961-3",
        "road_address": "서울 관악구 봉천로 308-2",
        "phone": "02-871-1588",
        "category": "음식점 > 한식 > 사철탕,영양탕",
        "distance": "210"
      },
      {
        "name": "도우맨션",
        "latitude": 37.4886930583466,
        "longitude": 126.93641138014605,
        "address": "서울 관악구 봉천동 647-43",
        "road_address": "서울 관악구 봉천로23바길 2",
        "phone": "",
        "category": "음식점 > 카페",
        "distance": "146"
      },
      {
        "name": "룸펜",
        "latitude": 37.4864160626742,
        "longitude": 126.929784067554,
        "address": "서울 관악구 신림동 1424-3",
        "road_address": "서울 관악구 신림로68길 8",
        "phone": "02-873-5553",
        "category": "음식점 > 양식",
        "distance": "493"
      },
      {
        "name": "아뜨베 신림점",
        "latitude": 37.487640363057,
        "longitude": 126.932587081613,
        "address": "서울 관악구 봉천동 968-35",
        "road_address": "서울 관악구 봉천로 283",
        "phone": "02-6401-0223",
        "category": "음식점 > 카페",
        "distance": "217"
      }
    ]
  }
}