{
  "key": "f3a40f2855020fe53e1b3a5f3f8231a9a0e22fcc660ab7f084a2846d3b717c72",
  "tool": "PlaceSearch_kakao",
  "created_at": "2025-12-15T14:36:52.800640",
  "input_params": {
    "keyword": "조용한 카페",
    "size": 10,
    "sort": "accuracy",
    "x": 127.0286,
    "y": 37.4979
  },
  "raw_args": {
    "keyword": "조용한 카페",
    "x": 127.0286,
    "y": 37.4979,
    "size": 10
  },
  "data": {
    "keyword": "조용한 카페",
    "total_count": 50,
    "places": [
      {
        "name": "조용한 사진관카페",
        "latitude": 36.1309842527656,
        "longitude": 127.10188373673152,
        "address": "충남 논산시 연무읍 동산리 888-1",
        "road_address": "충남 논산시 연무읍 안심로140번길 35",
        "phone": "010-5186-4353",
        "category": "음식점 > 카페",
        "distance": "151833"
      },
      {
        "name": "월정조용한카페앤펍",
        "latitude": 33.5562557023024,
        "longitude": 126.793621689659,
        "address": "제주특별자치도 제주시 구좌읍 월정리 600",
        "road_address": "제주특별자치도 제주시 구좌읍 월정1길 64-1",
        "phone": "010-4332-5794",
        "category": "음식점 > 카페",
        "distance": "437846"
      },
      {
        "name": "카페베이직먼트",
        "latitude": 37.5218261892523,
        "longitude": 127.037135872075,
        "address": "서울 강남구 논현동 92-7",
        "road_address": "서울 강남구 언주로150길 35",
        "phone": "0507-1379-6960",
        "category": "음식점 > 카페",
        "distance": "2760"
      },
      {
        "name": "옻칠갤러리카페",
        "latitude": 37.55679689448855,
        "longitude": 126.92244316808761,
        "address": "서울 마포구 동교동 158-16",
        "road_address": "서울 마포구 월드컵북로2길 33",
        "phone": "02-338-3636",
        "category": "음식점 > 카페",
        "distance": "11436"
      },
      {
        "name": "가성비카페",
        "latitude": 37.6079803617007,
        "longitude": 127.057344474933,
        "address": "서울 성북구 석관동 340-213",
        "road_address": "서울 성북구 화랑로32길 54-5",
        "phone": "010-9180-6592",
        "category": "음식점 > 카페 > 테마카페 > 무인카페",
        "distance": "12478"
      },
      {
        "name": "카페 담온",
        "latitude": 37.3697027175073,
        "longitude": 126.953237153101,
        "address": "경기 안양시 동안구 호계동 555-9",
        "road_address": "경기 안양시 동안구 엘에스로 76",
        "phone": "0503-7151-8730",
        "category": "음식점 > 카페 > 커피전문점",
        "distance": "15713"
      },
      {
        "name": "진심카페",
        "latitude": 37.6427122235973,
        "longitude": 126.847929180539,
        "address": "경기 고양시 덕양구 성사동 212",
        "road_address": "경기 고양시 덕양구 흥도로417번길 61",
        "phone": "0502-5550-4887",
        "category": "음식점 > 카페",
        "distance": "22651"
      },
      {
        "name": "스펙스터디카페 별내본점",
        "latitude": 37.6465211552042,
        "longitude": 127.121336091077,
        "address": "경기 남양주시 별내동 1026-1",
        "road_address": "경기 남양주시 별내3로 64-7",
        "phone": "0507-1324-3554",
        "category": "서비스,산업 > 전문대행 > 공간대여 > 스터디카페,스터디룸",
        "distance": "18417"
      },
      {
        "name": "카페채움",
        "latitude": 37.3585140111536,
        "longitude": 126.831631621794,
        "address": "경기 안산시 단원구 화정동 67",
        "road_address": "경기 안산시 단원구 고송정길 4-4",
        "phone": "010-2124-2403",
        "category": "음식점 > 카페",
        "distance": "23307"
      },
      {
        "name": "카페도하",
        "latitude": 37.6611836933865,
        "longitude": 126.76795851211334,
        "address": "경기 고양시 일산동구 장항동 765",
        "road_address": "경기 고양시 일산동구 중앙로 1305-56",
        "phone": "0503-7151-4963",
        "category": "음식점 > 카페",
        "distance": "29299"
      }
    ]
  }
}