{
  "key": "f3ae180a75ed1dc59e4a2dfcae31a9d3e364efda4356b1cf4afcac29d7f5afb7",
  "tool": "PlaceSearch_kakao",
  "created_at": "2025-10-30T11:52:38.719846",
  "input_params": {
    "keyword": "강남역 북카페",
    "page": 1,
    "size": 15,
    "sort": "accuracy"
  },
  "raw_args": {
    "keyword": "강남역 북카페",
    "page": 1,
    "size": 15
  },
  "data": {
    "keyword": "강남역 북카페",
    "total_count": 44,
    "places": [
      {
        "name": "서울북카페 욕망의북카페",
        "latitude": 37.5038455049071,
        "longitude": 127.028260283629,
        "address": "서울 강남구 역삼동 616-10",
        "road_address": "서울 강남구 강남대로102길 45",
        "phone": "010-3151-2608",
        "category": "음식점 > 카페 > 테마카페 > 북카페",
        "distance": ""
      },
      {
        "name": "커피랑도서관 교대역점",
        "latitude": 37.49533490061649,
        "longitude": 127.01737853183536,
        "address": "서울 서초구 서초동 1686-6",
        "road_address": "서울 서초구 서초중앙로24길 35",
        "phone": "070-4184-1140",
        "category": "음식점 > 카페 > 테마카페 > 북카페 > 커피랑도서관",
        "distance": ""
      },
      {
        "name": "북카페레벤",
        "latitude": 37.5115834447788,
        "longitude": 127.023662004286,
        "address": "서울 강남구 논현동 123",
        "road_address": "서울 강남구 학동로 116",
        "phone": "02-2278-6607",
        "category": "음식점 > 카페 > 테마카페 > 북카페",
        "distance": ""
      },
      {
        "name": "우리동네 서재",
        "latitude": 37.49033844097802,
        "longitude": 127.01976212706444,
        "address": "서울 서초구 서초동 1648-2",
        "road_address": "서울 서초구 사임당로19길 6",
        "phone": "02-6348-0801",
        "category": "음식점 > 카페 > 테마카페 > 북카페",
        "distance": ""
      },
      {
        "name": "커피랑도서관 반포점",
        "latitude": 37.50344930522157,
        "longitude": 127.01013329620615,
        "address": "서울 서초구 반포동 58-9",
        "road_address": "서울 서초구 고무래로 12",
        "phone": "070-4274-1140",
        "category": "음식점 > 카페 > 테마카페 > 북카페 > 커피랑도서관",
        "distance": ""
      },
      {
        "name": "카페마당",
        "latitude": 37.5227782031583,
        "longitude": 127.035326360129,
        "address": "서울 강남구 신사동 630-26",
        "road_address": "서울 강남구 도산대로45길 7",
        "phone": "02-546-3643",
        "category": "음식점 > 카페 > 테마카페 > 북카페",
        "distance": ""
      },
      {
        "name": "프리즘독서클럽",
        "latitude": 37.4849713903911,
        "longitude": 127.042671471392,
        "address": "서울 강남구 도곡동 412-12",
        "road_address": "서울 강남구 논현로36길 11",
        "phone": "070-4647-0789",
        "category": "음식점 > 카페 > 테마카페 > 북카페",
        "distance": ""
      },
      {
        "name": "국립중앙도서관 북카페",
        "latitude": 37.4973210557065,
        "longitude": 127.003107591777,
        "address": "서울 서초구 반포동 산 60-1",
        "road_address": "서울 서초구 반포대로 201",
        "phone": "02-536-2788",
        "category": "음식점 > 카페 > 테마카페 > 북카페",
        "distance": ""
      },
      {
        "name": "기분좋은충돌",
        "latitude": 37.4767147619745,
        "longitude": 127.039451505952,
        "address": "서울 서초구 양재동 97-10",
        "road_address": "서울 서초구 양재천로21길 22",
        "phone": "",
        "category": "음식점 > 카페 > 테마카페 > 북카페",
        "distance": ""
      },
      {
        "name": "CAFE SKY & LIBRARY",
        "latitude": 37.4978869189376,
        "longitude": 126.998484641775,
        "address": "서울 서초구 반포동 91-7",
        "road_address": "서울 서초구 서래로 32",
        "phone": "02-595-2410",
        "category": "음식점 > 카페 > 테마카페 > 북카페",
        "distance": ""
      },
      {
        "name": "새움카페",
        "latitude": 37.4987081457245,
        "longitude": 127.059366502123,
        "address": "서울 강남구 대치동 941-24",
        "road_address": "서울 강남구 도곡로 447",
        "phone": "",
        "category": "음식점 > 카페 > 테마카페 > 북카페",
        "distance": ""
      },
      {
        "name": "놀숲 강남역점",
        "latitude": 37.50098307994714,
        "longitude": 127.02796516792077,
        "address": "서울 강남구 역삼동 620-9",
        "road_address": "서울 강남구 강남대로98길 17",
        "phone": "02-558-5846",
        "category": "가정,생활 > 여가시설 > 만화방 > 만화카페 > 놀숲",
        "distance": ""
      },
      {
        "name": "놀숲 강남교보타워점",
        "latitude": 37.502548906046734,
        "longitude": 127.02445419990524,
        "address": "서울 서초구 서초동 1303-36",
        "road_address": "서울 서초구 서초대로77길 58",
        "phone": "02-533-7533",
        "category": "가정,생활 > 여가시설 > 만화방 > 만화카페 > 놀숲",
        "distance": ""
      },
      {
        "name": "사유의서재 강남점",
        "latitude": 37.50087867685724,
        "longitude": 127.02748109974698,
        "address": "서울 강남구 역삼동 619-28",
        "road_address": "서울 강남구 강남대로98길 11",
        "phone": "010-2197-0957",
        "category": "음식점 > 술집 > 와인바",
        "distance": ""
      },
      {
        "name": "그레이스케일커피",
        "latitude": 37.5032535497272,
        "longitude": 127.028237441604,
        "address": "서울 강남구 역삼동 618-8",
        "road_address": "서울 강남구 강남대로102길 38",
        "phone": "",
        "category": "음식점 > 카페",
        "distance": ""
      }
    ]
  }
}