{
  "key": "f3fbb6b8769a48576005a78e8fb65ed623955fef09f3f121391c852e37b9462f",
  "tool": "PlaceSearch_kakao",
  "created_at": "2025-10-27T16:51:21.333460",
  "input_params": {
    "keyword": "맛집",
    "page": 1,
    "radius": 1000,
    "size": 10,
    "sort": "distance",
    "x": 127.216475764948,
    "y": 37.6360236390492
  },
  "raw_args": {
    "size": 10,
    "x": 127.216475764948,
    "y": 37.6360236390492,
    "page": 1,
    "sort": "distance",
    "keyword": "맛집",
    "radius": 1000
  },
  "data": {
    "keyword": "맛집",
    "total_count": 114,
    "places": [
      {
        "name": "뜨란",
        "latitude": 37.6358722995465,
        "longitude": 127.216461730489,
        "address": "경기 남양주시 금곡동 185-10",
        "road_address": "경기 남양주시 경춘로 1037",
        "phone": "031-592-7150",
        "category": "음식점 > 카페 > 커피전문점",
        "distance": "16"
      },
      {
        "name": "매머드익스프레스 남양주시청제1청사점",
        "latitude": 37.6364148527216,
        "longitude": 127.215882096747,
        "address": "경기 남양주시 금곡동 203-31",
        "road_address": "경기 남양주시 경춘로양골1길 13",
        "phone": "",
        "category": "음식점 > 카페 > 커피전문점 > 매머드익스프레스",
        "distance": "67"
      },
      {
        "name": "티롤",
        "latitude": 37.6364096913831,
        "longitude": 127.215748392725,
        "address": "경기 남양주시 금곡동 203-32",
        "road_address": "경기 남양주시 경춘로양골1길 11",
        "phone": "",
        "category": "음식점 > 카페",
        "distance": "77"
      },
      {
        "name": "풀문",
        "latitude": 37.6361732018748,
        "longitude": 127.215491661151,
        "address": "경기 남양주시 금곡동 185-41",
        "road_address": "경기 남양주시 경춘로양골1길 10",
        "phone": "070-7543-3894",
        "category": "음식점 > 카페",
        "distance": "88"
      },
      {
        "name": "달리는커피 남양주금곡점",
        "latitude": 37.6370749815033,
        "longitude": 127.216533197623,
        "address": "경기 남양주시 금곡동 204-2",
        "road_address": "경기 남양주시 경춘로양골1길 9-27",
        "phone": "031-559-5202",
        "category": "음식점 > 카페",
        "distance": "116"
      },
      {
        "name": "태능배갈비",
        "latitude": 37.6353160633072,
        "longitude": 127.215164031511,
        "address": "경기 남양주시 금곡동 185-18",
        "road_address": "경기 남양주시 경춘로 1023",
        "phone": "031-559-8588",
        "category": "음식점 > 한식 > 육류,고기 > 갈비",
        "distance": "139"
      },
      {
        "name": "원조공릉동멸치국수 금곡점",
        "latitude": 37.6355299650025,
        "longitude": 127.214466754158,
        "address": "경기 남양주시 금곡동 185-69",
        "road_address": "경기 남양주시 경춘로1015번길 8",
        "phone": "031-594-2901",
        "category": "음식점 > 한식 > 국수",
        "distance": "185"
      },
      {
        "name": "승희네집밥",
        "latitude": 37.6362547144146,
        "longitude": 127.21426943699,
        "address": "경기 남양주시 금곡동 166-1",
        "road_address": "경기 남양주시 경춘로1015번길 13",
        "phone": "",
        "category": "음식점 > 한식",
        "distance": "196"
      },
      {
        "name": "짬뽕의달인",
        "latitude": 37.6353611201127,
        "longitude": 127.214169437937,
        "address": "경기 남양주시 금곡동 158-104",
        "road_address": "경기 남양주시 경춘로1015번길 5-1",
        "phone": "031-558-8228",
        "category": "음식점 > 중식 > 중국요리",
        "distance": "216"
      },
      {
        "name": "오가네아구찜",
        "latitude": 37.6359886906951,
        "longitude": 127.213901596625,
        "address": "경기 남양주시 금곡동 158-1",
        "road_address": "경기 남양주시 사릉로34번길 48",
        "phone": "031-591-5501",
        "category": "음식점 > 한식 > 해물,생선 > 아구",
        "distance": "227"
      }
    ]
  }
}