{
  "key": "80b3c0e2e61e401f7e51587e3957fcd5451b09ca74d21ade10a9b7c57b77aa11",
  "tool": "PlaceSearch_kakao",
  "created_at": "2025-10-15T14:52:19.576247",
  "input_params": {
    "keyword": "병원",
    "radius": 1000,
    "sort": "distance",
    "x": 127.0459,
    "y": 37.5802
  },
  "raw_args": {
    "keyword": "병원",
    "x": 127.0459,
    "y": 37.5802,
    "radius": 1000,
    "sort": "distance"
  },
  "data": {
    "keyword": "병원",
    "total_count": 233,
    "places": [
      {
        "name": "오아로 피부과의원 청량리점",
        "latitude": 37.579890545357316,
        "longitude": 127.04615585704832,
        "address": "서울 동대문구 전농동 620-69",
        "road_address": "서울 동대문구 왕산로 200",
        "phone": "02-967-1064",
        "category": "의료,건강 > 병원 > 피부과",
        "distance": "41"
      },
      {
        "name": "연세신통마취통증의학과의원",
        "latitude": 37.57989054314392,
        "longitude": 127.04616151756379,
        "address": "서울 동대문구 전농동 620-69",
        "road_address": "서울 동대문구 왕산로 200",
        "phone": "02-963-3375",
        "category": "의료,건강 > 병원 > 통증클리닉",
        "distance": "41"
      },
      {
        "name": "안창헌피부과의원",
        "latitude": 37.58085023402972,
        "longitude": 127.0458213425889,
        "address": "서울 동대문구 청량리동 264",
        "road_address": "서울 동대문구 왕산로 207",
        "phone": "02-966-6176",
        "category": "의료,건강 > 병원 > 피부과",
        "distance": "72"
      },
      {
        "name": "김영대통증의학과",
        "latitude": 37.580878340609814,
        "longitude": 127.04536624824523,
        "address": "서울 동대문구 청량리동 273",
        "road_address": "서울 동대문구 홍릉로 6-2",
        "phone": "02-957-6958",
        "category": "의료,건강 > 병원 > 통증클리닉",
        "distance": "88"
      },
      {
        "name": "청량리연세감동치과의원",
        "latitude": 37.58063709869496,
        "longitude": 127.0447785343481,
        "address": "서울 동대문구 청량리동 744",
        "road_address": "서울 동대문구 홍릉로 3",
        "phone": "02-966-2804",
        "category": "의료,건강 > 병원 > 치과",
        "distance": "110"
      },
      {
        "name": "청량힐정형외과의원",
        "latitude": 37.58062539823463,
        "longitude": 127.04474569602026,
        "address": "서울 동대문구 청량리동 744",
        "road_address": "서울 동대문구 홍릉로 3",
        "phone": "02-967-7588",
        "category": "의료,건강 > 병원 > 정형외과",
        "distance": "112"
      },
      {
        "name": "튼튼플란트치과의원",
        "latitude": 37.579783881805476,
        "longitude": 127.04471462566367,
        "address": "서울 동대문구 전농동 620-1",
        "road_address": "서울 동대문구 왕산로 194",
        "phone": "02-959-2200",
        "category": "의료,건강 > 병원 > 치과",
        "distance": "114"
      },
      {
        "name": "연세좋은이웃치과의원",
        "latitude": 37.58017046885811,
        "longitude": 127.0445540975763,
        "address": "서울 동대문구 청량리동 750",
        "road_address": "서울 동대문구 왕산로 193",
        "phone": "02-969-0028",
        "category": "의료,건강 > 병원 > 치과",
        "distance": "118"
      },
      {
        "name": "다보는성모안과의원",
        "latitude": 37.5802299425513,
        "longitude": 127.044532622955,
        "address": "서울 동대문구 청량리동 750",
        "road_address": "서울 동대문구 왕산로 193",
        "phone": "02-964-5235",
        "category": "의료,건강 > 병원 > 안과",
        "distance": "120"
      },
      {
        "name": "푸른봄한의원",
        "latitude": 37.580226338577,
        "longitude": 127.044532620808,
        "address": "서울 동대문구 청량리동 750",
        "road_address": "서울 동대문구 왕산로 193",
        "phone": "02-965-1075",
        "category": "의료,건강 > 병원 > 한의원",
        "distance": "120"
      },
      {
        "name": "광덕안정치과의원 청량리점",
        "latitude": 37.58080559521875,
        "longitude": 127.04475033233152,
        "address": "서울 동대문구 청량리동 743-2",
        "road_address": "서울 동대문구 홍릉로 5",
        "phone": "02-960-5103",
        "category": "의료,건강 > 병원 > 치과",
        "distance": "121"
      },
      {
        "name": "강신삼 신경정신과의원",
        "latitude": 37.580813705876785,
        "longitude": 127.04474580871658,
        "address": "서울 동대문구 청량리동 743-2",
        "road_address": "서울 동대문구 홍릉로 5",
        "phone": "02-969-9491",
        "category": "의료,건강 > 병원 > 정신건강의학과",
        "distance": "122"
      },
      {
        "name": "연세스카이치과의원",
        "latitude": 37.5792313825151,
        "longitude": 127.045213548444,
        "address": "서울 동대문구 전농동 620-47",
        "road_address": "서울 동대문구 답십리로 27",
        "phone": "02-6954-2875",
        "category": "의료,건강 > 병원 > 치과",
        "distance": "123"
      },
      {
        "name": "항세상외과의원",
        "latitude": 37.58086865317086,
        "longitude": 127.04478093726486,
        "address": "서울 동대문구 청량리동 743-1",
        "road_address": "서울 동대문구 홍릉로 5-1",
        "phone": "02-960-8090",
        "category": "의료,건강 > 병원 > 외과",
        "distance": "123"
      },
      {
        "name": "청량리손한의원",
        "latitude": 37.5808245229475,
        "longitude": 127.04473222978,
        "address": "서울 동대문구 청량리동 743-2",
        "road_address": "서울 동대문구 홍릉로 5",
        "phone": "02-6952-8276",
        "category": "의료,건강 > 병원 > 한의원",
        "distance": "124"
      }
    ]
  }
}