{
  "key": "80de1cb35e59b7c432224f8c2fec6e630744720916253a435d798b0add008b24",
  "tool": "PlaceSearch_kakao",
  "created_at": "2025-10-21T05:31:15.642465",
  "input_params": {
    "keyword": "청량리역 대학교",
    "size": 10,
    "sort": "accuracy"
  },
  "raw_args": {
    "keyword": "청량리역 대학교",
    "size": 10
  },
  "data": {
    "keyword": "청량리역 대학교",
    "total_count": 1006,
    "places": [
      {
        "name": "서울시립대학교",
        "latitude": 37.584828300773886,
        "longitude": 127.05773316246166,
        "address": "서울 동대문구 전농동 694",
        "road_address": "서울 동대문구 서울시립대로 163",
        "phone": "02-6490-6114",
        "category": "교육,학문 > 학교 > 대학교",
        "distance": ""
      },
      {
        "name": "고려대학교 서울캠퍼스",
        "latitude": 37.589526761187834,
        "longitude": 127.03231892661324,
        "address": "서울 성북구 안암동5가 1-2",
        "road_address": "서울 성북구 안암로 145",
        "phone": "02-3290-1114",
        "category": "교육,학문 > 학교 > 대학교",
        "distance": ""
      },
      {
        "name": "KAIST 서울캠퍼스",
        "latitude": 37.5926754214934,
        "longitude": 127.04669593138594,
        "address": "서울 동대문구 청량리동 207-43",
        "road_address": "서울 동대문구 회기로 85",
        "phone": "",
        "category": "교육,학문 > 학교 > 대학교",
        "distance": ""
      },
      {
        "name": "경희대학교 서울캠퍼스",
        "latitude": 37.5971656623384,
        "longitude": 127.05173889409078,
        "address": "서울 동대문구 회기동 1-5",
        "road_address": "서울 동대문구 경희대로 26",
        "phone": "02-961-0114",
        "category": "교육,학문 > 학교 > 대학교",
        "distance": ""
      },
      {
        "name": "한국외국어대학교 서울캠퍼스",
        "latitude": 37.5975430443335,
        "longitude": 127.05784829549488,
        "address": "서울 동대문구 이문동 270-1",
        "road_address": "서울 동대문구 이문로 107",
        "phone": "02-2173-2114",
        "category": "교육,학문 > 학교 > 대학교",
        "distance": ""
      },
      {
        "name": "한양대학교 서울캠퍼스",
        "latitude": 37.5566436823703,
        "longitude": 127.04452650526459,
        "address": "서울 성동구 사근동 110",
        "road_address": "서울 성동구 왕십리로 222",
        "phone": "02-2220-0114",
        "category": "교육,학문 > 학교 > 대학교",
        "distance": ""
      },
      {
        "name": "성신여자대학교 돈암수정캠퍼스",
        "latitude": 37.5916680669509,
        "longitude": 127.022129316251,
        "address": "서울 성북구 돈암동 173-1",
        "road_address": "서울 성북구 보문로34다길 2",
        "phone": "02-920-7114",
        "category": "교육,학문 > 학교 > 대학교",
        "distance": ""
      },
      {
        "name": "한양여자대학교",
        "latitude": 37.558968112905,
        "longitude": 127.049413811776,
        "address": "서울 성동구 사근동 110",
        "road_address": "서울 성동구 살곶이길 200",
        "phone": "02-2290-2114",
        "category": "교육,학문 > 학교 > 대학교",
        "distance": ""
      },
      {
        "name": "서울장로회신학",
        "latitude": 37.5747437255258,
        "longitude": 127.022561269005,
        "address": "서울 종로구 숭인동 1370",
        "road_address": "",
        "phone": "02-2238-6305",
        "category": "교육,학문 > 학교 > 대학교",
        "distance": ""
      },
      {
        "name": "서울시립대학교 정문",
        "latitude": 37.5834771622868,
        "longitude": 127.055113438416,
        "address": "서울 동대문구 전농동 694",
        "road_address": "서울 동대문구 서울시립대로 163",
        "phone": "",
        "category": "교통,수송 > 입출구",
        "distance": ""
      }
    ]
  }
}