{
  "key": "3c95b6dcc1e7fb61cca0f2a08ca6aff55b6b548b1e39f8b21ac30059e727806f",
  "tool": "PlaceSearch_kakao",
  "created_at": "2025-12-14T15:33:43.485634",
  "input_params": {
    "keyword": "카페",
    "radius": 1000,
    "sort": "accuracy",
    "x": 127.0431,
    "y": 37.5152
  },
  "raw_args": {
    "x": 127.0431,
    "y": 37.5152,
    "keyword": "카페",
    "radius": 1000
  },
  "data": {
    "keyword": "카페",
    "total_count": 348,
    "places": [
      {
        "name": "아우어베이커리 싸이더스점",
        "latitude": 37.5126449051468,
        "longitude": 127.042646502349,
        "address": "서울 강남구 논현동 267-20",
        "road_address": "서울 강남구 선릉로 629",
        "phone": "02-546-8481",
        "category": "음식점 > 카페 > 테마카페 > 디저트카페",
        "distance": "286"
      },
      {
        "name": "투썸플레이스 강남구청역점",
        "latitude": 37.51697437233935,
        "longitude": 127.03964688796871,
        "address": "서울 강남구 논현동 118-15",
        "road_address": "서울 강남구 학동로 335",
        "phone": "02-511-0456",
        "category": "음식점 > 카페 > 커피전문점 > 투썸플레이스",
        "distance": "363"
      },
      {
        "name": "스타벅스 강남구청역점",
        "latitude": 37.5167215373803,
        "longitude": 127.041264296462,
        "address": "서울 강남구 논현동 241-7",
        "road_address": "서울 강남구 선릉로 669",
        "phone": "1522-3232",
        "category": "음식점 > 카페 > 커피전문점 > 스타벅스",
        "distance": "234"
      },
      {
        "name": "폴바셋 강남구청역점",
        "latitude": 37.5175070995655,
        "longitude": 127.041585978542,
        "address": "서울 강남구 청담동 41-2",
        "road_address": "서울 강남구 학동로 401",
        "phone": "02-548-1910",
        "category": "음식점 > 카페 > 커피전문점 > 폴바셋",
        "distance": "288"
      },
      {
        "name": "마츄피츄",
        "latitude": 37.5136906496214,
        "longitude": 127.041009260699,
        "address": "서울 강남구 논현동 254-22",
        "road_address": "서울 강남구 선릉로121길 15",
        "phone": "02-511-4242",
        "category": "음식점 > 카페 > 테마카페 > 디저트카페",
        "distance": "249"
      },
      {
        "name": "맷카페",
        "latitude": 37.5138962129356,
        "longitude": 127.040620272785,
        "address": "서울 강남구 논현동 255-5",
        "road_address": "서울 강남구 학동로50길 42",
        "phone": "070-7599-2212",
        "category": "음식점 > 카페",
        "distance": "262"
      },
      {
        "name": "로칼커피 청담점",
        "latitude": 37.518155831397,
        "longitude": 127.04155919047,
        "address": "서울 강남구 청담동 40-23",
        "road_address": "서울 강남구 선릉로132길 5",
        "phone": "02-517-1015",
        "category": "음식점 > 카페 > 커피전문점",
        "distance": "355"
      },
      {
        "name": "힙카롱",
        "latitude": 37.51642999123074,
        "longitude": 127.04273236087164,
        "address": "서울 강남구 삼성동 7-3",
        "road_address": "서울 강남구 선릉로130길 20",
        "phone": "0503-5260-9096",
        "category": "음식점 > 카페 > 테마카페 > 디저트카페",
        "distance": "140"
      },
      {
        "name": "메가라운지",
        "latitude": 37.5154134078558,
        "longitude": 127.040897090501,
        "address": "서울 강남구 논현동 242-40",
        "road_address": "서울 강남구 선릉로127길 11",
        "phone": "070-4155-0646",
        "category": "음식점 > 카페",
        "distance": "196"
      },
      {
        "name": "구테로이테",
        "latitude": 37.5176951806406,
        "longitude": 127.039630301871,
        "address": "서울 강남구 논현동 112-19",
        "road_address": "서울 강남구 선릉로131길 16",
        "phone": "02-518-1117",
        "category": "음식점 > 카페 > 커피전문점",
        "distance": "413"
      },
      {
        "name": "스위츠플래닛",
        "latitude": 37.5172232310019,
        "longitude": 127.039101802433,
        "address": "서울 강남구 논현동 118-1",
        "road_address": "서울 강남구 선릉로131길 23",
        "phone": "",
        "category": "음식점 > 카페 > 테마카페 > 디저트카페",
        "distance": "418"
      },
      {
        "name": "데쎄르룸",
        "latitude": 37.510940254366,
        "longitude": 127.042509805126,
        "address": "서울 강남구 논현동 269-16",
        "road_address": "서울 강남구 봉은사로51길 13",
        "phone": "010-5005-6190",
        "category": "음식점 > 카페 > 테마카페 > 디저트카페",
        "distance": "475"
      },
      {
        "name": "전설의강아지",
        "latitude": 37.5120111255803,
        "longitude": 127.041159906126,
        "address": "서울 강남구 논현동 265-23",
        "road_address": "서울 강남구 선릉로115길 22",
        "phone": "010-5773-0515",
        "category": "음식점 > 카페 > 테마카페 > 애견카페",
        "distance": "393"
      },
      {
        "name": "지유명차 청담점",
        "latitude": 37.5166889311328,
        "longitude": 127.041748409823,
        "address": "서울 강남구 삼성동 1-4",
        "road_address": "서울 강남구 선릉로 670",
        "phone": "02-517-5634",
        "category": "음식점 > 카페 > 전통찻집",
        "distance": "203"
      },
      {
        "name": "앙꼬",
        "latitude": 37.5151856735114,
        "longitude": 127.04281987914,
        "address": "서울 강남구 삼성동 9-6",
        "road_address": "서울 강남구 학동로56길 32",
        "phone": "02-512-9877",
        "category": "음식점 > 카페 > 테마카페 > 디저트카페",
        "distance": "24"
      }
    ]
  }
}