{
  "key": "9c2e1b888a6961fd87ff13b30162e1793ed00cca85de3fd5aed8fc633aea5a04",
  "tool": "PlaceSearch_kakao",
  "created_at": "2025-10-21T00:11:46.373778",
  "input_params": {
    "keyword": "대학교",
    "radius": 1000,
    "sort": "distance",
    "x": 126.9733,
    "y": 37.5655
  },
  "raw_args": {
    "keyword": "대학교",
    "x": 126.9733,
    "y": 37.5655,
    "radius": 1000,
    "sort": "distance"
  },
  "data": {
    "keyword": "대학교",
    "total_count": 65,
    "places": [
      {
        "name": "NH농협은행 광화문금융센터",
        "latitude": 37.567419617504925,
        "longitude": 126.97787333160278,
        "address": "서울 중구 태평로1가 25",
        "road_address": "서울 중구 세종대로 124",
        "phone": "02-730-5391",
        "category": "금융,보험 > 금융서비스 > 은행 > NH농협은행",
        "distance": "456"
      },
      {
        "name": "동경국제대학부속일본어학교 한국사무소",
        "latitude": 37.5704724682584,
        "longitude": 126.974766327868,
        "address": "서울 종로구 신문로1가 24",
        "road_address": "서울 종로구 새문안로 91",
        "phone": "02-732-8101",
        "category": "서비스,산업 > 전문대행 > 유학,어학연수",
        "distance": "567"
      },
      {
        "name": "미국남태평양대학교 한국사무소",
        "latitude": 37.5659112278402,
        "longitude": 126.965988913452,
        "address": "서울 서대문구 충정로2가 8-2",
        "road_address": "서울 서대문구 통일로 127",
        "phone": "02-365-1493",
        "category": "서비스,산업 > 여행사",
        "distance": "647"
      },
      {
        "name": "중앙대학교 평동캠퍼스입구",
        "latitude": 37.5673997572719,
        "longitude": 126.966282534397,
        "address": "서울 종로구 평동 85-15",
        "road_address": "서울 종로구 경교장길 8",
        "phone": "",
        "category": "교통,수송 > 입출구",
        "distance": "654"
      },
      {
        "name": "중앙대학교 평동캠퍼스",
        "latitude": 37.5674249825638,
        "longitude": 126.966273467709,
        "address": "서울 종로구 평동 85-15",
        "road_address": "서울 종로구 경교장길 8",
        "phone": "",
        "category": "교육,학문 > 교육단체 > 평생교육원,사회교육원",
        "distance": "656"
      },
      {
        "name": "중앙대학교 평동캠퍼스구내서점",
        "latitude": 37.5674321866479,
        "longitude": 126.966259881482,
        "address": "서울 종로구 평동 85-15",
        "road_address": "서울 종로구 경교장길 8",
        "phone": "",
        "category": "교육,학문 > 학교부속시설",
        "distance": "658"
      },
      {
        "name": "연세대학교 봉래빌딩",
        "latitude": 37.5594726945582,
        "longitude": 126.972904840635,
        "address": "서울 중구 봉래동1가 48-3",
        "road_address": "서울 중구 칠패로 36",
        "phone": "",
        "category": "부동산 > 빌딩",
        "distance": "669"
      },
      {
        "name": "신서대문대학약국",
        "latitude": 37.56750588477622,
        "longitude": 126.96562371147516,
        "address": "서울 종로구 교남동 8-2",
        "road_address": "서울 종로구 경교장1길 1",
        "phone": "02-730-0737",
        "category": "의료,건강 > 약국",
        "distance": "713"
      },
      {
        "name": "서울대학교사범대학동창회",
        "latitude": 37.5629484990248,
        "longitude": 126.965121001864,
        "address": "서울 서대문구 충정로3가 222",
        "road_address": "서울 서대문구 충정로 50",
        "phone": "02-720-8116",
        "category": "가정,생활 > 친목 > 동창회,동문회",
        "distance": "776"
      },
      {
        "name": "영진사이버대학교 서울캠퍼스",
        "latitude": 37.568260911363076,
        "longitude": 126.98176238532989,
        "address": "서울 중구 다동 70",
        "road_address": "서울 중구 다동길 43",
        "phone": "02-779-5900",
        "category": "교육,학문 > 학교 > 사이버대학",
        "distance": "807"
      },
      {
        "name": "한국관광공사 서울센터",
        "latitude": 37.56852758535707,
        "longitude": 126.98162875239895,
        "address": "서울 중구 다동 10",
        "road_address": "서울 중구 청계천로 40",
        "phone": "02-729-9474",
        "category": "사회,공공기관 > 공사,공단 > 한국관광공사",
        "distance": "809"
      },
      {
        "name": "경기대학교 서울하우스실습동",
        "latitude": 37.564083509351,
        "longitude": 126.964301003049,
        "address": "서울 서대문구 충정로2가 182-18",
        "road_address": "서울 서대문구 충정로9길 21",
        "phone": "",
        "category": "교육,학문 > 학교부속시설",
        "distance": "810"
      },
      {
        "name": "서울시민대학 중부권캠퍼스",
        "latitude": 37.57021805419624,
        "longitude": 126.96622240219813,
        "address": "서울 종로구 송월동 1-1",
        "road_address": "서울 종로구 송월길 52",
        "phone": "02-739-2751",
        "category": "교육,학문 > 교육단체 > 평생교육원,사회교육원",
        "distance": "815"
      },
      {
        "name": "한국전문대학교육협의회",
        "latitude": 37.5604044033997,
        "longitude": 126.966217778491,
        "address": "서울 중구 중림동 500",
        "road_address": "서울 중구 서소문로 38",
        "phone": "02-3145-1200",
        "category": "사회,공공기관 > 단체,협회",
        "distance": "843"
      },
      {
        "name": "전국대학노동조합",
        "latitude": 37.5642868582602,
        "longitude": 126.963398807824,
        "address": "서울 서대문구 충정로2가 69-18",
        "road_address": "서울 서대문구 경기대로 57",
        "phone": "02-765-6291",
        "category": "사회,공공기관 > 단체,협회 > 노동조합",
        "distance": "885"
      }
    ]
  }
}