{
  "key": "9c6b82830b3cd86b4152fb9664e8497f284d4499711498b3fe3339602147e597",
  "tool": "PlaceSearch_kakao",
  "created_at": "2025-10-27T02:16:56.712264",
  "input_params": {
    "keyword": "주차장",
    "radius": 1000,
    "sort": "accuracy",
    "x": 127.05,
    "y": 37.3928
  },
  "raw_args": {
    "keyword": "주차장",
    "x": 127.05,
    "y": 37.3928,
    "radius": 1000,
    "sort": "accuracy"
  },
  "data": {
    "keyword": "주차장",
    "total_count": 7,
    "places": [
      {
        "name": "카페랄로판교점 주차장",
        "latitude": 37.3937390194822,
        "longitude": 127.047561507294,
        "address": "경기 성남시 분당구 운중동 552",
        "road_address": "경기 성남시 분당구 하오개로 246",
        "phone": "",
        "category": "교통,수송 > 교통시설 > 주차장",
        "distance": "239"
      },
      {
        "name": "운중농원갈비 주차장",
        "latitude": 37.394177854042,
        "longitude": 127.045169917959,
        "address": "경기 성남시 분당구 운중동 559-7",
        "road_address": "",
        "phone": "",
        "category": "교통,수송 > 교통시설 > 주차장",
        "distance": "454"
      },
      {
        "name": "장모밥상 주차장",
        "latitude": 37.3907638418391,
        "longitude": 127.057687898712,
        "address": "경기 성남시 분당구 운중동 41-2",
        "road_address": "",
        "phone": "",
        "category": "교통,수송 > 교통시설 > 주차장",
        "distance": "717"
      },
      {
        "name": "정선한우 주차장",
        "latitude": 37.3916156537583,
        "longitude": 127.058815558768,
        "address": "경기 성남시 분당구 운중동 349-5",
        "road_address": "경기 성남시 분당구 하오개로 357",
        "phone": "",
        "category": "교통,수송 > 교통시설 > 주차장",
        "distance": "791"
      },
      {
        "name": "채운 주차장",
        "latitude": 37.3910973146982,
        "longitude": 127.057493921855,
        "address": "경기 성남시 분당구 운중동 41",
        "road_address": "",
        "phone": "",
        "category": "교통,수송 > 교통시설 > 주차장",
        "distance": "689"
      },
      {
        "name": "양과창양평해장국 본점 주차장",
        "latitude": 37.3919815872901,
        "longitude": 127.060368592752,
        "address": "경기 성남시 분당구 운중동 324-3",
        "road_address": "",
        "phone": "",
        "category": "교통,수송 > 교통시설 > 주차장",
        "distance": "922"
      },
      {
        "name": "능이향기",
        "latitude": 37.3917185890784,
        "longitude": 127.058374095637,
        "address": "경기 성남시 분당구 운중동 349-2",
        "road_address": "경기 성남시 분당구 하오개로 353",
        "phone": "031-8017-9092",
        "category": "음식점 > 한식 > 육류,고기 > 닭요리",
        "distance": "751"
      }
    ]
  }
}