{
  "key": "743580cc4fe34890cd85fd7669b0af8ff23c50c9dcc0eb5f64fcec58b81d2204",
  "tool": "PlaceSearch_kakao",
  "created_at": "2025-12-14T15:49:50.595742",
  "input_params": {
    "keyword": "남양주 맛집",
    "radius": 1000,
    "size": 15,
    "sort": "distance",
    "x": 127.216475764948,
    "y": 37.6360236390492
  },
  "raw_args": {
    "keyword": "남양주 맛집",
    "x": 127.216475764948,
    "y": 37.6360236390492,
    "radius": 1000,
    "sort": "distance",
    "size": 15
  },
  "data": {
    "keyword": "남양주 맛집",
    "total_count": 112,
    "places": [
      {
        "name": "뜨란",
        "latitude": 37.6358722995465,
        "longitude": 127.216461730489,
        "address": "경기 남양주시 금곡동 185-10",
        "road_address": "경기 남양주시 경춘로 1037",
        "phone": "031-592-7150",
        "category": "음식점 > 카페 > 커피전문점",
        "distance": "16"
      },
      {
        "name": "매머드익스프레스 남양주시청제1청사점",
        "latitude": 37.6364148527216,
        "longitude": 127.215882096747,
        "address": "경기 남양주시 금곡동 203-31",
        "road_address": "경기 남양주시 경춘로양골1길 13",
        "phone": "",
        "category": "음식점 > 카페 > 커피전문점 > 매머드익스프레스",
        "distance": "67"
      },
      {
        "name": "티롤",
        "latitude": 37.6364096913831,
        "longitude": 127.215748392725,
        "address": "경기 남양주시 금곡동 203-32",
        "road_address": "경기 남양주시 경춘로양골1길 11",
        "phone": "",
        "category": "음식점 > 카페",
        "distance": "77"
      },
      {
        "name": "풀문",
        "latitude": 37.6361732018748,
        "longitude": 127.215491661151,
        "address": "경기 남양주시 금곡동 185-41",
        "road_address": "경기 남양주시 경춘로양골1길 10",
        "phone": "070-7543-3894",
        "category": "음식점 > 카페",
        "distance": "88"
      },
      {
        "name": "달리는커피 남양주금곡점",
        "latitude": 37.6370749815033,
        "longitude": 127.216533197623,
        "address": "경기 남양주시 금곡동 204-2",
        "road_address": "경기 남양주시 경춘로양골1길 9-27",
        "phone": "031-559-5202",
        "category": "음식점 > 카페",
        "distance": "116"
      },
      {
        "name": "태능배갈비",
        "latitude": 37.6353160633072,
        "longitude": 127.215164031511,
        "address": "경기 남양주시 금곡동 185-18",
        "road_address": "경기 남양주시 경춘로 1023",
        "phone": "031-559-8588",
        "category": "음식점 > 한식 > 육류,고기 > 갈비",
        "distance": "139"
      },
      {
        "name": "원조공릉동멸치국수 금곡점",
        "latitude": 37.6355299650025,
        "longitude": 127.214466754158,
        "address": "경기 남양주시 금곡동 185-69",
        "road_address": "경기 남양주시 경춘로1015번길 8",
        "phone": "031-594-2901",
        "category": "음식점 > 한식 > 국수",
        "distance": "185"
      },
      {
        "name": "승희네집밥",
        "latitude": 37.6362547144146,
        "longitude": 127.21426943699,
        "address": "경기 남양주시 금곡동 166-1",
        "road_address": "경기 남양주시 경춘로1015번길 13",
        "phone": "",
        "category": "음식점 > 한식",
        "distance": "196"
      },
      {
        "name": "짬뽕의달인",
        "latitude": 37.6353611201127,
        "longitude": 127.214169437937,
        "address": "경기 남양주시 금곡동 158-104",
        "road_address": "경기 남양주시 경춘로1015번길 5-1",
        "phone": "031-558-8228",
        "category": "음식점 > 중식 > 중국요리",
        "distance": "216"
      },
      {
        "name": "오가네아구찜",
        "latitude": 37.6359886906951,
        "longitude": 127.213901596625,
        "address": "경기 남양주시 금곡동 158-1",
        "road_address": "경기 남양주시 사릉로34번길 48",
        "phone": "031-591-5501",
        "category": "음식점 > 한식 > 해물,생선 > 아구",
        "distance": "227"
      },
      {
        "name": "나능이 금곡점",
        "latitude": 37.6353181485961,
        "longitude": 127.214017500397,
        "address": "경기 남양주시 금곡동 158-66",
        "road_address": "경기 남양주시 경춘로1015번길 3",
        "phone": "031-593-2881",
        "category": "음식점 > 한식 > 육류,고기 > 닭요리",
        "distance": "230"
      },
      {
        "name": "신세계",
        "latitude": 37.6359743900362,
        "longitude": 127.213838110329,
        "address": "경기 남양주시 금곡동 158-1",
        "road_address": "경기 남양주시 사릉로34번길 48",
        "phone": "031-511-5353",
        "category": "음식점",
        "distance": "232"
      },
      {
        "name": "자매의정부부대찌개",
        "latitude": 37.63600420652304,
        "longitude": 127.21379174473508,
        "address": "경기 남양주시 금곡동 158-1",
        "road_address": "경기 남양주시 사릉로34번길 48",
        "phone": "031-593-1195",
        "category": "음식점 > 한식 > 찌개,전골",
        "distance": "236"
      },
      {
        "name": "주막식당",
        "latitude": 37.6363308984204,
        "longitude": 127.213495845983,
        "address": "경기 남양주시 금곡동 164-7",
        "road_address": "경기 남양주시 사릉로34번길 41-4",
        "phone": "",
        "category": "음식점 > 한식",
        "distance": "265"
      },
      {
        "name": "디디커피 금곡점",
        "latitude": 37.6361359002028,
        "longitude": 127.213210916526,
        "address": "경기 남양주시 금곡동 158-28",
        "road_address": "경기 남양주시 사릉로34번길 44",
        "phone": "1588-7473",
        "category": "음식점 > 카페 > 테마카페 > 무인카페",
        "distance": "288"
      }
    ]
  }
}