{
  "key": "4f7ba65f3797c7820b87adaa044f4a7dbfaa48dcf00fe3ab0ff8fa72ee9e4cae",
  "tool": "PlaceSearch_kakao",
  "created_at": "2025-12-19T06:22:40.704329",
  "input_params": {
    "keyword": "남양주 맛집",
    "radius": 1000,
    "sort": "accuracy"
  },
  "raw_args": {
    "keyword": "남양주 맛집",
    "radius": 1000
  },
  "data": {
    "keyword": "남양주 맛집",
    "total_count": 8852,
    "places": [
      {
        "name": "장어의꿈",
        "latitude": 37.669524117952726,
        "longitude": 127.1186736231229,
        "address": "경기 남양주시 별내동 2184-63",
        "road_address": "경기 남양주시 순화궁로 492-6",
        "phone": "031-574-1254",
        "category": "음식점 > 한식 > 해물,생선 > 장어",
        "distance": ""
      },
      {
        "name": "카페대너리스 북한강지점",
        "latitude": 37.597502696792354,
        "longitude": 127.3390537905512,
        "address": "경기 남양주시 조안면 삼봉리 200-18",
        "road_address": "경기 남양주시 조안면 북한강로 914",
        "phone": "031-521-9700",
        "category": "음식점 > 카페",
        "distance": ""
      },
      {
        "name": "팔당초계국수 본점",
        "latitude": 37.5411054350825,
        "longitude": 127.254717785927,
        "address": "경기 남양주시 와부읍 팔당리 80-11",
        "road_address": "경기 남양주시 와부읍 다산로 43",
        "phone": "031-576-0330",
        "category": "음식점 > 한식 > 국수",
        "distance": ""
      },
      {
        "name": "진미오리숯불구이",
        "latitude": 37.614001159292265,
        "longitude": 127.21680039726854,
        "address": "경기 남양주시 와부읍 율석리 452-1",
        "road_address": "경기 남양주시 와부읍 석실로율석길 58",
        "phone": "031-577-5292",
        "category": "음식점 > 한식 > 육류,고기 > 오리",
        "distance": ""
      },
      {
        "name": "베이커리씨어터",
        "latitude": 37.6734388513583,
        "longitude": 127.376025228359,
        "address": "경기 남양주시 화도읍 구암리 6-8",
        "road_address": "경기 남양주시 화도읍 경춘로2696번길 4-15",
        "phone": "031-559-7488",
        "category": "음식점 > 카페",
        "distance": ""
      },
      {
        "name": "초대한정식",
        "latitude": 37.58558631871821,
        "longitude": 127.1715493201429,
        "address": "경기 남양주시 수석동 183",
        "road_address": "경기 남양주시 강변북로632번길 6-45",
        "phone": "031-555-7318",
        "category": "음식점 > 한식 > 한정식",
        "distance": ""
      },
      {
        "name": "위켄드바베큐 남양주다산본점",
        "latitude": 37.6069636805025,
        "longitude": 127.160325375456,
        "address": "경기 남양주시 다산동 4113-6",
        "road_address": "경기 남양주시 경춘로 416-1",
        "phone": "",
        "category": "음식점 > 한식 > 육류,고기",
        "distance": ""
      },
      {
        "name": "뚜레한우",
        "latitude": 37.6546363519285,
        "longitude": 127.280525810819,
        "address": "경기 남양주시 화도읍 묵현리 372-27",
        "road_address": "경기 남양주시 화도읍 마치로 315",
        "phone": "031-593-8980",
        "category": "음식점 > 한식 > 육류,고기",
        "distance": ""
      },
      {
        "name": "어나더쥬얼리",
        "latitude": 37.5869753472496,
        "longitude": 127.17421546445269,
        "address": "경기 남양주시 수석동 141",
        "road_address": "경기 남양주시 강변북로632번길 41-16",
        "phone": "031-552-0701",
        "category": "음식점 > 카페",
        "distance": ""
      },
      {
        "name": "이구동성로스터리카페",
        "latitude": 37.6684615267733,
        "longitude": 127.110678863494,
        "address": "경기 남양주시 별내동 2190-16",
        "road_address": "경기 남양주시 덕송3로 45-71",
        "phone": "031-529-6573",
        "category": "음식점 > 카페",
        "distance": ""
      },
      {
        "name": "북한강막국수닭갈비",
        "latitude": 37.5971803427516,
        "longitude": 127.338984386232,
        "address": "경기 남양주시 조안면 삼봉리 193-2",
        "road_address": "경기 남양주시 조안면 북한강로 908",
        "phone": "0507-1416-4201",
        "category": "음식점 > 한식 > 육류,고기 > 닭요리",
        "distance": ""
      },
      {
        "name": "일호갈비탕",
        "latitude": 37.6651279668075,
        "longitude": 127.292148569752,
        "address": "경기 남양주시 화도읍 묵현리 187-1",
        "road_address": "경기 남양주시 화도읍 묵현로 105-1",
        "phone": "031-511-4747",
        "category": "음식점 > 한식 > 육류,고기 > 갈비",
        "distance": ""
      },
      {
        "name": "비루개",
        "latitude": 37.7372813422638,
        "longitude": 127.125311853172,
        "address": "경기 남양주시 별내면 용암리 227",
        "road_address": "경기 남양주시 별내면 용암비루개길 219-88",
        "phone": "031-841-0006",
        "category": "음식점 > 카페 > 테마카페",
        "distance": ""
      },
      {
        "name": "모밥",
        "latitude": 37.64201090628008,
        "longitude": 127.35719993124324,
        "address": "경기 남양주시 화도읍 금남리 435-5",
        "road_address": "경기 남양주시 화도읍 북한강로1461번길 17-8",
        "phone": "031-511-9006",
        "category": "음식점 > 한식 > 한정식",
        "distance": ""
      },
      {
        "name": "더늘봄",
        "latitude": 37.74988017100171,
        "longitude": 127.20778399018778,
        "address": "경기 남양주시 진접읍 팔야리 733-1",
        "road_address": "경기 남양주시 진접읍 금강로 1845",
        "phone": "031-572-4447",
        "category": "음식점 > 한식 > 육류,고기 > 갈비",
        "distance": ""
      }
    ]
  }
}