{
  "key": "3e3310cd0de40bf31b4f72a8859988461b04a70d0bea7f83439e06b544b94260",
  "tool": "CategorySearch_kakao",
  "created_at": "2025-12-19T02:49:10.152496",
  "input_params": {
    "category": "CS2",
    "radius": 800,
    "size": 15,
    "x": 129.1584,
    "y": 35.1581
  },
  "raw_args": {
    "category": "CS2",
    "x": 129.1584,
    "y": 35.1581,
    "radius": 800
  },
  "data": {
    "category": "CS2",
    "total_count": 54,
    "places": [
      {
        "name": "CU 해운대비치점",
        "latitude": 35.1617881738564,
        "longitude": 129.158685668102,
        "address": "부산 해운대구 우동 541-5",
        "phone": "",
        "distance": "410"
      },
      {
        "name": "GS25 해운후레쉬점",
        "latitude": 35.1618944853227,
        "longitude": 129.160000889552,
        "address": "부산 해운대구 우동 542-5",
        "phone": "",
        "distance": "445"
      },
      {
        "name": "GS25 해운대패러그라프점",
        "latitude": 35.1601075298495,
        "longitude": 129.156865796596,
        "address": "부산 해운대구 우동 645-6",
        "phone": "",
        "distance": "263"
      },
      {
        "name": "GS25 W타워점",
        "latitude": 35.1600359687021,
        "longitude": 129.161536247771,
        "address": "부산 해운대구 중동 1391-66",
        "phone": "",
        "distance": "357"
      },
      {
        "name": "세븐일레븐 해운대그랜드점",
        "latitude": 35.15978320975209,
        "longitude": 129.15635466530802,
        "address": "부산 해운대구 우동 648-21",
        "phone": "",
        "distance": "263"
      },
      {
        "name": "이마트24 해운대광수호텔점",
        "latitude": 35.1603261181805,
        "longitude": 129.15658407337102,
        "address": "부산 해운대구 우동 645-8",
        "phone": "02-6916-1500",
        "distance": "297"
      },
      {
        "name": "GS25 해운오션점",
        "latitude": 35.15928793772006,
        "longitude": 129.15430938966455,
        "address": "부산 해운대구 우동 653-2",
        "phone": "",
        "distance": "395"
      },
      {
        "name": "CU 해운대구남로점",
        "latitude": 35.1613824195383,
        "longitude": 129.161023222017,
        "address": "부산 해운대구 중동 1393-31",
        "phone": "",
        "distance": "435"
      },
      {
        "name": "GS25 해운대하운드점",
        "latitude": 35.1610271988761,
        "longitude": 129.156786936953,
        "address": "부산 해운대구 우동 637-9",
        "phone": "",
        "distance": "356"
      },
      {
        "name": "GS25 씨클라우드점",
        "latitude": 35.1605137391956,
        "longitude": 129.16243552318,
        "address": "부산 해운대구 중동 1392-100",
        "phone": "",
        "distance": "455"
      },
      {
        "name": "세븐일레븐 해운대나인점",
        "latitude": 35.15983530485442,
        "longitude": 129.15469362060708,
        "address": "부산 해운대구 우동 654-2",
        "phone": "1577-0711",
        "distance": "389"
      },
      {
        "name": "세븐일레븐 부산해운대L7점",
        "latitude": 35.1602314695756,
        "longitude": 129.160074317155,
        "address": "부산 해운대구 우동 626-2",
        "phone": "",
        "distance": "281"
      },
      {
        "name": "CU 해운대한양수자인점",
        "latitude": 35.1607007210081,
        "longitude": 129.156194541468,
        "address": "부산 해운대구 우동 643-1",
        "phone": "",
        "distance": "351"
      },
      {
        "name": "GS25 해운대역점",
        "latitude": 35.1623813795539,
        "longitude": 129.158165846693,
        "address": "부산 해운대구 우동 540-9",
        "phone": "",
        "distance": "475"
      },
      {
        "name": "이마트24 해운대신라스테이점",
        "latitude": 35.1598047174229,
        "longitude": 129.158738582111,
        "address": "부산 해운대구 우동 629-6",
        "phone": "070-4222-6875",
        "distance": "191"
      }
    ]
  }
}