{
  "key": "3ea3af4ced80cadfec1199b77a84c542b1092a18330e641819ba3ec4c90535d7",
  "tool": "CategorySearch_kakao",
  "created_at": "2025-10-21T05:34:50.238381",
  "input_params": {
    "category": "AD5",
    "radius": 5000,
    "size": 15,
    "x": 129.163596084009,
    "y": 35.1630666685464
  },
  "raw_args": {
    "category": "AD5",
    "x": 129.163596084009,
    "y": 35.1630666685464,
    "radius": 5000,
    "size": 15
  },
  "data": {
    "category": "AD5",
    "total_count": 640,
    "places": [
      {
        "name": "신라스테이 해운대",
        "latitude": 35.1597975116785,
        "longitude": 129.158738391647,
        "address": "부산 해운대구 우동 629-6",
        "phone": "051-912-9000",
        "distance": "572"
      },
      {
        "name": "페어필드 바이 메리어트 부산",
        "latitude": 35.16163861885415,
        "longitude": 129.16484212423947,
        "address": "부산 해운대구 중동 1400-60",
        "phone": "051-749-7777",
        "distance": "195"
      },
      {
        "name": "L7 해운대바이롯데",
        "latitude": 35.1602314695756,
        "longitude": 129.16007431715536,
        "address": "부산 해운대구 우동 626-2",
        "phone": "051-771-1000",
        "distance": "449"
      },
      {
        "name": "시그니엘 부산",
        "latitude": 35.160294214382716,
        "longitude": 129.16921767452897,
        "address": "부산 해운대구 중동 1829",
        "phone": "051-922-1000",
        "distance": "597"
      },
      {
        "name": "소노문 해운대",
        "latitude": 35.1599193599534,
        "longitude": 129.157969107907,
        "address": "부산 해운대구 우동 629-3",
        "phone": "1588-4888",
        "distance": "620"
      },
      {
        "name": "그랜드조선 부산",
        "latitude": 35.159927348115964,
        "longitude": 129.16317823554613,
        "address": "부산 해운대구 중동 1405-16",
        "phone": "051-922-5000",
        "distance": "350"
      },
      {
        "name": "파라다이스호텔부산",
        "latitude": 35.160221528629094,
        "longitude": 129.16527311134593,
        "address": "부산 해운대구 중동 1411-1",
        "phone": "051-742-2121",
        "distance": "350"
      },
      {
        "name": "베스트웨스턴 해운대호텔",
        "latitude": 35.1604571889363,
        "longitude": 129.161161141728,
        "address": "부산 해운대구 중동 1391-42",
        "phone": "051-664-1234",
        "distance": "364"
      },
      {
        "name": "라마다앙코르해운대호텔",
        "latitude": 35.16328036837444,
        "longitude": 129.15960080095712,
        "address": "부산 해운대구 우동 603-19",
        "phone": "051-610-3000",
        "distance": "364"
      },
      {
        "name": "코오롱씨클라우드호텔",
        "latitude": 35.16045049399147,
        "longitude": 129.16224291597956,
        "address": "부산 해운대구 중동 1392-100",
        "phone": "051-933-1000",
        "distance": "315"
      },
      {
        "name": "팔레드시즈",
        "latitude": 35.1602233060212,
        "longitude": 129.166584443581,
        "address": "부산 해운대구 중동 1124-2",
        "phone": "0507-1318-3068",
        "distance": "416"
      },
      {
        "name": "웨스틴조선 부산",
        "latitude": 35.1561074784552,
        "longitude": 129.154023608291,
        "address": "부산 해운대구 우동 737",
        "phone": "051-749-7000",
        "distance": "1165"
      },
      {
        "name": "플레아드블랑",
        "latitude": 35.16083057081181,
        "longitude": 129.166892440386,
        "address": "부산 해운대구 중동 1123",
        "phone": "051-742-2277",
        "distance": "389"
      },
      {
        "name": "해운대영무파라드호텔",
        "latitude": 35.160900079174354,
        "longitude": 129.16648279018403,
        "address": "부산 해운대구 중동 1124-8",
        "phone": "051-743-0003",
        "distance": "356"
      },
      {
        "name": "썬클라우드호텔",
        "latitude": 35.1604449721923,
        "longitude": 129.162249353667,
        "address": "부산 해운대구 중동 1392-100",
        "phone": "051-746-3700",
        "distance": "315"
      }
    ]
  }
}