{
  "key": "9401065396050900fc3b4bddb63aa3d4a034d9d7b8a05d1d09c80c32d39661f3",
  "tool": "PlaceSearch_kakao",
  "created_at": "2025-10-20T03:36:47.976182",
  "input_params": {
    "keyword": "디저트 카페",
    "size": 5,
    "sort": "distance",
    "x": 127.028,
    "y": 37.497
  },
  "raw_args": {
    "keyword": "디저트 카페",
    "x": 127.028,
    "y": 37.497,
    "size": 5,
    "sort": "distance"
  },
  "data": {
    "keyword": "디저트 카페",
    "total_count": 25341,
    "places": [
      {
        "name": "스타벅스 강남역신분당역사점",
        "latitude": 37.49701321401818,
        "longitude": 127.02810165133745,
        "address": "서울 강남구 역삼동 858",
        "road_address": "",
        "phone": "1522-3232",
        "category": "음식점 > 카페 > 커피전문점 > 스타벅스",
        "distance": "9"
      },
      {
        "name": "브릭샌드 강남역점",
        "latitude": 37.49687174334512,
        "longitude": 127.02815474822921,
        "address": "서울 강남구 역삼동 858",
        "road_address": "",
        "phone": "070-8871-9673",
        "category": "음식점 > 간식 > 제과,베이커리",
        "distance": "19"
      },
      {
        "name": "레이지레이디 케이크",
        "latitude": 37.497630184743244,
        "longitude": 127.02900657088206,
        "address": "서울 강남구 역삼동 825-20",
        "road_address": "서울 강남구 테헤란로4길 6",
        "phone": "02-554-8222",
        "category": "음식점 > 카페 > 테마카페 > 디저트카페",
        "distance": "113"
      },
      {
        "name": "비유어거트",
        "latitude": 37.4977274262053,
        "longitude": 127.029279146213,
        "address": "서울 강남구 역삼동 825-20",
        "road_address": "서울 강남구 테헤란로4길 6",
        "phone": "0503-5260-5027",
        "category": "음식점 > 카페 > 테마카페 > 디저트카페",
        "distance": "139"
      },
      {
        "name": "디저트39 강남 테헤란로점",
        "latitude": 37.4977283224454,
        "longitude": 127.029298371216,
        "address": "서울 강남구 역삼동 825-20",
        "road_address": "서울 강남구 테헤란로4길 6",
        "phone": "02-555-0390",
        "category": "음식점 > 카페 > 테마카페 > 디저트카페 > 디저트39",
        "distance": "140"
      }
    ]
  }
}