{
  "key": "94a3de12e39280ecce9fb5e6225d29d29ac94bc0657c1348b0891cc0e01127f3",
  "tool": "PlaceSearch_kakao",
  "created_at": "2025-12-14T15:33:47.554018",
  "input_params": {
    "keyword": "디저트 카페",
    "radius": 1000,
    "sort": "accuracy",
    "x": 127.0431,
    "y": 37.5152
  },
  "raw_args": {
    "x": 127.0431,
    "y": 37.5152,
    "keyword": "디저트 카페",
    "radius": 1000
  },
  "data": {
    "keyword": "디저트 카페",
    "total_count": 67,
    "places": [
      {
        "name": "앙꼬",
        "latitude": 37.5151856735114,
        "longitude": 127.04281987914,
        "address": "서울 강남구 삼성동 9-6",
        "road_address": "서울 강남구 학동로56길 32",
        "phone": "02-512-9877",
        "category": "음식점 > 카페 > 테마카페 > 디저트카페",
        "distance": "24"
      },
      {
        "name": "아우어베이커리 싸이더스점",
        "latitude": 37.5126449051468,
        "longitude": 127.042646502349,
        "address": "서울 강남구 논현동 267-20",
        "road_address": "서울 강남구 선릉로 629",
        "phone": "02-546-8481",
        "category": "음식점 > 카페 > 테마카페 > 디저트카페",
        "distance": "286"
      },
      {
        "name": "데쎄르룸",
        "latitude": 37.510940254366,
        "longitude": 127.042509805126,
        "address": "서울 강남구 논현동 269-16",
        "road_address": "서울 강남구 봉은사로51길 13",
        "phone": "010-5005-6190",
        "category": "음식점 > 카페 > 테마카페 > 디저트카페",
        "distance": "475"
      },
      {
        "name": "트리아농",
        "latitude": 37.5203171345118,
        "longitude": 127.044587487588,
        "address": "서울 강남구 청담동 26-5",
        "road_address": "서울 강남구 학동로59길 43",
        "phone": "070-8129-5955",
        "category": "음식점 > 카페 > 테마카페 > 디저트카페",
        "distance": "582"
      },
      {
        "name": "칠요일의케이크",
        "latitude": 37.5185734751905,
        "longitude": 127.04516221884126,
        "address": "서울 강남구 청담동 44-17",
        "road_address": "서울 강남구 선릉로132길 50",
        "phone": "010-8876-6966",
        "category": "음식점 > 카페 > 테마카페 > 디저트카페",
        "distance": "416"
      },
      {
        "name": "스위츠플래닛",
        "latitude": 37.5172232310019,
        "longitude": 127.039101802433,
        "address": "서울 강남구 논현동 118-1",
        "road_address": "서울 강남구 선릉로131길 23",
        "phone": "",
        "category": "음식점 > 카페 > 테마카페 > 디저트카페",
        "distance": "418"
      },
      {
        "name": "마츄피츄",
        "latitude": 37.5136906496214,
        "longitude": 127.041009260699,
        "address": "서울 강남구 논현동 254-22",
        "road_address": "서울 강남구 선릉로121길 15",
        "phone": "02-511-4242",
        "category": "음식점 > 카페 > 테마카페 > 디저트카페",
        "distance": "249"
      },
      {
        "name": "에스티디페",
        "latitude": 37.5201765592459,
        "longitude": 127.039582972583,
        "address": "서울 강남구 논현동 102-17",
        "road_address": "서울 강남구 선릉로141길 5",
        "phone": "",
        "category": "음식점 > 카페 > 테마카페 > 디저트카페",
        "distance": "634"
      },
      {
        "name": "리틀앤머치",
        "latitude": 37.5140141041331,
        "longitude": 127.043543118616,
        "address": "서울 강남구 삼성동 10-8",
        "road_address": "서울 강남구 학동로56길 49",
        "phone": "02-545-1023",
        "category": "음식점 > 카페 > 테마카페 > 디저트카페",
        "distance": "137"
      },
      {
        "name": "트롬바커피",
        "latitude": 37.5152270234241,
        "longitude": 127.043084586217,
        "address": "서울 강남구 삼성동 10",
        "road_address": "서울 강남구 선릉로126길 12",
        "phone": "",
        "category": "음식점 > 카페 > 테마카페 > 디저트카페",
        "distance": "3"
      },
      {
        "name": "N237카페앤베이커리",
        "latitude": 37.5093059514189,
        "longitude": 127.036785833501,
        "address": "서울 강남구 논현동 237",
        "road_address": "서울 강남구 언주로113길 7",
        "phone": "02-546-1137",
        "category": "음식점 > 카페 > 테마카페 > 디저트카페",
        "distance": "860"
      },
      {
        "name": "썸인스윗",
        "latitude": 37.51865062545117,
        "longitude": 127.04114997860994,
        "address": "서울 강남구 청담동 40-26",
        "road_address": "서울 강남구 선릉로134길 4",
        "phone": "02-515-0902",
        "category": "음식점 > 카페 > 테마카페 > 디저트카페",
        "distance": "419"
      },
      {
        "name": "요거트아이스크림의정석 강남구청점",
        "latitude": 37.5142560360542,
        "longitude": 127.049246321816,
        "address": "서울 강남구 삼성동 26-31",
        "road_address": "서울 강남구 봉은사로71길 31",
        "phone": "",
        "category": "음식점 > 카페 > 테마카페 > 디저트카페 > 요거트아이스크림의정석",
        "distance": "553"
      },
      {
        "name": "소담한",
        "latitude": 37.5160981045541,
        "longitude": 127.041087495502,
        "address": "서울 강남구 논현동 242-27",
        "road_address": "서울 강남구 선릉로129길 3-4",
        "phone": "",
        "category": "음식점 > 카페 > 테마카페 > 디저트카페",
        "distance": "203"
      },
      {
        "name": "힙카롱",
        "latitude": 37.51642999123074,
        "longitude": 127.04273236087164,
        "address": "서울 강남구 삼성동 7-3",
        "road_address": "서울 강남구 선릉로130길 20",
        "phone": "0503-5260-9096",
        "category": "음식점 > 카페 > 테마카페 > 디저트카페",
        "distance": "140"
      }
    ]
  }
}