{
  "key": "94bfad05a6cf676d0bd424f7652770a8293b9ccf10153adc706ad5b80026b9e2",
  "tool": "PlaceSearch_kakao",
  "created_at": "2025-10-27T17:05:34.763280",
  "input_params": {
    "keyword": "대학",
    "radius": 2000,
    "size": 10,
    "sort": "distance",
    "x": 127.0415,
    "y": 37.5828
  },
  "raw_args": {
    "keyword": "대학",
    "x": 127.0415,
    "y": 37.5828,
    "radius": 2000,
    "size": 10,
    "sort": "distance"
  },
  "data": {
    "keyword": "대학",
    "total_count": 591,
    "places": [
      {
        "name": "카톨릭대학약국",
        "latitude": 37.579551697242124,
        "longitude": 127.0439910760298,
        "address": "서울 동대문구 전농동 620-15",
        "road_address": "서울 동대문구 왕산로 186",
        "phone": "02-957-9550",
        "category": "의료,건강 > 약국",
        "distance": "422"
      },
      {
        "name": "경희사이버대학교 아카피스관",
        "latitude": 37.5884621720599,
        "longitude": 127.042481391654,
        "address": "서울 동대문구 청량리동 205-35",
        "road_address": "서울 동대문구 홍릉로 91",
        "phone": "02-3299-8793",
        "category": "교육,학문 > 학교 > 사이버대학",
        "distance": "634"
      },
      {
        "name": "대학빌딩 주차장",
        "latitude": 37.577377953075526,
        "longitude": 127.03776343774763,
        "address": "서울 동대문구 용두동 45-10",
        "road_address": "",
        "phone": "",
        "category": "교통,수송 > 교통시설 > 주차장",
        "distance": "686"
      },
      {
        "name": "한서대학교 문화유산보존과학센터",
        "latitude": 37.5886226879026,
        "longitude": 127.036693494284,
        "address": "서울 동대문구 제기동 136-81",
        "road_address": "서울 동대문구 고산자로 551",
        "phone": "",
        "category": "교육,학문 > 학교부속시설",
        "distance": "773"
      },
      {
        "name": "고려대학교 파이빌148",
        "latitude": 37.5879313589229,
        "longitude": 127.03459627387,
        "address": "서울 동대문구 제기동 137-425",
        "road_address": "서울 동대문구 안암로 148",
        "phone": "",
        "category": "교육,학문 > 학교부속시설",
        "distance": "834"
      },
      {
        "name": "대학솔약국",
        "latitude": 37.588608695719,
        "longitude": 127.035304234528,
        "address": "서울 동대문구 제기동 137-22",
        "road_address": "서울 동대문구 안암로 158",
        "phone": "02-923-3338",
        "category": "의료,건강 > 약국",
        "distance": "845"
      },
      {
        "name": "고려대학교 서울캠퍼스 정문",
        "latitude": 37.58815247199953,
        "longitude": 127.03424727911144,
        "address": "서울 성북구 안암동5가 1-2",
        "road_address": "서울 성북구 안암로 145",
        "phone": "",
        "category": "교통,수송 > 입출구",
        "distance": "873"
      },
      {
        "name": "고려대학교 4.18기념관",
        "latitude": 37.5869767973729,
        "longitude": 127.032879400603,
        "address": "서울 성북구 안암동5가 1-2",
        "road_address": "서울 성북구 안암로 145",
        "phone": "",
        "category": "교육,학문 > 학교부속시설",
        "distance": "891"
      },
      {
        "name": "고려대학교 서울캠퍼스 정문수위실",
        "latitude": 37.58854321081578,
        "longitude": 127.03432934973377,
        "address": "서울 성북구 안암동5가 1-2",
        "road_address": "서울 성북구 안암로 145",
        "phone": "02-3290-1710",
        "category": "교육,학문 > 학교부속시설",
        "distance": "898"
      },
      {
        "name": "고려대학교 학생회관",
        "latitude": 37.5869229015776,
        "longitude": 127.0322860989,
        "address": "서울 성북구 안암동5가 1-2",
        "road_address": "서울 성북구 안암로 145",
        "phone": "",
        "category": "교육,학문 > 학교부속시설",
        "distance": "933"
      }
    ]
  }
}