{
  "key": "d865413d574b89936f52fc213710e5a888c454729edc538856e4adad37dc5ac5",
  "tool": "PlaceSearch_kakao",
  "created_at": "2025-12-15T08:30:30.234397",
  "input_params": {
    "keyword": "병원",
    "radius": 2000,
    "sort": "accuracy",
    "x": 127.0222,
    "y": 37.5709
  },
  "raw_args": {
    "x": 127.0222,
    "y": 37.5709,
    "keyword": "병원",
    "radius": 2000
  },
  "data": {
    "keyword": "병원",
    "total_count": 812,
    "places": [
      {
        "name": "신설마리아병원",
        "latitude": 37.57417102035537,
        "longitude": 127.02538547827531,
        "address": "서울 동대문구 신설동 103-10",
        "road_address": "서울 동대문구 천호대로 20",
        "phone": "02-2234-6555",
        "category": "의료,건강 > 병원 > 산부인과",
        "distance": "459"
      },
      {
        "name": "서울특별시 동부병원",
        "latitude": 37.5753976288057,
        "longitude": 127.031402662859,
        "address": "서울 동대문구 용두동 118-20",
        "road_address": "서울 동대문구 무학로 124",
        "phone": "02-920-9114",
        "category": "의료,건강 > 병원 > 시도립병원",
        "distance": "954"
      },
      {
        "name": "더드림요양병원",
        "latitude": 37.57675788137488,
        "longitude": 127.02488938384606,
        "address": "서울 동대문구 신설동 76-34",
        "road_address": "서울 동대문구 한빛로 12",
        "phone": "02-6674-7575",
        "category": "의료,건강 > 병원 > 노인,요양병원",
        "distance": "692"
      },
      {
        "name": "베스티안서울병원",
        "latitude": 37.56510190669102,
        "longitude": 127.02801402054763,
        "address": "서울 성동구 하왕십리동 1070-3",
        "road_address": "서울 성동구 왕십리로 382",
        "phone": "02-3452-7575",
        "category": "의료,건강 > 병원 > 종합병원",
        "distance": "823"
      },
      {
        "name": "서울숭인병원",
        "latitude": 37.57394404659097,
        "longitude": 127.02033548936822,
        "address": "서울 종로구 숭인동 200-26",
        "road_address": "서울 종로구 종로 386",
        "phone": "02-737-7582",
        "category": "의료,건강 > 병원",
        "distance": "376"
      },
      {
        "name": "365매일한방병원",
        "latitude": 37.5753488398992,
        "longitude": 127.024343274155,
        "address": "서울 동대문구 신설동 101-5",
        "road_address": "서울 동대문구 천호대로 3",
        "phone": "02-929-0365",
        "category": "의료,건강 > 병원 > 한방병원",
        "distance": "528"
      },
      {
        "name": "왕십리휴병원",
        "latitude": 37.57207310750505,
        "longitude": 127.03083527438126,
        "address": "서울 동대문구 용두동 129-36",
        "road_address": "서울 동대문구 무학로 88",
        "phone": "02-927-6501",
        "category": "의료,건강 > 병원",
        "distance": "773"
      },
      {
        "name": "서울베스트의료의원",
        "latitude": 37.56685645403245,
        "longitude": 127.01692765682171,
        "address": "서울 중구 흥인동 13-1",
        "road_address": "서울 중구 다산로46길 17",
        "phone": "02-2135-1357",
        "category": "의료,건강 > 병원 > 일반의원",
        "distance": "646"
      },
      {
        "name": "아이숲안과의원",
        "latitude": 37.56721978963001,
        "longitude": 127.02562648011032,
        "address": "서울 성동구 상왕십리동 816",
        "road_address": "서울 성동구 왕십리로 410",
        "phone": "02-2295-1175",
        "category": "의료,건강 > 병원 > 안과",
        "distance": "508"
      },
      {
        "name": "참바로병원",
        "latitude": 37.5657951239168,
        "longitude": 127.016624070109,
        "address": "서울 중구 흥인동 86",
        "road_address": "서울 중구 다산로 258",
        "phone": "02-2234-8585",
        "category": "의료,건강 > 병원",
        "distance": "750"
      },
      {
        "name": "모두탑365정형외과의원 신당점",
        "latitude": 37.565795612816,
        "longitude": 127.019330419474,
        "address": "서울 중구 황학동 730",
        "road_address": "서울 중구 퇴계로 429",
        "phone": "02-2233-7575",
        "category": "의료,건강 > 병원 > 정형외과",
        "distance": "620"
      },
      {
        "name": "일등이비인후과의원",
        "latitude": 37.5652707949566,
        "longitude": 127.021843062271,
        "address": "서울 중구 신당동 150-12",
        "road_address": "서울 중구 퇴계로 452-1",
        "phone": "02-2253-1119",
        "category": "의료,건강 > 병원 > 이비인후과",
        "distance": "625"
      },
      {
        "name": "이용식이비인후과의원",
        "latitude": 37.574051031816154,
        "longitude": 127.01599537276935,
        "address": "서울 종로구 숭인동 76",
        "road_address": "서울 종로구 종로 347",
        "phone": "02-763-3426",
        "category": "의료,건강 > 병원 > 이비인후과",
        "distance": "650"
      },
      {
        "name": "연세솔이비인후과의원",
        "latitude": 37.5732600457873,
        "longitude": 127.015336377802,
        "address": "서울 종로구 창신동 266-1",
        "road_address": "서울 종로구 지봉로 37-1",
        "phone": "02-6952-0009",
        "category": "의료,건강 > 병원 > 이비인후과",
        "distance": "660"
      },
      {
        "name": "뉴수도정형외과의원",
        "latitude": 37.574531267055384,
        "longitude": 127.01595811874881,
        "address": "서울 종로구 숭인동 81-15",
        "road_address": "서울 종로구 지봉로 50",
        "phone": "02-741-2277",
        "category": "의료,건강 > 병원 > 정형외과",
        "distance": "683"
      }
    ]
  }
}