{
  "key": "e780f8ca31173c68b7c1c69eb4e5716746fe4ea8aec1f42035b9a0ebad548ae7",
  "tool": "PlaceSearch_kakao",
  "created_at": "2025-12-19T05:23:40.138091",
  "input_params": {
    "keyword": "카페",
    "radius": 1000,
    "size": 5,
    "sort": "accuracy",
    "x": 127.216475764948,
    "y": 37.6360236390492
  },
  "raw_args": {
    "keyword": "카페",
    "x": 127.216475764948,
    "y": 37.6360236390492,
    "radius": 1000,
    "size": 5
  },
  "data": {
    "keyword": "카페",
    "total_count": 24,
    "places": [
      {
        "name": "풀문",
        "latitude": 37.6361732018748,
        "longitude": 127.215491661151,
        "address": "경기 남양주시 금곡동 185-41",
        "road_address": "경기 남양주시 경춘로양골1길 10",
        "phone": "070-7543-3894",
        "category": "음식점 > 카페",
        "distance": "88"
      },
      {
        "name": "뜨란",
        "latitude": 37.6358722995465,
        "longitude": 127.216461730489,
        "address": "경기 남양주시 금곡동 185-10",
        "road_address": "경기 남양주시 경춘로 1037",
        "phone": "031-592-7150",
        "category": "음식점 > 카페 > 커피전문점",
        "distance": "16"
      },
      {
        "name": "매머드익스프레스 남양주시청제1청사점",
        "latitude": 37.6364148527216,
        "longitude": 127.215882096747,
        "address": "경기 남양주시 금곡동 203-31",
        "road_address": "경기 남양주시 경춘로양골1길 13",
        "phone": "",
        "category": "음식점 > 카페 > 커피전문점 > 매머드익스프레스",
        "distance": "67"
      },
      {
        "name": "커피한잔",
        "latitude": 37.6343126518178,
        "longitude": 127.212020665769,
        "address": "경기 남양주시 금곡동 154-15",
        "road_address": "경기 남양주시 경춘로 994",
        "phone": "",
        "category": "음식점 > 카페 > 커피전문점",
        "distance": "436"
      },
      {
        "name": "달리는커피 남양주금곡점",
        "latitude": 37.6370749815033,
        "longitude": 127.216533197623,
        "address": "경기 남양주시 금곡동 204-2",
        "road_address": "경기 남양주시 경춘로양골1길 9-27",
        "phone": "031-559-5202",
        "category": "음식점 > 카페",
        "distance": "116"
      }
    ]
  }
}