{
  "key": "e7a1c57950b90d599e16f51cffd0b85f84154e8c5457a1621e7427c57fcf15eb",
  "tool": "PlaceSearch_kakao",
  "created_at": "2025-10-27T03:28:19.458338",
  "input_params": {
    "keyword": "디저트 카페",
    "page": 1,
    "size": 5,
    "sort": "accuracy",
    "x": 127.05655306806058,
    "y": 37.510950583703725
  },
  "raw_args": {
    "keyword": "디저트 카페",
    "x": 127.05655306806058,
    "y": 37.510950583703725,
    "page": 1,
    "size": 5
  },
  "data": {
    "keyword": "디저트 카페",
    "total_count": 25240,
    "places": [
      {
        "name": "카페희다 삼성점",
        "latitude": 37.5092364877372,
        "longitude": 127.057352547926,
        "address": "서울 강남구 삼성동 154-16",
        "road_address": "서울 강남구 삼성로96길 19",
        "phone": "02-556-3992",
        "category": "음식점 > 카페 > 테마카페 > 디저트카페",
        "distance": "203"
      },
      {
        "name": "빌리엔젤 삼성코엑스몰점",
        "latitude": 37.50997558921572,
        "longitude": 127.0604103322226,
        "address": "서울 강남구 삼성동 159-9",
        "road_address": "",
        "phone": "070-5051-8137",
        "category": "음식점 > 카페 > 테마카페 > 디저트카페",
        "distance": "357"
      },
      {
        "name": "모찌방",
        "latitude": 37.5025089426041,
        "longitude": 127.054909108028,
        "address": "서울 강남구 대치동 905-21",
        "road_address": "서울 강남구 삼성로75길 41",
        "phone": "070-4007-6851",
        "category": "음식점 > 카페 > 테마카페 > 디저트카페",
        "distance": "948"
      },
      {
        "name": "디저트39 삼성점",
        "latitude": 37.5112872520499,
        "longitude": 127.05719124349,
        "address": "서울 강남구 삼성동 153-29",
        "road_address": "서울 강남구 테헤란로87길 57",
        "phone": "02-554-3584",
        "category": "음식점 > 카페 > 테마카페 > 디저트카페 > 디저트39",
        "distance": "67"
      },
      {
        "name": "10월 19일",
        "latitude": 37.509114090589,
        "longitude": 127.053203823179,
        "address": "서울 강남구 삼성동 124-22",
        "road_address": "서울 강남구 테헤란로77길 43",
        "phone": "010-9461-1906",
        "category": "음식점 > 카페 > 테마카페 > 디저트카페",
        "distance": "359"
      }
    ]
  }
}