{
  "key": "2d1b3c051c9f4058c2bdfee59596ebd0fd80f14b1027d524d2a3a510664f1803",
  "tool": "CategorySearch_kakao",
  "created_at": "2025-10-13T14:31:44.778601",
  "input_params": {
    "category": "PM9",
    "radius": 1000,
    "size": 15,
    "x": 126.977084,
    "y": 37.571384
  },
  "raw_args": {
    "category": "PM9",
    "x": 126.977084,
    "y": 37.571384
  },
  "data": {
    "category": "PM9",
    "total_count": 69,
    "places": [
      {
        "name": "삼원온누리약국",
        "latitude": 37.570481772624,
        "longitude": 126.976183539916,
        "address": "서울 종로구 신문로1가 1",
        "phone": "02-739-8744",
        "distance": "127"
      },
      {
        "name": "새명성약국",
        "latitude": 37.5703552066396,
        "longitude": 126.974155109518,
        "address": "서울 종로구 신문로1가 33",
        "phone": "02-735-2870",
        "distance": "282"
      },
      {
        "name": "광화문123약국",
        "latitude": 37.5723997485735,
        "longitude": 126.97970681417,
        "address": "서울 종로구 청진동 215-1",
        "phone": "02-723-0124",
        "distance": "257"
      },
      {
        "name": "종각호약국",
        "latitude": 37.569950089941976,
        "longitude": 126.98718289629328,
        "address": "서울 종로구 종로2가 71-4",
        "phone": "02-6949-0940",
        "distance": "906"
      },
      {
        "name": "세종약국",
        "latitude": 37.57175597702993,
        "longitude": 126.97291850299607,
        "address": "서울 종로구 당주동 100",
        "phone": "02-3210-2292",
        "distance": "370"
      },
      {
        "name": "행복약국",
        "latitude": 37.5763202687714,
        "longitude": 126.972281770404,
        "address": "서울 종로구 내자동 67-1",
        "phone": "",
        "distance": "692"
      },
      {
        "name": "송송약국",
        "latitude": 37.570570744374166,
        "longitude": 126.97980013133822,
        "address": "서울 종로구 종로1가 24",
        "phone": "02-733-4425",
        "distance": "256"
      },
      {
        "name": "종로엔약국",
        "latitude": 37.57040028996443,
        "longitude": 126.98468458387403,
        "address": "서울 종로구 종로2가 8-4",
        "phone": "02-739-9856",
        "distance": "680"
      },
      {
        "name": "덕수궁돌담약국",
        "latitude": 37.563679315674975,
        "longitude": 126.97649130729978,
        "address": "서울 중구 태평로2가 344-3",
        "phone": "02-318-3758",
        "distance": "856"
      },
      {
        "name": "홍신약국",
        "latitude": 37.56714345301058,
        "longitude": 126.98036814403505,
        "address": "서울 중구 다동 155",
        "phone": "02-776-5117",
        "distance": "552"
      },
      {
        "name": "청실약국",
        "latitude": 37.567277456415326,
        "longitude": 126.97894642672937,
        "address": "서울 중구 무교동 32-2",
        "phone": "02-3789-6953",
        "distance": "484"
      },
      {
        "name": "당근약국",
        "latitude": 37.5704290484631,
        "longitude": 126.973973970369,
        "address": "서울 종로구 신문로1가 34",
        "phone": "02-735-0709",
        "distance": "294"
      },
      {
        "name": "에이스약국",
        "latitude": 37.5684187957458,
        "longitude": 126.97773494060418,
        "address": "서울 중구 태평로1가 84",
        "phone": "02-779-7697",
        "distance": "334"
      },
      {
        "name": "광화문이층약국",
        "latitude": 37.5704742160246,
        "longitude": 126.974513899999,
        "address": "서울 종로구 신문로1가 25",
        "phone": "0503-7151-4141",
        "distance": "248"
      },
      {
        "name": "정동길권약국",
        "latitude": 37.56791954814374,
        "longitude": 126.96927736628668,
        "address": "서울 중구 충정로1가 51-6",
        "phone": "02-733-0885",
        "distance": "789"
      }
    ]
  }
}