{
  "key": "2dc49b8f1604551df3eebe26741688a4f27e7ad274e5759bdeb895dd8f6b0400",
  "tool": "CategorySearch_kakao",
  "created_at": "2025-10-15T15:30:54.685243",
  "input_params": {
    "category": "PM9",
    "radius": 1000,
    "size": 10,
    "x": 126.9779692,
    "y": 37.566535
  },
  "raw_args": {
    "category": "PM9",
    "x": 126.9779692,
    "y": 37.566535,
    "radius": 1000,
    "size": 10
  },
  "data": {
    "category": "PM9",
    "total_count": 93,
    "places": [
      {
        "name": "왕솔약국",
        "latitude": 37.5611535627626,
        "longitude": 126.97997018339866,
        "address": "서울 중구 회현동1가 202-1",
        "phone": "02-773-5001",
        "distance": "622"
      },
      {
        "name": "남시약국",
        "latitude": 37.56077835029789,
        "longitude": 126.97774853256885,
        "address": "서울 중구 남대문로3가 30-15",
        "phone": "02-753-7575",
        "distance": "639"
      },
      {
        "name": "평화약국",
        "latitude": 37.56024483816211,
        "longitude": 126.97711035257514,
        "address": "서울 중구 남대문로4가 18-11",
        "phone": "02-755-6059",
        "distance": "702"
      },
      {
        "name": "남대문약국",
        "latitude": 37.5608000022822,
        "longitude": 126.977897925647,
        "address": "서울 중구 남대문로3가 30-7",
        "phone": "02-6958-7022",
        "distance": "636"
      },
      {
        "name": "덕수궁돌담약국",
        "latitude": 37.563679315674975,
        "longitude": 126.97649130729978,
        "address": "서울 중구 태평로2가 344-3",
        "phone": "02-318-3758",
        "distance": "342"
      },
      {
        "name": "고향약국",
        "latitude": 37.560846901301495,
        "longitude": 126.978151438406,
        "address": "서울 중구 남대문로3가 30-1",
        "phone": "02-3789-7749",
        "distance": "631"
      },
      {
        "name": "홍신약국",
        "latitude": 37.56714345301058,
        "longitude": 126.98036814403505,
        "address": "서울 중구 다동 155",
        "phone": "02-776-5117",
        "distance": "222"
      },
      {
        "name": "명동하이약국",
        "latitude": 37.56439062072497,
        "longitude": 126.9844764185237,
        "address": "서울 중구 명동1가 46-2",
        "phone": "070-4140-8275",
        "distance": "622"
      },
      {
        "name": "청실약국",
        "latitude": 37.567277456415326,
        "longitude": 126.97894642672937,
        "address": "서울 중구 무교동 32-2",
        "phone": "02-3789-6953",
        "distance": "119"
      },
      {
        "name": "새원약국",
        "latitude": 37.56414110255424,
        "longitude": 126.9849224251417,
        "address": "서울 중구 명동1가 31-4",
        "phone": "02-776-4476",
        "distance": "669"
      }
    ]
  }
}