{
  "key": "1b043e1be741d0e2bd02dce609bc3cb61f98e116ef889bfb9af3c0b585360407",
  "tool": "PlaceSearch_kakao",
  "created_at": "2025-10-27T17:04:37.232730",
  "input_params": {
    "keyword": "병원",
    "radius": 2000,
    "size": 10,
    "sort": "distance",
    "x": 127.0285,
    "y": 37.582
  },
  "raw_args": {
    "keyword": "병원",
    "x": 127.0285,
    "y": 37.582,
    "radius": 2000,
    "size": 10,
    "sort": "distance"
  },
  "data": {
    "keyword": "병원",
    "total_count": 727,
    "places": [
      {
        "name": "안암정형외과의원",
        "latitude": 37.58191593127302,
        "longitude": 127.02941737303644,
        "address": "서울 동대문구 용두동 726-10",
        "road_address": "서울 동대문구 무학로 197",
        "phone": "02-926-5311",
        "category": "의료,건강 > 병원 > 정형외과",
        "distance": "81"
      },
      {
        "name": "날개병원",
        "latitude": 37.581614973442,
        "longitude": 127.029521410537,
        "address": "서울 동대문구 용두동 740-1",
        "road_address": "서울 동대문구 무학로 193-1",
        "phone": "02-959-9191",
        "category": "의료,건강 > 병원 > 정형외과",
        "distance": "100"
      },
      {
        "name": "연세정내과의원",
        "latitude": 37.5825013849527,
        "longitude": 127.030178403469,
        "address": "서울 동대문구 제기동 148-115",
        "road_address": "서울 동대문구 약령시로 2",
        "phone": "02-924-6575",
        "category": "의료,건강 > 병원 > 내과",
        "distance": "158"
      },
      {
        "name": "임충남치과의원",
        "latitude": 37.583142116377424,
        "longitude": 127.02968504354814,
        "address": "서울 성북구 안암동5가 104-119",
        "road_address": "서울 성북구 안암로 77",
        "phone": "02-926-5261",
        "category": "의료,건강 > 병원 > 치과",
        "distance": "164"
      },
      {
        "name": "예담치과의원",
        "latitude": 37.5828041302898,
        "longitude": 127.030133239774,
        "address": "서울 동대문구 제기동 1152-12",
        "road_address": "서울 동대문구 약령시로 3",
        "phone": "02-953-2804",
        "category": "의료,건강 > 병원 > 치과",
        "distance": "169"
      },
      {
        "name": "안암동물병원",
        "latitude": 37.580570470113,
        "longitude": 127.026799396718,
        "address": "서울 동대문구 용두동 732-5",
        "road_address": "서울 동대문구 안암로 40",
        "phone": "02-925-3686",
        "category": "가정,생활 > 반려동물 > 동물병원",
        "distance": "218"
      },
      {
        "name": "안암부부한의원",
        "latitude": 37.584585609798914,
        "longitude": 127.02927576955629,
        "address": "서울 성북구 안암동5가 102-32",
        "road_address": "서울 성북구 고려대로24길 36",
        "phone": "02-2138-2242",
        "category": "의료,건강 > 병원 > 한의원",
        "distance": "294"
      },
      {
        "name": "이민수정신건강의학과의원",
        "latitude": 37.5853848079917,
        "longitude": 127.029205886969,
        "address": "서울 성북구 안암동5가 102-69",
        "road_address": "서울 성북구 고려대로24길 20",
        "phone": "02-925-6900",
        "category": "의료,건강 > 병원 > 정신건강의학과",
        "distance": "380"
      },
      {
        "name": "우신향병원 구관동 개방화장실",
        "latitude": 37.5848257230972,
        "longitude": 127.031044325875,
        "address": "서울 성북구 안암동5가 86-125",
        "road_address": "서울 성북구 안암로 99",
        "phone": "",
        "category": "가정,생활 > 화장실",
        "distance": "385"
      },
      {
        "name": "우신향병원",
        "latitude": 37.58478154670066,
        "longitude": 127.03114960003643,
        "address": "서울 성북구 안암동5가 85-9",
        "road_address": "서울 성북구 안암로 99",
        "phone": "02-927-3331",
        "category": "의료,건강 > 병원",
        "distance": "387"
      }
    ]
  }
}