{
  "key": "1b86dd570647662917894a1d40a92b3f34d1ca32afb330097a8a6ecf6fdcae20",
  "tool": "PlaceSearch_kakao",
  "created_at": "2025-10-27T09:05:32.567398",
  "input_params": {
    "keyword": "주차장",
    "radius": 1000,
    "sort": "accuracy",
    "x": 126.9207,
    "y": 37.4999
  },
  "raw_args": {
    "keyword": "주차장",
    "x": 126.9207,
    "y": 37.4999,
    "radius": 1000,
    "sort": "accuracy"
  },
  "data": {
    "keyword": "주차장",
    "total_count": 50,
    "places": [
      {
        "name": "동국주차장",
        "latitude": 37.5000351168242,
        "longitude": 126.923085456717,
        "address": "서울 동작구 대방동 397-3",
        "road_address": "서울 동작구 상도로 23",
        "phone": "02-821-5414",
        "category": "교통,수송 > 교통시설 > 주차장",
        "distance": "211"
      },
      {
        "name": "KM파크 다이소 신대방점 주차장",
        "latitude": 37.4977889200965,
        "longitude": 126.920382737233,
        "address": "서울 동작구 신대방동 375-1",
        "road_address": "서울 동작구 여의대방로 122",
        "phone": "",
        "category": "교통,수송 > 교통시설 > 주차장",
        "distance": "236"
      },
      {
        "name": "그린빌 주차장",
        "latitude": 37.5020551525802,
        "longitude": 126.920337494026,
        "address": "서울 영등포구 신길동 647",
        "road_address": "서울 영등포구 가마산로90길 24",
        "phone": "",
        "category": "교통,수송 > 교통시설 > 주차장",
        "distance": "241"
      },
      {
        "name": "골든노블레스 주차장",
        "latitude": 37.4996532032695,
        "longitude": 126.924658917445,
        "address": "서울 동작구 대방동 403-16",
        "road_address": "서울 동작구 상도로 36",
        "phone": "",
        "category": "교통,수송 > 교통시설 > 주차장",
        "distance": "351"
      },
      {
        "name": "나이스파크 신길 메트하임 주차장",
        "latitude": 37.5002731430905,
        "longitude": 126.916679794717,
        "address": "서울 영등포구 신길동 2363",
        "road_address": "서울 영등포구 신풍로 93",
        "phone": "",
        "category": "교통,수송 > 교통시설 > 주차장",
        "distance": "358"
      },
      {
        "name": "해군본부앞 공영주차장",
        "latitude": 37.50432169344028,
        "longitude": 126.92110074649266,
        "address": "서울 영등포구 신길동 812",
        "road_address": "",
        "phone": "031-903-3345",
        "category": "교통,수송 > 교통시설 > 주차장 > 공영주차장",
        "distance": "492"
      },
      {
        "name": "대방거주자우선주차장",
        "latitude": 37.501330508436,
        "longitude": 126.925499764589,
        "address": "서울 동작구 대방동 391-269",
        "road_address": "",
        "phone": "",
        "category": "교통,수송 > 교통시설 > 주차장 > 공영주차장",
        "distance": "452"
      },
      {
        "name": "메트하임상가 주차장",
        "latitude": 37.5002731430905,
        "longitude": 126.916679794717,
        "address": "서울 영등포구 신길동 2363",
        "road_address": "서울 영등포구 신풍로 93",
        "phone": "",
        "category": "교통,수송 > 교통시설 > 주차장",
        "distance": "358"
      },
      {
        "name": "대방생태공영노외주차장",
        "latitude": 37.5001490776542,
        "longitude": 126.926600171454,
        "address": "서울 동작구 대방동 395-1",
        "road_address": "서울 동작구 대방동1길 9",
        "phone": "",
        "category": "교통,수송 > 교통시설 > 주차장 > 공영주차장",
        "distance": "522"
      },
      {
        "name": "보라매공원 주차장1",
        "latitude": 37.4948965491304,
        "longitude": 126.918852417259,
        "address": "서울 동작구 신대방동 395-3",
        "road_address": "",
        "phone": "",
        "category": "교통,수송 > 교통시설 > 주차장",
        "distance": "578"
      },
      {
        "name": "대방동 410번지일대 거주자우선 주차장",
        "latitude": 37.499254354817,
        "longitude": 126.92512637356,
        "address": "서울 동작구 대방동 410-2",
        "road_address": "",
        "phone": "",
        "category": "교통,수송 > 교통시설 > 주차장",
        "distance": "397"
      },
      {
        "name": "샤인빌 외부주차장",
        "latitude": 37.4992148679792,
        "longitude": 126.915982084246,
        "address": "서울 영등포구 신길동 4042",
        "road_address": "",
        "phone": "",
        "category": "교통,수송 > 교통시설 > 주차장",
        "distance": "423"
      },
      {
        "name": "신대방 구릉무인공영주차장",
        "latitude": 37.4987440427722,
        "longitude": 126.927465536781,
        "address": "서울 동작구 신대방동 351-14",
        "road_address": "",
        "phone": "",
        "category": "교통,수송 > 교통시설 > 주차장 > 공영주차장",
        "distance": "611"
      },
      {
        "name": "해군호텔 주차장",
        "latitude": 37.50344674649564,
        "longitude": 126.91577829545584,
        "address": "서울 영등포구 신길동 2001-3",
        "road_address": "",
        "phone": "",
        "category": "교통,수송 > 교통시설 > 주차장",
        "distance": "586"
      },
      {
        "name": "하이파킹 보라매공원 주차장",
        "latitude": 37.4948623147859,
        "longitude": 126.918858108391,
        "address": "서울 동작구 신대방동 722",
        "road_address": "",
        "phone": "1688-1054",
        "category": "교통,수송 > 교통시설 > 주차장",
        "distance": "582"
      }
    ]
  }
}