{
  "key": "b3a6b56c2639fe3ef7c9902f7dd8d2cf13fb452f8645e7a976c5824f6144172f",
  "tool": "PlaceSearch_kakao",
  "created_at": "2025-10-27T01:23:41.982165",
  "input_params": {
    "keyword": "시흥시청 맛집",
    "radius": 5000,
    "sort": "distance",
    "x": 126.8127,
    "y": 37.3311
  },
  "raw_args": {
    "keyword": "시흥시청 맛집",
    "x": 126.8127,
    "y": 37.3311,
    "radius": 5000,
    "sort": "distance"
  },
  "data": {
    "keyword": "시흥시청 맛집",
    "total_count": 314,
    "places": [
      {
        "name": "금의옥식(화산시래기붕어찜)",
        "latitude": 37.36327996462486,
        "longitude": 126.80602566166243,
        "address": "경기 시흥시 군자동 124",
        "road_address": "경기 시흥시 시흥대로 249",
        "phone": "031-315-0513",
        "category": "음식점 > 한식 > 해물,생선",
        "distance": "3620"
      },
      {
        "name": "또와요짬뽕",
        "latitude": 37.3633990790316,
        "longitude": 126.806134852666,
        "address": "경기 시흥시 군자동 127",
        "road_address": "경기 시흥시 시흥대로 251",
        "phone": "031-431-0879",
        "category": "음식점 > 중식 > 중국요리",
        "distance": "3631"
      },
      {
        "name": "아이오카페",
        "latitude": 37.36518977103442,
        "longitude": 126.81024271254549,
        "address": "경기 시흥시 능곡동 782",
        "road_address": "경기 시흥시 승지로 9",
        "phone": "",
        "category": "음식점 > 카페",
        "distance": "3789"
      },
      {
        "name": "맘스터치 신시흥능곡점",
        "latitude": 37.36523557642488,
        "longitude": 126.81015115881449,
        "address": "경기 시흥시 능곡동 782",
        "road_address": "경기 시흥시 승지로 9",
        "phone": "031-317-9251",
        "category": "음식점 > 패스트푸드 > 맘스터치",
        "distance": "3795"
      },
      {
        "name": "아이갓에브리씽 능곡어울림센터",
        "latitude": 37.366382797743,
        "longitude": 126.815989125246,
        "address": "경기 시흥시 능곡동 710",
        "road_address": "경기 시흥시 능곡로 140",
        "phone": "",
        "category": "음식점 > 카페",
        "distance": "3926"
      },
      {
        "name": "BBQ 시흥장현점",
        "latitude": 37.36604526311211,
        "longitude": 126.8055082890535,
        "address": "경기 시흥시 군자동 803-10",
        "road_address": "경기 시흥시 능곡군자1길 79",
        "phone": "031-311-8292",
        "category": "음식점 > 치킨 > BBQ",
        "distance": "3930"
      },
      {
        "name": "스너그샌드",
        "latitude": 37.36630195208293,
        "longitude": 126.80544553783587,
        "address": "경기 시흥시 군자동 807-9",
        "road_address": "경기 시흥시 능곡군자1길 82",
        "phone": "070-7585-9497",
        "category": "음식점 > 패스트푸드 > 샌드위치",
        "distance": "3959"
      },
      {
        "name": "리타르트",
        "latitude": 37.36630735822006,
        "longitude": 126.80544552387603,
        "address": "경기 시흥시 군자동 807-9",
        "road_address": "경기 시흥시 능곡군자1길 82",
        "phone": "070-8523-6547",
        "category": "음식점 > 간식 > 제과,베이커리",
        "distance": "3960"
      },
      {
        "name": "만나꼬마김밥",
        "latitude": 37.3668314344839,
        "longitude": 126.812499750627,
        "address": "경기 시흥시 능곡동 787",
        "road_address": "경기 시흥시 능곡중앙로 34",
        "phone": "031-318-1155",
        "category": "음식점 > 분식",
        "distance": "3965"
      },
      {
        "name": "진실식당",
        "latitude": 37.36655311868028,
        "longitude": 126.80641008904375,
        "address": "경기 시흥시 군자동 805-7",
        "road_address": "경기 시흥시 능곡군자7길 2",
        "phone": "031-318-3494",
        "category": "음식점 > 한식 > 육류,고기",
        "distance": "3974"
      },
      {
        "name": "카페주비엘",
        "latitude": 37.3666360866915,
        "longitude": 126.805905262132,
        "address": "경기 시흥시 군자동 805-10",
        "road_address": "경기 시흥시 능곡군자7길 8",
        "phone": "0507-1457-9302",
        "category": "음식점 > 카페",
        "distance": "3989"
      },
      {
        "name": "다모아행복전",
        "latitude": 37.3669585221468,
        "longitude": 126.809146617042,
        "address": "경기 시흥시 능곡동 768",
        "road_address": "",
        "phone": "031-317-4777",
        "category": "음식점 > 술집 > 호프,요리주점",
        "distance": "3992"
      },
      {
        "name": "빨간거짱구네 시흥장현점",
        "latitude": 37.366779426866,
        "longitude": 126.80595230636,
        "address": "경기 시흥시 군자동 805-3",
        "road_address": "경기 시흥시 능곡군자6길 7",
        "phone": "031-404-1112",
        "category": "음식점 > 한식",
        "distance": "4004"
      },
      {
        "name": "능곡고기1번지",
        "latitude": 37.3668115801442,
        "longitude": 126.805779503012,
        "address": "경기 시흥시 군자동 805-2",
        "road_address": "경기 시흥시 능곡군자6길 9",
        "phone": "031-311-4934",
        "category": "음식점 > 한식 > 육류,고기 > 한마음정육식당",
        "distance": "4010"
      },
      {
        "name": "우리동내정육정식당",
        "latitude": 37.3668133729181,
        "longitude": 126.805773853929,
        "address": "경기 시흥시 군자동 805-2",
        "road_address": "경기 시흥시 능곡군자6길 9",
        "phone": "031-318-7429",
        "category": "음식점 > 한식 > 육류,고기",
        "distance": "4010"
      }
    ]
  }
}