{
  "key": "bc532b01fc452d7da536c9a387eb8bb575f4626519ab72bc0dd3aacb43967752",
  "tool": "PlaceSearch_kakao",
  "created_at": "2025-10-27T15:48:52.222650",
  "input_params": {
    "keyword": "애플 매장",
    "sort": "distance",
    "x": 127.039214,
    "y": 37.497889
  },
  "raw_args": {
    "keyword": "애플 매장",
    "sort": "distance",
    "x": 127.039214,
    "y": 37.497889
  },
  "data": {
    "keyword": "애플 매장",
    "total_count": 2671,
    "places": [
      {
        "name": "애플크린",
        "latitude": 37.4985329956728,
        "longitude": 127.038463288802,
        "address": "서울 강남구 역삼동 726-15",
        "road_address": "서울 강남구 논현로 428",
        "phone": "",
        "category": "서비스,산업 > 전문대행 > 청소대행",
        "distance": "97"
      },
      {
        "name": "애플테라스",
        "latitude": 37.4959295900398,
        "longitude": 127.03688556990289,
        "address": "서울 강남구 역삼동 748-26",
        "road_address": "서울 강남구 역삼로19길 9",
        "phone": "",
        "category": "서비스,산업 > 건설,건축 > 인테리어",
        "distance": "299"
      },
      {
        "name": "애플원룸텔 역삼점",
        "latitude": 37.5000528633745,
        "longitude": 127.04150844295,
        "address": "서울 강남구 역삼동 723-17",
        "road_address": "서울 강남구 언주로85길 23-12",
        "phone": "02-566-1288",
        "category": "부동산 > 주거시설 > 고시원,고시텔",
        "distance": "314"
      },
      {
        "name": "애플아로마",
        "latitude": 37.4985665012015,
        "longitude": 127.035025447402,
        "address": "서울 강남구 역삼동 736-24",
        "road_address": "서울 강남구 테헤란로20길 19",
        "phone": "",
        "category": "가정,생활 > 미용 > 피부관리",
        "distance": "377"
      },
      {
        "name": "애플",
        "latitude": 37.5012982208869,
        "longitude": 127.041029624075,
        "address": "서울 강남구 역삼동 719-18",
        "road_address": "서울 강남구 언주로87길 24",
        "phone": "010-3144-1175",
        "category": "가정,생활 > 유흥시설 > 유흥주점",
        "distance": "411"
      },
      {
        "name": "애플컴퓨터맥북에어수리 역삼점",
        "latitude": 37.5016297346539,
        "longitude": 127.035651146498,
        "address": "서울 강남구 역삼동 642-1",
        "road_address": "서울 강남구 테헤란로25길 20",
        "phone": "",
        "category": "가정,생활 > 전자제품 > 전자제품서비스센터 > 컴퓨터수리",
        "distance": "521"
      },
      {
        "name": "애플체리에듀",
        "latitude": 37.4980624615923,
        "longitude": 127.033211301409,
        "address": "서울 강남구 역삼동 823-33",
        "road_address": "서울 강남구 논현로85길 58",
        "phone": "02-501-2333",
        "category": "서비스,산업 > 전문대행 > 유학,어학연수",
        "distance": "531"
      },
      {
        "name": "사운즈오브애플 강남",
        "latitude": 37.4983185074689,
        "longitude": 127.032636932434,
        "address": "서울 강남구 역삼동 823-40",
        "road_address": "서울 강남구 테헤란로10길 11",
        "phone": "",
        "category": "음식점 > 카페",
        "distance": "583"
      },
      {
        "name": "애플 공인중개사사무소",
        "latitude": 37.491399757716,
        "longitude": 127.041042301335,
        "address": "서울 강남구 도곡동 963",
        "road_address": "서울 강남구 논현로 213",
        "phone": "",
        "category": "부동산 > 부동산서비스 > 부동산중개업소",
        "distance": "738"
      },
      {
        "name": "KT 애플 공인 AS센터 강남점",
        "latitude": 37.49861270380347,
        "longitude": 127.0308955125936,
        "address": "서울 강남구 역삼동 824-20",
        "road_address": "서울 강남구 테헤란로 120",
        "phone": "02-557-0267",
        "category": "가정,생활 > 전자제품 > 전자제품서비스센터 > 통신기기수리",
        "distance": "739"
      },
      {
        "name": "살구커피하우스",
        "latitude": 37.4910528981118,
        "longitude": 127.038274008038,
        "address": "서울 강남구 도곡동 545-2",
        "road_address": "서울 강남구 도곡로18길 5",
        "phone": "070-4105-5550",
        "category": "음식점 > 카페 > 커피전문점",
        "distance": "762"
      },
      {
        "name": "애플뮤직",
        "latitude": 37.503472061874646,
        "longitude": 127.03335167319348,
        "address": "서울 강남구 역삼동 626-31",
        "road_address": "서울 강남구 논현로99길 24",
        "phone": "02-2263-2616",
        "category": "문화,예술 > 음악 > 음반,레코드샵",
        "distance": "807"
      },
      {
        "name": "애플24시응급센터",
        "latitude": 37.4951943582696,
        "longitude": 127.030613660089,
        "address": "서울 강남구 역삼동 826-37",
        "road_address": "서울 강남구 테헤란로4길 46",
        "phone": "02-565-3119",
        "category": "가정,생활 > 전자제품 > 전자제품서비스센터 > 휴대폰수리",
        "distance": "817"
      },
      {
        "name": "애플네일",
        "latitude": 37.4959440809299,
        "longitude": 127.030283762299,
        "address": "서울 강남구 역삼동 826-34",
        "road_address": "서울 강남구 테헤란로4길 38-4",
        "phone": "",
        "category": "가정,생활 > 미용 > 네일샵",
        "distance": "818"
      },
      {
        "name": "선릉애플치과의원",
        "latitude": 37.5036987618868,
        "longitude": 127.045247126453,
        "address": "서울 강남구 역삼동 702-13",
        "road_address": "서울 강남구 테헤란로 313",
        "phone": "02-538-3694",
        "category": "의료,건강 > 병원 > 치과",
        "distance": "837"
      }
    ]
  }
}