{
  "key": "9d092b8edcda8e1a8dd536226648cf947e595f0ddda21a91b6a59120aff8bc35",
  "tool": "CategorySearch_kakao",
  "created_at": "2025-10-20T12:50:25.316027",
  "input_params": {
    "category": "CE7",
    "radius": 1000,
    "size": 10,
    "x": 126.978689,
    "y": 37.566562
  },
  "raw_args": {
    "category": "CE7",
    "x": 126.978689,
    "y": 37.566562,
    "radius": 1000,
    "size": 10
  },
  "data": {
    "category": "CE7",
    "total_count": 988,
    "places": [
      {
        "name": "놀숲 종로관철점",
        "latitude": 37.56924729467428,
        "longitude": 126.98701096148542,
        "address": "서울 종로구 관철동 7-5",
        "phone": "02-730-2049",
        "distance": "793"
      },
      {
        "name": "벌툰 인더스트리얼 종각점",
        "latitude": 37.56965274898378,
        "longitude": 126.98706862044833,
        "address": "서울 종로구 관철동 6-5",
        "phone": "02-739-5367",
        "distance": "815"
      },
      {
        "name": "레드버튼 종로점",
        "latitude": 37.569449085306,
        "longitude": 126.986720016475,
        "address": "서울 종로구 관철동 13-1",
        "phone": "02-733-3799",
        "distance": "778"
      },
      {
        "name": "적당",
        "latitude": 37.566527245158646,
        "longitude": 126.98081427481779,
        "address": "서울 중구 을지로1가 87",
        "phone": "070-7543-8928",
        "distance": "188"
      },
      {
        "name": "덕수궁 리에제와플",
        "latitude": 37.5647929393394,
        "longitude": 126.976452473606,
        "address": "서울 중구 태평로2가 365",
        "phone": "02-318-5202",
        "distance": "278"
      },
      {
        "name": "벌툰 몽유도원명동점",
        "latitude": 37.5605722740322,
        "longitude": 126.985071411592,
        "address": "서울 중구 남산동1가 1-2",
        "phone": "0507-1425-2900",
        "distance": "871"
      },
      {
        "name": "더스팟 패뷸러스",
        "latitude": 37.5623324834706,
        "longitude": 126.982601390472,
        "address": "서울 중구 명동2가 105",
        "phone": "02-779-1981",
        "distance": "583"
      },
      {
        "name": "포비 광화문점",
        "latitude": 37.5707345233255,
        "longitude": 126.97865114278854,
        "address": "서울 종로구 청진동 246",
        "phone": "02-2251-8125",
        "distance": "463"
      },
      {
        "name": "카페이마",
        "latitude": 37.5697306216335,
        "longitude": 126.977610035652,
        "address": "서울 종로구 세종로 139-8",
        "phone": "02-2020-2088",
        "distance": "364"
      },
      {
        "name": "커피스니퍼",
        "latitude": 37.56336973604095,
        "longitude": 126.97839178643756,
        "address": "서울 중구 북창동 11-3",
        "phone": "0503-7152-5276",
        "distance": "355"
      }
    ]
  }
}