{
  "key": "81c78246b897853d0ee2d0af4b6011b6fa33105c1a763cded56a698f27ba76ee",
  "tool": "PlaceSearch_kakao",
  "created_at": "2025-10-26T12:20:39.813574",
  "input_params": {
    "keyword": "빙수",
    "radius": 1000,
    "size": 15,
    "sort": "distance",
    "x": 127.0276,
    "y": 37.4979
  },
  "raw_args": {
    "keyword": "빙수",
    "x": 127.0276,
    "y": 37.4979,
    "radius": 1000,
    "sort": "distance",
    "size": 15
  },
  "data": {
    "keyword": "빙수",
    "total_count": 19,
    "places": [
      {
        "name": "고디바 삼성타운점",
        "latitude": 37.4958330047953,
        "longitude": 127.027637567435,
        "address": "서울 서초구 서초동 1327-3",
        "road_address": "서울 서초구 서초대로78길 22",
        "phone": "02-517-3975",
        "category": "음식점 > 간식 > 초콜릿",
        "distance": "229"
      },
      {
        "name": "롯데리아 강남역SELECT점",
        "latitude": 37.495277932335,
        "longitude": 127.027860135405,
        "address": "서울 서초구 서초동 1327-8",
        "road_address": "서울 서초구 서초대로78길 28",
        "phone": "02-3472-4997",
        "category": "음식점 > 패스트푸드 > 롯데리아",
        "distance": "292"
      },
      {
        "name": "장꼬방",
        "latitude": 37.498331428974,
        "longitude": 127.023807097178,
        "address": "서울 서초구 서초동 1316",
        "road_address": "서울 서초구 강남대로61길 27",
        "phone": "02-597-5511",
        "category": "음식점 > 카페 > 테마카페 > 디저트카페",
        "distance": "338"
      },
      {
        "name": "설빙 강남역점",
        "latitude": 37.50113103589973,
        "longitude": 127.02714644191718,
        "address": "서울 강남구 역삼동 619-18",
        "road_address": "서울 강남구 테헤란로1길 42",
        "phone": "02-558-7708",
        "category": "음식점 > 카페 > 테마카페 > 디저트카페 > 설빙",
        "distance": "360"
      },
      {
        "name": "백미당 강남358타워점",
        "latitude": 37.4950576145646,
        "longitude": 127.029794889402,
        "address": "서울 강남구 역삼동 826-14",
        "road_address": "서울 강남구 강남대로 358",
        "phone": "02-558-1230",
        "category": "음식점 > 간식 > 아이스크림",
        "distance": "370"
      },
      {
        "name": "고디바 강남점",
        "latitude": 37.502167741866884,
        "longitude": 127.0246406788563,
        "address": "서울 서초구 서초동 1309-9",
        "road_address": "서울 서초구 서초대로77길 55",
        "phone": "02-6284-2110",
        "category": "음식점 > 간식 > 초콜릿",
        "distance": "541"
      },
      {
        "name": "카페16온스 역삼점",
        "latitude": 37.4981875307888,
        "longitude": 127.033812979016,
        "address": "서울 강남구 역삼동 735-17",
        "road_address": "서울 강남구 논현로85길 52",
        "phone": "",
        "category": "음식점 > 카페",
        "distance": "550"
      },
      {
        "name": "빙동댕 강남역점",
        "latitude": 37.4941560631346,
        "longitude": 127.03188087210312,
        "address": "서울 강남구 역삼동 830-27",
        "road_address": "서울 강남구 역삼로3길 8",
        "phone": "",
        "category": "음식점 > 카페",
        "distance": "562"
      },
      {
        "name": "본부케",
        "latitude": 37.5030692402211,
        "longitude": 127.02652625623,
        "address": "서울 강남구 역삼동 810-10",
        "road_address": "서울 강남구 강남대로106길 11",
        "phone": "02-567-3365",
        "category": "음식점 > 카페",
        "distance": "581"
      },
      {
        "name": "까치화방 강남역점",
        "latitude": 37.503303460371576,
        "longitude": 127.02670955234811,
        "address": "서울 강남구 역삼동 811-13",
        "road_address": "서울 강남구 봉은사로4길 23",
        "phone": "02-558-5533",
        "category": "음식점 > 카페 > 테마카페 > 디저트카페",
        "distance": "604"
      },
      {
        "name": "살롱드파이브",
        "latitude": 37.50259519306629,
        "longitude": 127.02277477603586,
        "address": "서울 서초구 서초동 1302-36",
        "road_address": "서울 서초구 서운로26길 9",
        "phone": "02-6911-5550",
        "category": "음식점 > 카페",
        "distance": "673"
      },
      {
        "name": "보스케",
        "latitude": 37.4924119793744,
        "longitude": 127.030879388931,
        "address": "서울 강남구 역삼동 832-4",
        "road_address": "서울 강남구 강남대로 328",
        "phone": "02-6013-1147",
        "category": "음식점 > 카페",
        "distance": "674"
      },
      {
        "name": "프레임바이로찌",
        "latitude": 37.503834421735,
        "longitude": 127.025491704022,
        "address": "서울 강남구 역삼동 809-3",
        "road_address": "서울 강남구 봉은사로2길 12",
        "phone": "02-567-1033",
        "category": "음식점 > 카페",
        "distance": "684"
      },
      {
        "name": "커피일루",
        "latitude": 37.4965129073865,
        "longitude": 127.035693947676,
        "address": "서울 강남구 역삼동 749",
        "road_address": "서울 강남구 논현로75길 37",
        "phone": "",
        "category": "음식점 > 카페 > 커피전문점",
        "distance": "731"
      },
      {
        "name": "달롱도르요거트아이스크림 역삼점",
        "latitude": 37.4909828215779,
        "longitude": 127.031486018816,
        "address": "서울 강남구 역삼동 837-11",
        "road_address": "서울 강남구 강남대로 310",
        "phone": "",
        "category": "음식점 > 카페 > 테마카페 > 디저트카페 > 달롱도르요거트아이스크림",
        "distance": "840"
      }
    ]
  }
}