{
  "key": "bb78ac350c6f18248969b0a9ad8e9373ea9cef3fce7afa66a3ed83dac384f4d0",
  "tool": "PlaceSearch_kakao",
  "created_at": "2025-10-27T02:14:17.038099",
  "input_params": {
    "keyword": "애플 매장",
    "page": 1,
    "size": 5,
    "sort": "accuracy",
    "x": 127.035151,
    "y": 37.507213
  },
  "raw_args": {
    "keyword": "애플 매장",
    "x": 127.035151,
    "y": 37.507213,
    "page": 1,
    "size": 5
  },
  "data": {
    "keyword": "애플 매장",
    "total_count": 2669,
    "places": [
      {
        "name": "Apple 강남",
        "latitude": 37.5036902997713,
        "longitude": 127.025310702725,
        "address": "서울 강남구 역삼동 809",
        "road_address": "서울 강남구 강남대로 464",
        "phone": "080-500-0456",
        "category": "가정,생활 > 전자제품 > 전자제품서비스센터 > 통신기기수리 > Apple 공인서비스센터",
        "distance": "953"
      },
      {
        "name": "Apple 가로수길",
        "latitude": 37.520819816124934,
        "longitude": 127.02272940977892,
        "address": "서울 강남구 신사동 534-19",
        "road_address": "서울 강남구 가로수길 43",
        "phone": "080-500-0029",
        "category": "가정,생활 > 전자제품 > 전자제품서비스센터 > 통신기기수리 > Apple 공인서비스센터",
        "distance": "1867"
      },
      {
        "name": "애플",
        "latitude": 37.5012982208869,
        "longitude": 127.041029624075,
        "address": "서울 강남구 역삼동 719-18",
        "road_address": "서울 강남구 언주로87길 24",
        "phone": "010-3144-1175",
        "category": "가정,생활 > 유흥시설 > 유흥주점",
        "distance": "837"
      },
      {
        "name": "애플공인서비스센터 유베이스 코엑스센터",
        "latitude": 37.51217452148478,
        "longitude": 127.05946086642447,
        "address": "서울 강남구 삼성동 159",
        "road_address": "서울 강남구 영동대로 513",
        "phone": "1566-8514",
        "category": "가정,생활 > 전자제품 > 전자제품서비스센터 > 통신기기수리 > Apple 공인서비스센터",
        "distance": "2218"
      },
      {
        "name": "애플공인서비스센터 프리스비 신세계강남점",
        "latitude": 37.50479216108638,
        "longitude": 127.0042637512257,
        "address": "서울 서초구 반포동 19-3",
        "road_address": "서울 서초구 신반포로 176",
        "phone": "1688-0476",
        "category": "가정,생활 > 전자제품 > 전자제품서비스센터 > 통신기기수리 > Apple 공인서비스센터",
        "distance": "2744"
      }
    ]
  }
}