{
  "key": "b9917a485412b5ff8e50b5382b8ca5953b9230a205499cff5e5d0293d7085024",
  "tool": "PlaceSearch_kakao",
  "created_at": "2025-10-15T01:44:14.170576",
  "input_params": {
    "keyword": "대학교",
    "radius": 2000,
    "sort": "distance",
    "x": 127.0469,
    "y": 37.5802
  },
  "raw_args": {
    "keyword": "대학교",
    "x": 127.0469,
    "y": 37.5802,
    "radius": 2000,
    "sort": "distance"
  },
  "data": {
    "keyword": "대학교",
    "total_count": 504,
    "places": [
      {
        "name": "카톨릭대학약국",
        "latitude": 37.579551697242124,
        "longitude": 127.0439910760298,
        "address": "서울 동대문구 전농동 620-15",
        "road_address": "서울 동대문구 왕산로 186",
        "phone": "02-957-9550",
        "category": "의료,건강 > 약국",
        "distance": "266"
      },
      {
        "name": "서울시립대학교 시대탑",
        "latitude": 37.5835633676407,
        "longitude": 127.053788875994,
        "address": "서울 동대문구 전농동 150-84",
        "road_address": "",
        "phone": "",
        "category": "여행 > 관광,명소 > 문화유적 > 탑,비석",
        "distance": "713"
      },
      {
        "name": "서울시립대학교 정문",
        "latitude": 37.5834771622868,
        "longitude": 127.055113438416,
        "address": "서울 동대문구 전농동 694",
        "road_address": "서울 동대문구 서울시립대로 163",
        "phone": "",
        "category": "교통,수송 > 입출구",
        "distance": "811"
      },
      {
        "name": "수산노인대학",
        "latitude": 37.5787021816403,
        "longitude": 127.056416345149,
        "address": "서울 동대문구 전농동 183-6",
        "road_address": "서울 동대문구 전농로29길 97",
        "phone": "02-2212-3437",
        "category": "교육,학문 > 교육단체 > 평생교육원,사회교육원",
        "distance": "856"
      },
      {
        "name": "대학빌딩 주차장",
        "latitude": 37.577377953075526,
        "longitude": 127.03776343774763,
        "address": "서울 동대문구 용두동 45-10",
        "road_address": "",
        "phone": "",
        "category": "교통,수송 > 교통시설 > 주차장",
        "distance": "865"
      },
      {
        "name": "서울시립대학교 법학관",
        "latitude": 37.5820664335478,
        "longitude": 127.056538890157,
        "address": "서울 동대문구 전농동 694",
        "road_address": "서울 동대문구 서울시립대로 163",
        "phone": "02-6490-6114",
        "category": "교육,학문 > 학교부속시설",
        "distance": "876"
      },
      {
        "name": "서울시립대학교 법학전문대학원",
        "latitude": 37.5820808429301,
        "longitude": 127.056552486691,
        "address": "서울 동대문구 전농동 694",
        "road_address": "서울 동대문구 서울시립대로 163",
        "phone": "02-6490-5068",
        "category": "교육,학문 > 학교 > 대학원",
        "distance": "877"
      },
      {
        "name": "서울시립대학교 웰니스센터",
        "latitude": 37.5823475564096,
        "longitude": 127.056511931381,
        "address": "서울 동대문구 전농동 694",
        "road_address": "서울 동대문구 서울시립대로 163",
        "phone": "02-6490-5165",
        "category": "교육,학문 > 학교부속시설",
        "distance": "881"
      },
      {
        "name": "서울시립대학교 캠퍼스타운사업단",
        "latitude": 37.5840562521389,
        "longitude": 127.055643719213,
        "address": "서울 동대문구 전농동 694",
        "road_address": "서울 동대문구 서울시립대로 163",
        "phone": "",
        "category": "교육,학문 > 학교부속시설",
        "distance": "882"
      },
      {
        "name": "서울시립대학교 100주년기념관",
        "latitude": 37.58413916908455,
        "longitude": 127.05558943688139,
        "address": "서울 동대문구 전농동 694",
        "road_address": "서울 동대문구 서울시립대로 163",
        "phone": "",
        "category": "교육,학문 > 학교부속시설",
        "distance": "883"
      },
      {
        "name": "서울시립대학교 100주년 기념관 지하1층 주차장",
        "latitude": 37.5841662068658,
        "longitude": 127.055572474465,
        "address": "서울 동대문구 전농동 694",
        "road_address": "서울 동대문구 서울시립대로 163",
        "phone": "",
        "category": "교통,수송 > 교통시설 > 주차장",
        "distance": "883"
      },
      {
        "name": "서울시립대학교 100주년기념관 이룸라운지",
        "latitude": 37.5842112628964,
        "longitude": 127.055558921933,
        "address": "서울 동대문구 전농동 694",
        "road_address": "서울 동대문구 서울시립대로 163",
        "phone": "",
        "category": "교육,학문 > 학교부속시설",
        "distance": "884"
      },
      {
        "name": "서울시립대학교 주차장12",
        "latitude": 37.5841535700367,
        "longitude": 127.055621148291,
        "address": "서울 동대문구 휘경동 304",
        "road_address": "",
        "phone": "",
        "category": "교통,수송 > 교통시설 > 주차장",
        "distance": "886"
      },
      {
        "name": "서울시립대학교 창업지원단",
        "latitude": 37.5842517969192,
        "longitude": 127.055581595445,
        "address": "서울 동대문구 휘경동 370",
        "road_address": "서울 동대문구 서울시립대로 163",
        "phone": "02-6490-6741",
        "category": "교육,학문 > 학교부속시설",
        "distance": "888"
      },
      {
        "name": "한울F&S 서울시립대학교",
        "latitude": 37.5843464320595,
        "longitude": 127.055515999899,
        "address": "서울 동대문구 전농동 694",
        "road_address": "서울 동대문구 서울시립대로 163",
        "phone": "",
        "category": "음식점 > 구내식당",
        "distance": "889"
      }
    ]
  }
}