{
  "key": "b9b48f46d3a7b7185e46a63489e691c51eeecbcbfaec87a177a9c2c4dee503b0",
  "tool": "PlaceSearch_kakao",
  "created_at": "2025-12-14T13:50:33.300483",
  "input_params": {
    "keyword": "디저트 카페",
    "radius": 1000,
    "size": 5,
    "sort": "distance",
    "x": 127.02800140627488,
    "y": 37.49808633653005
  },
  "raw_args": {
    "x": 127.02800140627488,
    "y": 37.49808633653005,
    "sort": "distance",
    "keyword": "디저트 카페",
    "size": 5,
    "radius": 1000
  },
  "data": {
    "keyword": "디저트 카페",
    "total_count": 86,
    "places": [
      {
        "name": "앤디캔디솜사탕",
        "latitude": 37.4982658880851,
        "longitude": 127.026920361572,
        "address": "서울 서초구 서초동 1318-8",
        "road_address": "서울 서초구 강남대로 399",
        "phone": "02-765-3837",
        "category": "음식점 > 카페 > 테마카페 > 디저트카페",
        "distance": "97"
      },
      {
        "name": "레이지레이디 케이크",
        "latitude": 37.497630184743244,
        "longitude": 127.02900657088206,
        "address": "서울 강남구 역삼동 825-20",
        "road_address": "서울 강남구 테헤란로4길 6",
        "phone": "02-554-8222",
        "category": "음식점 > 카페 > 테마카페 > 디저트카페",
        "distance": "102"
      },
      {
        "name": "스타벅스 강남역신분당역사점",
        "latitude": 37.49701321401818,
        "longitude": 127.02810165133745,
        "address": "서울 강남구 역삼동 858",
        "road_address": "",
        "phone": "1522-3232",
        "category": "음식점 > 카페 > 커피전문점 > 스타벅스",
        "distance": "119"
      },
      {
        "name": "비유어거트",
        "latitude": 37.4977274262053,
        "longitude": 127.029279146213,
        "address": "서울 강남구 역삼동 825-20",
        "road_address": "서울 강남구 테헤란로4길 6",
        "phone": "0503-5260-5027",
        "category": "음식점 > 카페 > 테마카페 > 디저트카페",
        "distance": "119"
      },
      {
        "name": "디저트39 강남 테헤란로점",
        "latitude": 37.4977283224454,
        "longitude": 127.029298371216,
        "address": "서울 강남구 역삼동 825-20",
        "road_address": "서울 강남구 테헤란로4길 6",
        "phone": "02-555-0390",
        "category": "음식점 > 카페 > 테마카페 > 디저트카페 > 디저트39",
        "distance": "121"
      }
    ]
  }
}