{
  "key": "b9ee30d2cfda6c34945848e658ae9eb120345529fc77cbac9d730f3d2bd2d123",
  "tool": "PlaceSearch_kakao",
  "created_at": "2025-10-13T14:44:39.910845",
  "input_params": {
    "keyword": "카페",
    "radius": 1000,
    "sort": "accuracy",
    "x": 126.785172,
    "y": 37.380152
  },
  "raw_args": {
    "keyword": "카페",
    "x": 126.785172,
    "y": 37.380152,
    "radius": 1000,
    "sort": "accuracy"
  },
  "data": {
    "keyword": "카페",
    "total_count": 66,
    "places": [
      {
        "name": "스타벅스 시흥장현점",
        "latitude": 37.378183022422014,
        "longitude": 126.78924102869412,
        "address": "경기 시흥시 장곡동 932-5",
        "road_address": "경기 시흥시 황고개로 530",
        "phone": "1522-3232",
        "category": "음식점 > 카페 > 커피전문점 > 스타벅스",
        "distance": "421"
      },
      {
        "name": "메가MGC커피 시흥장곡점",
        "latitude": 37.3783813342576,
        "longitude": 126.784291779791,
        "address": "경기 시흥시 장곡동 816-7",
        "road_address": "경기 시흥시 진말로9번길 12",
        "phone": "031-404-4060",
        "category": "음식점 > 카페 > 커피전문점 > 메가MGC커피",
        "distance": "211"
      },
      {
        "name": "KKO파티 베이커리카페 시흥점",
        "latitude": 37.382311728451945,
        "longitude": 126.78044714501686,
        "address": "경기 시흥시 장곡동 857",
        "road_address": "경기 시흥시 인선길 128",
        "phone": "",
        "category": "음식점 > 카페",
        "distance": "482"
      },
      {
        "name": "공차 시흥장현점",
        "latitude": 37.37857753171303,
        "longitude": 126.7891631480882,
        "address": "경기 시흥시 장곡동 932-3",
        "road_address": "경기 시흥시 황고개로 536",
        "phone": "031-312-0332",
        "category": "음식점 > 카페 > 공차",
        "distance": "394"
      },
      {
        "name": "컴포즈커피 시흥장곡메디프라자점",
        "latitude": 37.378917276082696,
        "longitude": 126.78919606922766,
        "address": "경기 시흥시 장곡동 932-2",
        "road_address": "경기 시흥시 장현장곡로 2",
        "phone": "070-8648-2887",
        "category": "음식점 > 카페 > 커피전문점 > 컴포즈커피",
        "distance": "381"
      },
      {
        "name": "버터스케치 (휴업중)",
        "latitude": 37.3801020759245,
        "longitude": 126.78516528436,
        "address": "경기 시흥시 장곡동 392",
        "road_address": "경기 시흥시 진말로 35",
        "phone": "031-317-9177",
        "category": "음식점 > 카페 > 테마카페 > 디저트카페",
        "distance": "5"
      },
      {
        "name": "카페테라스",
        "latitude": 37.379008504743304,
        "longitude": 126.78432385579393,
        "address": "경기 시흥시 장곡동 816-1",
        "road_address": "경기 시흥시 진말로9번길 12-10",
        "phone": "",
        "category": "음식점 > 카페",
        "distance": "147"
      },
      {
        "name": "컴포즈커피 시흥장곡점",
        "latitude": 37.3782097249054,
        "longitude": 126.783079657786,
        "address": "경기 시흥시 장곡동 810-2",
        "road_address": "경기 시흥시 장곡로49번길 14",
        "phone": "031-404-2225",
        "category": "음식점 > 카페 > 커피전문점 > 컴포즈커피",
        "distance": "284"
      },
      {
        "name": "개성애견카페 애견호텔 애견놀이방",
        "latitude": 37.37701529176619,
        "longitude": 126.78622635889243,
        "address": "경기 시흥시 장곡동 904-2",
        "road_address": "경기 시흥시 인선길 21",
        "phone": "010-4782-8021",
        "category": "음식점 > 카페 > 테마카페 > 애견카페",
        "distance": "360"
      },
      {
        "name": "빽다방 시흥장곡공원점",
        "latitude": 37.3780996353888,
        "longitude": 126.783974191312,
        "address": "경기 시흥시 장곡동 817-1",
        "road_address": "경기 시흥시 진말로9번길 15",
        "phone": "070-4009-3311",
        "category": "음식점 > 카페 > 커피전문점 > 빽다방",
        "distance": "251"
      },
      {
        "name": "설빙 경기시흥장곡점",
        "latitude": 37.378259452031365,
        "longitude": 126.78915274785541,
        "address": "경기 시흥시 장곡동 932-5",
        "road_address": "경기 시흥시 황고개로 530",
        "phone": "031-313-4237",
        "category": "음식점 > 카페 > 테마카페 > 디저트카페 > 설빙",
        "distance": "410"
      },
      {
        "name": "메가MGC커피 시흥장현점",
        "latitude": 37.377680943702245,
        "longitude": 126.78912388284796,
        "address": "경기 시흥시 장곡동 932-7",
        "road_address": "경기 시흥시 황고개로 526",
        "phone": "031-312-7570",
        "category": "음식점 > 카페 > 커피전문점 > 메가MGC커피",
        "distance": "444"
      },
      {
        "name": "이디야커피 시흥장곡점",
        "latitude": 37.378054485467686,
        "longitude": 126.78392012590486,
        "address": "경기 시흥시 장곡동 817-1",
        "road_address": "경기 시흥시 진말로9번길 15",
        "phone": "031-317-0872",
        "category": "음식점 > 카페 > 커피전문점 > 이디야커피",
        "distance": "257"
      },
      {
        "name": "요거트월드 시흥장현점",
        "latitude": 37.3779244179883,
        "longitude": 126.789234977982,
        "address": "경기 시흥시 장곡동 932-6",
        "road_address": "경기 시흥시 황고개로 528",
        "phone": "",
        "category": "음식점 > 카페 > 테마카페 > 디저트카페 > 요거트월드",
        "distance": "436"
      },
      {
        "name": "더벤티 시흥장곡점",
        "latitude": 37.37954331811943,
        "longitude": 126.78410779852268,
        "address": "경기 시흥시 장곡동",
        "road_address": "경기 시흥시 장곡1로 15",
        "phone": "070-7576-1800",
        "category": "음식점 > 카페 > 커피전문점 > 더벤티",
        "distance": "115"
      }
    ]
  }
}