{
  "key": "0254b0d2c9fd19d952e6b9c2bf829672d8f0728e896e893c6585b9df5a9bf14b",
  "tool": "PlaceSearch_kakao",
  "created_at": "2025-10-27T04:01:41.842202",
  "input_params": {
    "keyword": "대학교",
    "page": 1,
    "size": 5,
    "sort": "accuracy",
    "x": 127.0338,
    "y": 37.6112
  },
  "raw_args": {
    "keyword": "대학교",
    "x": 127.0338,
    "y": 37.6112,
    "page": 1,
    "size": 5
  },
  "data": {
    "keyword": "대학교",
    "total_count": 26288,
    "places": [
      {
        "name": "동덕여자대학교",
        "latitude": 37.6069903921957,
        "longitude": 127.041812418483,
        "address": "서울 성북구 하월곡동 23-1",
        "road_address": "서울 성북구 화랑로13길 60",
        "phone": "02-940-4000",
        "category": "교육,학문 > 학교 > 대학교",
        "distance": "847"
      },
      {
        "name": "서경대학교",
        "latitude": 37.61537353959452,
        "longitude": 127.01335157441319,
        "address": "서울 성북구 정릉동 산 16-1",
        "road_address": "서울 성북구 서경로 124",
        "phone": "02-940-7114",
        "category": "교육,학문 > 학교 > 대학교",
        "distance": "1863"
      },
      {
        "name": "한국예술종합학교 석관동캠퍼스",
        "latitude": 37.60656959296795,
        "longitude": 127.05697079689453,
        "address": "서울 성북구 석관동 409",
        "road_address": "서울 성북구 화랑로32길 146-37",
        "phone": "02-746-9000",
        "category": "교육,학문 > 학교 > 대학교",
        "distance": "2109"
      },
      {
        "name": "경희대학교 서울캠퍼스",
        "latitude": 37.5971656623384,
        "longitude": 127.05173889409078,
        "address": "서울 동대문구 회기동 1-5",
        "road_address": "서울 동대문구 경희대로 26",
        "phone": "02-961-0114",
        "category": "교육,학문 > 학교 > 대학교",
        "distance": "2221"
      },
      {
        "name": "고려대학교 서울캠퍼스",
        "latitude": 37.589526761187834,
        "longitude": 127.03231892661324,
        "address": "서울 성북구 안암동5가 1-2",
        "road_address": "서울 성북구 안암로 145",
        "phone": "02-3290-1114",
        "category": "교육,학문 > 학교 > 대학교",
        "distance": "2408"
      }
    ]
  }
}