{
  "key": "8b385320439740afadecd990f84c73537eee76dfa2a6b02921906941e03b28e0",
  "tool": "PlaceSearch_kakao",
  "created_at": "2025-10-21T04:39:46.000153",
  "input_params": {
    "keyword": "시흥시청 맛집",
    "page": 1,
    "size": 15,
    "sort": "accuracy"
  },
  "raw_args": {
    "keyword": "시흥시청 맛집",
    "page": 1,
    "size": 15
  },
  "data": {
    "keyword": "시흥시청 맛집",
    "total_count": 822,
    "places": [
      {
        "name": "오 왕서방짬뽕",
        "latitude": 37.3811410423075,
        "longitude": 126.802261516649,
        "address": "경기 시흥시 장현동 547-5",
        "road_address": "경기 시흥시 새재로 19",
        "phone": "031-404-3700",
        "category": "음식점 > 중식 > 중국요리",
        "distance": ""
      },
      {
        "name": "하삼동커피 시흥시청점",
        "latitude": 37.3789129445512,
        "longitude": 126.802880453616,
        "address": "경기 시흥시 장현동 671-2",
        "road_address": "경기 시흥시 시청로 37",
        "phone": "031-311-1116",
        "category": "음식점 > 카페 > 커피전문점 > 하삼동커피",
        "distance": ""
      },
      {
        "name": "선도아구찜탕",
        "latitude": 37.3817464892232,
        "longitude": 126.802237344597,
        "address": "경기 시흥시 장현동 546-1",
        "road_address": "경기 시흥시 시청로68번길 26",
        "phone": "",
        "category": "음식점 > 한식 > 해물,생선 > 아구",
        "distance": ""
      },
      {
        "name": "삼형제시골순대",
        "latitude": 37.3814206995292,
        "longitude": 126.801389108415,
        "address": "경기 시흥시 장현동 545-1",
        "road_address": "경기 시흥시 새재로17번길 9",
        "phone": "031-317-1542",
        "category": "음식점 > 한식 > 순대",
        "distance": ""
      },
      {
        "name": "이루다제면소 시흥시청직영점",
        "latitude": 37.3785597641041,
        "longitude": 126.802352973934,
        "address": "경기 시흥시 장현동 673-2",
        "road_address": "경기 시흥시 시청전원마을길 3-1",
        "phone": "",
        "category": "음식점 > 일식 > 돈까스,우동",
        "distance": ""
      },
      {
        "name": "빽다방 시흥시청점",
        "latitude": 37.37902764329338,
        "longitude": 126.80358356744095,
        "address": "경기 시흥시 장현동 671-4",
        "road_address": "경기 시흥시 시청로 33",
        "phone": "070-8770-4793",
        "category": "음식점 > 카페 > 커피전문점 > 빽다방",
        "distance": ""
      },
      {
        "name": "김가네낙지",
        "latitude": 37.3808977443241,
        "longitude": 126.80117369971,
        "address": "경기 시흥시 장현동 544-5",
        "road_address": "경기 시흥시 새재로7번길 6-1",
        "phone": "031-317-0688",
        "category": "음식점 > 한식 > 해물,생선",
        "distance": ""
      },
      {
        "name": "마주생태탕",
        "latitude": 37.3820033134277,
        "longitude": 126.800646869127,
        "address": "경기 시흥시 장현동 533-2",
        "road_address": "경기 시흥시 새재로17번길 19",
        "phone": "031-317-1500",
        "category": "음식점 > 한식 > 해물,생선 > 매운탕,해물탕",
        "distance": ""
      },
      {
        "name": "라스베이글 시흥시청지점",
        "latitude": 37.3789489796679,
        "longitude": 126.802876972082,
        "address": "경기 시흥시 장현동 671-2",
        "road_address": "경기 시흥시 시청로 37",
        "phone": "",
        "category": "음식점 > 카페",
        "distance": ""
      },
      {
        "name": "장현족발",
        "latitude": 37.38091144937925,
        "longitude": 126.80128657389537,
        "address": "경기 시흥시 장현동 544-5",
        "road_address": "경기 시흥시 새재로7번길 6-1",
        "phone": "031-317-8989",
        "category": "음식점 > 한식 > 육류,고기 > 족발,보쌈",
        "distance": ""
      },
      {
        "name": "커피와케이크",
        "latitude": 37.3820583096863,
        "longitude": 126.801202251008,
        "address": "경기 시흥시 장현동 532-4",
        "road_address": "경기 시흥시 시청로72번길 21",
        "phone": "010-4040-4259",
        "category": "음식점 > 카페",
        "distance": ""
      },
      {
        "name": "고기듬뿍대왕비빔밥",
        "latitude": 37.3817659602567,
        "longitude": 126.802027277795,
        "address": "경기 시흥시 장현동 546-1",
        "road_address": "경기 시흥시 시청로68번길 26",
        "phone": "031-506-3959",
        "category": "음식점 > 한식",
        "distance": ""
      },
      {
        "name": "돈카츠지공",
        "latitude": 37.38157161147612,
        "longitude": 126.80111546493227,
        "address": "경기 시흥시 장현동 534-1",
        "road_address": "경기 시흥시 시청로72번길 16",
        "phone": "031-317-3964",
        "category": "음식점 > 일식 > 돈까스,우동",
        "distance": ""
      },
      {
        "name": "빅스나인 시흥시청점",
        "latitude": 37.38113537601316,
        "longitude": 126.80156825980141,
        "address": "경기 시흥시 장현동 544-2",
        "road_address": "경기 시흥시 새재로17번길 7-1",
        "phone": "",
        "category": "음식점 > 카페",
        "distance": ""
      },
      {
        "name": "우주초벌곱창",
        "latitude": 37.380238337002126,
        "longitude": 126.80125786440905,
        "address": "경기 시흥시 장현동 542",
        "road_address": "경기 시흥시 새재로 3",
        "phone": "031-315-1215",
        "category": "음식점 > 한식 > 육류,고기 > 곱창,막창",
        "distance": ""
      }
    ]
  }
}