{
  "key": "e9e4bf0558f8c9279027fcf42a63a93008fa0b1e8c48eb78d6a0c58428e4447e",
  "tool": "PlaceSearch_kakao",
  "created_at": "2025-10-26T10:37:28.647904",
  "input_params": {
    "keyword": "주차장",
    "radius": 1000,
    "sort": "accuracy",
    "x": 126.9455,
    "y": 37.4885
  },
  "raw_args": {
    "keyword": "주차장",
    "x": 126.9455,
    "y": 37.4885,
    "radius": 1000,
    "sort": "accuracy"
  },
  "data": {
    "keyword": "주차장",
    "total_count": 47,
    "places": [
      {
        "name": "한솔주차장",
        "latitude": 37.487390860262096,
        "longitude": 126.94686586048971,
        "address": "서울 관악구 봉천동 494-10",
        "road_address": "서울 관악구 양녕로 60",
        "phone": "",
        "category": "교통,수송 > 교통시설 > 주차장",
        "distance": "172"
      },
      {
        "name": "노외주차장",
        "latitude": 37.4891302716229,
        "longitude": 126.94397447699,
        "address": "서울 관악구 봉천동 1694",
        "road_address": "서울 관악구 은천로15길 25",
        "phone": "",
        "category": "교통,수송 > 교통시설 > 주차장",
        "distance": "151"
      },
      {
        "name": "은천동 공영주차장",
        "latitude": 37.486964889446,
        "longitude": 126.941576749696,
        "address": "서울 관악구 봉천동 635-663",
        "road_address": "서울 관악구 국회단지4길 32",
        "phone": "",
        "category": "교통,수송 > 교통시설 > 주차장 > 공영주차장",
        "distance": "386"
      },
      {
        "name": "메카플러스 주차장",
        "latitude": 37.48611248705799,
        "longitude": 126.94727168793511,
        "address": "서울 관악구 봉천동 463-4",
        "road_address": "서울 관악구 양녕로 46",
        "phone": "",
        "category": "교통,수송 > 교통시설 > 주차장",
        "distance": "308"
      },
      {
        "name": "봉천10동주차장",
        "latitude": 37.4863174217531,
        "longitude": 126.94813299333,
        "address": "서울 관악구 봉천동 465-8",
        "road_address": "",
        "phone": "",
        "category": "교통,수송 > 교통시설 > 주차장",
        "distance": "336"
      },
      {
        "name": "아마노 메카플러스 주차장",
        "latitude": 37.4861539957698,
        "longitude": 126.947356324108,
        "address": "서울 관악구 봉천동 463-4",
        "road_address": "서울 관악구 양녕로 46",
        "phone": "",
        "category": "교통,수송 > 교통시설 > 주차장",
        "distance": "307"
      },
      {
        "name": "은호빌딩 주차장",
        "latitude": 37.48628534229935,
        "longitude": 126.94119962866276,
        "address": "서울 관악구 봉천동 937-15",
        "road_address": "서울 관악구 은천로 51",
        "phone": "",
        "category": "교통,수송 > 교통시설 > 주차장",
        "distance": "452"
      },
      {
        "name": "국사봉체육관 주차장",
        "latitude": 37.4916051540891,
        "longitude": 126.941729181845,
        "address": "서울 관악구 봉천동 산 103-52",
        "road_address": "서울 관악구 국회단지길 142",
        "phone": "",
        "category": "교통,수송 > 교통시설 > 주차장",
        "distance": "479"
      },
      {
        "name": "관악한일유앤아이아파트 주차장",
        "latitude": 37.486967305647,
        "longitude": 126.950841700296,
        "address": "서울 관악구 봉천동 1727",
        "road_address": "",
        "phone": "",
        "category": "교통,수송 > 교통시설 > 주차장",
        "distance": "502"
      },
      {
        "name": "아마노 봉천동이레타워 주차장",
        "latitude": 37.4826608162683,
        "longitude": 126.945436696054,
        "address": "서울 관악구 봉천동 912-9",
        "road_address": "서울 관악구 봉천로 410",
        "phone": "",
        "category": "교통,수송 > 교통시설 > 주차장",
        "distance": "648"
      },
      {
        "name": "봉일스파랜드 주차장",
        "latitude": 37.4858946710452,
        "longitude": 126.938382271829,
        "address": "서울 관악구 봉천동 951-25",
        "road_address": "서울 관악구 은천로 28",
        "phone": "",
        "category": "교통,수송 > 교통시설 > 주차장",
        "distance": "692"
      },
      {
        "name": "마이네스트빌딩 주차장",
        "latitude": 37.48299771547115,
        "longitude": 126.94724886661925,
        "address": "서울 관악구 봉천동 892-16",
        "road_address": "서울 관악구 봉천로 423",
        "phone": "",
        "category": "교통,수송 > 교통시설 > 주차장",
        "distance": "630"
      },
      {
        "name": "한국공인중개사협회 주차장",
        "latitude": 37.48214250946527,
        "longitude": 126.94120739782895,
        "address": "서울 관악구 봉천동 930-42",
        "road_address": "",
        "phone": "",
        "category": "교통,수송 > 교통시설 > 주차장",
        "distance": "801"
      },
      {
        "name": "YK타워오피스텔 주차장",
        "latitude": 37.4825426070721,
        "longitude": 126.94505462809,
        "address": "서울 관악구 봉천동 912-14",
        "road_address": "서울 관악구 남부순환로 1753-8",
        "phone": "",
        "category": "교통,수송 > 교통시설 > 주차장",
        "distance": "662"
      },
      {
        "name": "정암빌딩 주차장",
        "latitude": 37.48636504539575,
        "longitude": 126.938474602124,
        "address": "서울 관악구 봉천동 952-18",
        "road_address": "서울 관악구 은천로 27",
        "phone": "",
        "category": "교통,수송 > 교통시설 > 주차장",
        "distance": "664"
      }
    ]
  }
}