{
  "key": "3078b91ac4c25458734f7225865da2868eed0068de8a21e2c56904b7def7a85d",
  "tool": "PlaceSearch_kakao",
  "created_at": "2025-10-27T16:49:01.564334",
  "input_params": {
    "keyword": "애플 매장",
    "size": 5,
    "sort": "distance",
    "x": 127.027,
    "y": 37.514
  },
  "raw_args": {
    "keyword": "애플 매장",
    "size": 5,
    "sort": "distance",
    "x": 127.027,
    "y": 37.514
  },
  "data": {
    "keyword": "애플 매장",
    "total_count": 2671,
    "places": [
      {
        "name": "애플타운아파트",
        "latitude": 37.514935641496585,
        "longitude": 127.02123341357384,
        "address": "서울 강남구 논현동 16-42",
        "road_address": "서울 강남구 강남대로146길 13",
        "phone": "",
        "category": "부동산 > 주거시설 > 아파트",
        "distance": "520"
      },
      {
        "name": "애플네이처",
        "latitude": 37.5153726136381,
        "longitude": 127.021314978602,
        "address": "서울 강남구 논현동 16-12",
        "road_address": "서울 강남구 도산대로4길 16",
        "phone": "",
        "category": "서비스,산업 > 전문대행 > 컨설팅",
        "distance": "525"
      },
      {
        "name": "강남역아이폰수리 애플퀵",
        "latitude": 37.5178438884517,
        "longitude": 127.022279434443,
        "address": "서울 강남구 신사동 514-9",
        "road_address": "서울 강남구 도산대로11길 5",
        "phone": "02-6104-0061",
        "category": "가정,생활 > 전자제품 > 전자제품서비스센터 > 휴대폰수리",
        "distance": "596"
      },
      {
        "name": "컴퓨터수리 애플맥북수리",
        "latitude": 37.5143233203321,
        "longitude": 127.034883502976,
        "address": "서울 강남구 논현동 211-20",
        "road_address": "서울 강남구 언주로 647",
        "phone": "02-561-8245",
        "category": "가정,생활 > 전자제품 > 전자제품서비스센터 > 컴퓨터수리",
        "distance": "697"
      },
      {
        "name": "애플노래타운",
        "latitude": 37.5070814194057,
        "longitude": 127.026515234802,
        "address": "서울 강남구 논현동 185-1",
        "road_address": "서울 강남구 강남대로118길 40",
        "phone": "",
        "category": "가정,생활 > 유흥시설 > 유흥주점",
        "distance": "769"
      }
    ]
  }
}