{
  "key": "be40fd8b1033d340263b632a7f2732258ef306a9e0bba743e94674f1269afb5d",
  "tool": "CategorySearch_kakao",
  "created_at": "2025-10-21T06:56:45.129375",
  "input_params": {
    "category": "CE7",
    "radius": 1500,
    "size": 15,
    "x": 126.97592,
    "y": 37.49605
  },
  "raw_args": {
    "category": "CE7",
    "x": 126.97592,
    "y": 37.49605,
    "radius": 1500,
    "size": 15
  },
  "data": {
    "category": "CE7",
    "total_count": 259,
    "places": [
      {
        "name": "레드버튼 이수역점",
        "latitude": 37.48724815314156,
        "longitude": 126.98127554252996,
        "address": "서울 동작구 사당동 139-30",
        "phone": "02-536-3799",
        "distance": "1085"
      },
      {
        "name": "서울형키즈카페 동작구사당3동점",
        "latitude": 37.49278665009938,
        "longitude": 126.96855845548134,
        "address": "서울 동작구 사당동 180",
        "phone": "070-7163-1463",
        "distance": "745"
      },
      {
        "name": "벌툰 파리지앵 이수역점",
        "latitude": 37.4873021630301,
        "longitude": 126.980958931718,
        "address": "서울 동작구 사당동 139-1",
        "phone": "",
        "distance": "1068"
      },
      {
        "name": "서울형키즈카페 동작구 사당2동점",
        "latitude": 37.4883863773019,
        "longitude": 126.97754614026,
        "address": "서울 동작구 사당동 1136-1",
        "phone": "070-7163-1480",
        "distance": "862"
      },
      {
        "name": "파니모들",
        "latitude": 37.490234240400895,
        "longitude": 126.98222914929215,
        "address": "서울 동작구 사당동 79-3",
        "phone": "070-7607-8252",
        "distance": "853"
      },
      {
        "name": "히어로보드게임카페 이수역점",
        "latitude": 37.4871111504132,
        "longitude": 126.98096576441,
        "address": "서울 동작구 사당동 139-72",
        "phone": "070-8633-0064",
        "distance": "1087"
      },
      {
        "name": "동작노을카페",
        "latitude": 37.505994297130705,
        "longitude": 126.98005391990012,
        "address": "서울 동작구 동작동 316-3",
        "phone": "",
        "distance": "1162"
      },
      {
        "name": "사임당갤러리카페",
        "latitude": 37.4958414095508,
        "longitude": 126.978066353516,
        "address": "서울 동작구 동작동 61-61",
        "phone": "02-595-1232",
        "distance": "191"
      },
      {
        "name": "도쿄빙수 이수지점",
        "latitude": 37.4876678115526,
        "longitude": 126.979986428082,
        "address": "서울 동작구 사당동 129-11",
        "phone": "02-3482-0503",
        "distance": "997"
      },
      {
        "name": "엔터하츠",
        "latitude": 37.4910238043706,
        "longitude": 126.984210055259,
        "address": "서울 서초구 방배동 2104",
        "phone": "02-6402-1080",
        "distance": "921"
      },
      {
        "name": "방배동커피상회",
        "latitude": 37.49814004317015,
        "longitude": 126.98486672226917,
        "address": "서울 서초구 방배동 752-8",
        "phone": "",
        "distance": "824"
      },
      {
        "name": "디피스트",
        "latitude": 37.487408356315,
        "longitude": 126.980194547268,
        "address": "서울 동작구 사당동 139-22",
        "phone": "02-536-6234",
        "distance": "1030"
      },
      {
        "name": "스타벅스 방배카페거리점",
        "latitude": 37.4935180762436,
        "longitude": 126.986498266264,
        "address": "서울 서초구 방배동 777-11",
        "phone": "1522-3232",
        "distance": "976"
      },
      {
        "name": "이수살롱",
        "latitude": 37.4884650488434,
        "longitude": 126.97909294479,
        "address": "서울 동작구 사당동 127-48",
        "phone": "",
        "distance": "887"
      },
      {
        "name": "서울형키즈카페 방배2동점",
        "latitude": 37.4845554122045,
        "longitude": 126.983797593867,
        "address": "서울 서초구 방배동 425-2",
        "phone": "02-523-9340",
        "distance": "1453"
      }
    ]
  }
}