{
  "key": "cd0fc931428ae9e810c8c61204bf15fcf08c5c0f821e0380d2492fad1367f559",
  "tool": "PlaceSearch_kakao",
  "created_at": "2025-10-26T10:36:18.431181",
  "input_params": {
    "keyword": "맛집",
    "radius": 1000,
    "sort": "accuracy",
    "x": 126.9675,
    "y": 37.4731
  },
  "raw_args": {
    "keyword": "맛집",
    "radius": 1000,
    "x": 126.9675,
    "y": 37.4731
  },
  "data": {
    "keyword": "맛집",
    "total_count": 502,
    "places": [
      {
        "name": "오월의김밥",
        "latitude": 37.4760808309256,
        "longitude": 126.96459162269421,
        "address": "서울 관악구 봉천동 1657-21",
        "road_address": "서울 관악구 봉천로 605",
        "phone": "02-876-7792",
        "category": "음식점 > 분식",
        "distance": "419"
      },
      {
        "name": "우리동네고기집",
        "latitude": 37.47409348972823,
        "longitude": 126.96556140364366,
        "address": "서울 관악구 봉천동 1636-21",
        "road_address": "서울 관악구 인헌6길 24",
        "phone": "02-871-9938",
        "category": "음식점 > 한식 > 육류,고기",
        "distance": "204"
      },
      {
        "name": "모모즉석떡볶이",
        "latitude": 37.4748952474985,
        "longitude": 126.965080565705,
        "address": "서울 관악구 봉천동 1635-25",
        "road_address": "서울 관악구 남부순환로246나길 19",
        "phone": "02-885-2497",
        "category": "음식점 > 분식 > 떡볶이",
        "distance": "292"
      },
      {
        "name": "쟝블랑제리",
        "latitude": 37.477157623199,
        "longitude": 126.961968234363,
        "address": "서울 관악구 봉천동 1660-7",
        "road_address": "서울 관악구 낙성대역길 8",
        "phone": "02-889-5170",
        "category": "음식점 > 간식 > 제과,베이커리",
        "distance": "664"
      },
      {
        "name": "김창일스시",
        "latitude": 37.4751733486583,
        "longitude": 126.967137986303,
        "address": "서울 관악구 봉천동 1655-50",
        "road_address": "서울 관악구 인헌길 7",
        "phone": "02-3285-4824",
        "category": "음식점 > 일식 > 초밥,롤",
        "distance": "232"
      },
      {
        "name": "청년밥상문간 낙성대점",
        "latitude": 37.47596494223432,
        "longitude": 126.96277151781037,
        "address": "서울 관악구 봉천동 1631-11",
        "road_address": "서울 관악구 남부순환로244길 26",
        "phone": "02-877-6031",
        "category": "음식점 > 한식 > 찌개,전골",
        "distance": "525"
      },
      {
        "name": "딱좋아",
        "latitude": 37.4754793408743,
        "longitude": 126.965898795191,
        "address": "서울 관악구 봉천동 1656-6",
        "road_address": "서울 관악구 인헌2길 20",
        "phone": "02-877-1589",
        "category": "음식점 > 한식 > 해물,생선 > 회",
        "distance": "299"
      },
      {
        "name": "낙성대돈까스",
        "latitude": 37.47489941427876,
        "longitude": 126.9670397511915,
        "address": "서울 관악구 봉천동 1644-1",
        "road_address": "서울 관악구 인헌길 15",
        "phone": "02-871-0790",
        "category": "음식점 > 일식 > 돈까스,우동",
        "distance": "203"
      },
      {
        "name": "경원치킨 본점",
        "latitude": 37.476044546585,
        "longitude": 126.96378669883,
        "address": "서울 관악구 봉천동 1632-6",
        "road_address": "서울 관악구 봉천로 600-1",
        "phone": "02-876-3303",
        "category": "음식점 > 치킨",
        "distance": "463"
      },
      {
        "name": "옥고집",
        "latitude": 37.4749795049162,
        "longitude": 126.966685863556,
        "address": "서울 관악구 봉천동 1637-27",
        "road_address": "서울 관악구 인헌길 14",
        "phone": "",
        "category": "음식점",
        "distance": "220"
      },
      {
        "name": "제일식당",
        "latitude": 37.4747190156905,
        "longitude": 126.966342302578,
        "address": "서울 관악구 봉천동 1637-32",
        "road_address": "서울 관악구 인헌4길 12",
        "phone": "02-888-5074",
        "category": "음식점 > 한식",
        "distance": "206"
      },
      {
        "name": "화상손만두 낙성대점",
        "latitude": 37.4762749456769,
        "longitude": 126.962949989127,
        "address": "서울 관악구 봉천동 1631-6",
        "road_address": "서울 관악구 남부순환로244길 18",
        "phone": "02-3285-8842",
        "category": "음식점 > 중식",
        "distance": "534"
      },
      {
        "name": "활어수산",
        "latitude": 37.4728053253867,
        "longitude": 126.966536473874,
        "address": "서울 관악구 봉천동 1639-17",
        "road_address": "서울 관악구 인헌길 62",
        "phone": "02-882-3506",
        "category": "음식점 > 한식 > 해물,생선 > 회",
        "distance": "91"
      },
      {
        "name": "몽마베이커리",
        "latitude": 37.4751692912017,
        "longitude": 126.965546213229,
        "address": "서울 관악구 봉천동 1635-18",
        "road_address": "서울 관악구 남부순환로248길 20",
        "phone": "02-888-0403",
        "category": "음식점 > 간식 > 제과,베이커리",
        "distance": "287"
      },
      {
        "name": "미스터보쌈5379 낙성대점",
        "latitude": 37.474129013875654,
        "longitude": 126.96690782027719,
        "address": "서울 관악구 봉천동 1642-11",
        "road_address": "서울 관악구 인헌길 31",
        "phone": "02-871-5379",
        "category": "음식점 > 한식 > 육류,고기 > 족발,보쌈 > 미스터보쌈5379",
        "distance": "125"
      }
    ]
  }
}