{
  "key": "cd9d25c02b186279768e786a1b1a7feffcb2b2ea395a2a860dc4475e6380f1ea",
  "tool": "PlaceSearch_kakao",
  "created_at": "2025-12-16T02:58:11.290113",
  "input_params": {
    "keyword": "병원",
    "radius": 1000,
    "sort": "distance",
    "x": 127.046696,
    "y": 37.592675
  },
  "raw_args": {
    "keyword": "병원",
    "x": 127.046696,
    "y": 37.592675,
    "radius": 1000,
    "sort": "distance"
  },
  "data": {
    "keyword": "병원",
    "total_count": 61,
    "places": [
      {
        "name": "경희대학교병원 제2주차장",
        "latitude": 37.5936127501298,
        "longitude": 127.050356146877,
        "address": "서울 동대문구 회기동 109-5",
        "road_address": "서울 동대문구 경희대로1나길 56-3",
        "phone": "",
        "category": "교통,수송 > 교통시설 > 주차장",
        "distance": "339"
      },
      {
        "name": "경희대학교병원 의과학연구원",
        "latitude": 37.594012857849,
        "longitude": 127.050197892065,
        "address": "서울 동대문구 회기동 109-13",
        "road_address": "서울 동대문구 경희대로 23",
        "phone": "",
        "category": "의료,건강 > 병원부속시설",
        "distance": "343"
      },
      {
        "name": "경희대학교병원 응급의료센터",
        "latitude": 37.5936303189537,
        "longitude": 127.051402414504,
        "address": "서울 동대문구 회기동 1-5",
        "road_address": "서울 동대문구 경희대로 23",
        "phone": "02-958-8282",
        "category": "의료,건강 > 병원 > 응급실",
        "distance": "429"
      },
      {
        "name": "경희대학교한방병원 신장내분비내과",
        "latitude": 37.5941997967425,
        "longitude": 127.051285044921,
        "address": "서울 동대문구 회기동 1-5",
        "road_address": "서울 동대문구 경희대로 23",
        "phone": "02-958-8114",
        "category": "의료,건강 > 병원부속시설",
        "distance": "439"
      },
      {
        "name": "경희의료원 작업환경의학과",
        "latitude": 37.593186888186,
        "longitude": 127.051729345575,
        "address": "서울 동대문구 회기동 1-5",
        "road_address": "서울 동대문구 경희대로 23",
        "phone": "02-958-9988",
        "category": "의료,건강 > 병원",
        "distance": "448"
      },
      {
        "name": "경희대학교병원 내분비내과",
        "latitude": 37.5938463707129,
        "longitude": 127.051828313449,
        "address": "서울 동대문구 회기동 1-5",
        "road_address": "서울 동대문구 경희대로 23",
        "phone": "02-958-8822",
        "category": "의료,건강 > 병원부속시설",
        "distance": "471"
      },
      {
        "name": "경희대학교한방병원",
        "latitude": 37.5938571806208,
        "longitude": 127.051832850206,
        "address": "서울 동대문구 회기동 1-5",
        "road_address": "서울 동대문구 경희대로 23",
        "phone": "02-958-8114",
        "category": "의료,건강 > 병원 > 한방병원",
        "distance": "472"
      },
      {
        "name": "경희의료원",
        "latitude": 37.5938752004487,
        "longitude": 127.051832862704,
        "address": "서울 동대문구 회기동 1-5",
        "road_address": "서울 동대문구 경희대로 23",
        "phone": "02-958-8114",
        "category": "의료,건강 > 병원 > 대학병원",
        "distance": "472"
      },
      {
        "name": "경희대학교한방병원 침구과",
        "latitude": 37.5938860123455,
        "longitude": 127.051832870203,
        "address": "서울 동대문구 회기동 1-5",
        "road_address": "서울 동대문구 경희대로 23",
        "phone": "02-958-9207",
        "category": "의료,건강 > 병원부속시설",
        "distance": "473"
      },
      {
        "name": "경희대학교한방병원 언어치료센터",
        "latitude": 37.5939544896799,
        "longitude": 127.051828388433,
        "address": "서울 동대문구 회기동 1-5",
        "road_address": "서울 동대문구 경희대로 23",
        "phone": "02-958-9235",
        "category": "의료,건강 > 병원부속시설",
        "distance": "475"
      },
      {
        "name": "경희대학교한방병원 폐장호흡내과",
        "latitude": 37.5939328599194,
        "longitude": 127.051841961224,
        "address": "서울 동대문구 회기동 1-5",
        "road_address": "서울 동대문구 경희대로 23",
        "phone": "02-958-9145",
        "category": "의료,건강 > 병원부속시설",
        "distance": "475"
      },
      {
        "name": "경희대학교병원 소화기센터",
        "latitude": 37.5940202381719,
        "longitude": 127.051882785265,
        "address": "서울 동대문구 회기동 1-5",
        "road_address": "서울 동대문구 경희대로 23",
        "phone": "",
        "category": "의료,건강 > 병원부속시설",
        "distance": "481"
      },
      {
        "name": "경희대학교병원 집단급식소",
        "latitude": 37.5941094343262,
        "longitude": 127.051887376465,
        "address": "서울 동대문구 회기동 1-5",
        "road_address": "서울 동대문구 경희대로 23",
        "phone": "",
        "category": "의료,건강 > 병원부속시설",
        "distance": "485"
      },
      {
        "name": "후마니타스암병원",
        "latitude": 37.5936011674064,
        "longitude": 127.052131602747,
        "address": "서울 동대문구 회기동 1-5",
        "road_address": "서울 동대문구 경희대로 23",
        "phone": "02-958-8721",
        "category": "의료,건강 > 병원",
        "distance": "490"
      },
      {
        "name": "인산한의원",
        "latitude": 37.59125372748105,
        "longitude": 127.05293161633158,
        "address": "서울 동대문구 회기동 45-53",
        "road_address": "서울 동대문구 회기로 150",
        "phone": "02-966-5697",
        "category": "의료,건강 > 병원 > 한의원",
        "distance": "572"
      }
    ]
  }
}