{
  "key": "cdc3fbead290a3e8ef746767cbffbbb1cc4e2056264d75b7a77f598d134d08b9",
  "tool": "PlaceSearch_kakao",
  "created_at": "2025-10-26T08:28:02.193664",
  "input_params": {
    "keyword": "주차장",
    "radius": 1000,
    "sort": "accuracy",
    "x": 126.92004,
    "y": 37.47589
  },
  "raw_args": {
    "keyword": "주차장",
    "x": 126.92004,
    "y": 37.47589,
    "radius": 1000,
    "sort": "accuracy"
  },
  "data": {
    "keyword": "주차장",
    "total_count": 40,
    "places": [
      {
        "name": "미성동제4공영주차장",
        "latitude": 37.47614151887196,
        "longitude": 126.9193701361743,
        "address": "서울 관악구 신림동 597-4",
        "road_address": "서울 관악구 난우10길 33",
        "phone": "",
        "category": "교통,수송 > 교통시설 > 주차장 > 공영주차장",
        "distance": "65"
      },
      {
        "name": "엘림주차장",
        "latitude": 37.475066001163604,
        "longitude": 126.91979297561325,
        "address": "서울 관악구 신림동 598-168",
        "road_address": "",
        "phone": "",
        "category": "교통,수송 > 교통시설 > 주차장",
        "distance": "93"
      },
      {
        "name": "세이브마트 주차장",
        "latitude": 37.47427372057903,
        "longitude": 126.91805283968496,
        "address": "서울 관악구 신림동 607-73",
        "road_address": "서울 관악구 난곡로 220",
        "phone": "",
        "category": "교통,수송 > 교통시설 > 주차장",
        "distance": "251"
      },
      {
        "name": "미성동제3공영주차장",
        "latitude": 37.4756352001513,
        "longitude": 126.915569842727,
        "address": "서울 관악구 신림동 758-8",
        "road_address": "",
        "phone": "02-2081-2600",
        "category": "교통,수송 > 교통시설 > 주차장 > 공영주차장",
        "distance": "396"
      },
      {
        "name": "한나래 주차장",
        "latitude": 37.4735420210905,
        "longitude": 126.917938327841,
        "address": "서울 관악구 신림동 725-22",
        "road_address": "서울 관악구 난곡로35나길 18",
        "phone": "",
        "category": "교통,수송 > 교통시설 > 주차장",
        "distance": "320"
      },
      {
        "name": "난곡동제1공영주차장",
        "latitude": 37.4721940017874,
        "longitude": 126.923136603737,
        "address": "서울 관악구 신림동 626-82",
        "road_address": "서울 관악구 난곡로34길 71",
        "phone": "02-2081-2670",
        "category": "교통,수송 > 교통시설 > 주차장 > 공영주차장",
        "distance": "493"
      },
      {
        "name": "해성주차장",
        "latitude": 37.47115316099909,
        "longitude": 126.92015664336041,
        "address": "서울 관악구 신림동 635-21",
        "road_address": "",
        "phone": "",
        "category": "교통,수송 > 교통시설 > 주차장",
        "distance": "525"
      },
      {
        "name": "미성동제1공영주차장",
        "latitude": 37.4796781079173,
        "longitude": 126.915680614332,
        "address": "서울 관악구 신림동 1566-37",
        "road_address": "",
        "phone": "02-2081-2626",
        "category": "교통,수송 > 교통시설 > 주차장 > 공영주차장",
        "distance": "570"
      },
      {
        "name": "미성동제2공영주차장",
        "latitude": 37.4797236720549,
        "longitude": 126.913894230549,
        "address": "서울 관악구 신림동 1481-23",
        "road_address": "",
        "phone": "",
        "category": "교통,수송 > 교통시설 > 주차장 > 공영주차장",
        "distance": "690"
      },
      {
        "name": "난곡스마트 공영주차장",
        "latitude": 37.4689286072867,
        "longitude": 126.924326896339,
        "address": "서울 관악구 신림동 646-172",
        "road_address": "서울 관악구 난곡로26길 94",
        "phone": "",
        "category": "교통,수송 > 교통시설 > 주차장 > 공영주차장",
        "distance": "860"
      },
      {
        "name": "호림박물관 주차장",
        "latitude": 37.481603556151526,
        "longitude": 126.91823364871898,
        "address": "서울 관악구 신림동 1707",
        "road_address": "서울 관악구 남부순환로152길 53",
        "phone": "",
        "category": "교통,수송 > 교통시설 > 주차장",
        "distance": "654"
      },
      {
        "name": "신원시장공영주차장",
        "latitude": 37.4826122942311,
        "longitude": 126.927282142619,
        "address": "서울 관악구 신림동 1587-38",
        "road_address": "",
        "phone": "",
        "category": "교통,수송 > 교통시설 > 주차장 > 공영주차장",
        "distance": "983"
      },
      {
        "name": "신원동제2공영주차장",
        "latitude": 37.476738942713965,
        "longitude": 126.92930472684472,
        "address": "서울 관악구 신림동 412-84",
        "road_address": "",
        "phone": "02-2081-2600",
        "category": "교통,수송 > 교통시설 > 주차장 > 공영주차장",
        "distance": "824"
      },
      {
        "name": "부성주차장",
        "latitude": 37.478456538052065,
        "longitude": 126.91470178170266,
        "address": "서울 관악구 신림동 1476-55",
        "road_address": "",
        "phone": "010-4200-2280",
        "category": "교통,수송 > 교통시설 > 주차장",
        "distance": "551"
      },
      {
        "name": "난곡동제2공영주차장",
        "latitude": 37.470221834051,
        "longitude": 126.917989436318,
        "address": "서울 관악구 신림동 808-176",
        "road_address": "",
        "phone": "02-2081-2683",
        "category": "교통,수송 > 교통시설 > 주차장",
        "distance": "654"
      }
    ]
  }
}