{
  "key": "c18ae2f0f99487d1f1466c96bdd60aa743c797f4050c2f0b74141c53599b40f8",
  "tool": "PlaceSearch_kakao",
  "created_at": "2025-12-15T13:53:45.515980",
  "input_params": {
    "keyword": "서울시립대학교",
    "size": 5,
    "sort": "accuracy",
    "x": 127.0458838,
    "y": 37.5829217
  },
  "raw_args": {
    "keyword": "서울시립대학교",
    "x": 127.0458838,
    "y": 37.5829217,
    "size": 5,
    "sort": "accuracy"
  },
  "data": {
    "keyword": "서울시립대학교",
    "total_count": 166,
    "places": [
      {
        "name": "서울시립대학교",
        "latitude": 37.584828300773886,
        "longitude": 127.05773316246166,
        "address": "서울 동대문구 전농동 694",
        "road_address": "서울 동대문구 서울시립대로 163",
        "phone": "02-6490-6114",
        "category": "교육,학문 > 학교 > 대학교",
        "distance": "1067"
      },
      {
        "name": "서울시립대학교 정문",
        "latitude": 37.5834771622868,
        "longitude": 127.055113438416,
        "address": "서울 동대문구 전농동 694",
        "road_address": "서울 동대문구 서울시립대로 163",
        "phone": "",
        "category": "교통,수송 > 입출구",
        "distance": "817"
      },
      {
        "name": "서울시립대학교 자작마루",
        "latitude": 37.582849741524335,
        "longitude": 127.0576886128878,
        "address": "서울 동대문구 전농동 694",
        "road_address": "서울 동대문구 서울시립대로 163",
        "phone": "",
        "category": "교육,학문 > 학교부속시설",
        "distance": "1042"
      },
      {
        "name": "서울시립대학교 법학관",
        "latitude": 37.5820664335478,
        "longitude": 127.056538890157,
        "address": "서울 동대문구 전농동 694",
        "road_address": "서울 동대문구 서울시립대로 163",
        "phone": "02-6490-6114",
        "category": "교육,학문 > 학교부속시설",
        "distance": "945"
      },
      {
        "name": "서울시립대학교 후문",
        "latitude": 37.58521140994416,
        "longitude": 127.06094546401724,
        "address": "서울 동대문구 전농동 694",
        "road_address": "서울 동대문구 서울시립대로 163",
        "phone": "",
        "category": "교통,수송 > 입출구",
        "distance": "1354"
      }
    ]
  }
}