{
  "key": "c1d48bc0c306a477cf9e225f53d3e0fb21bed9116c7f530c565fda5eee377e29",
  "tool": "PlaceSearch_kakao",
  "created_at": "2025-10-27T13:40:03.919191",
  "input_params": {
    "keyword": "서울시립대학교",
    "size": 5,
    "sort": "distance",
    "x": 127.04773632414528,
    "y": 37.57997010526071
  },
  "raw_args": {
    "keyword": "서울시립대학교",
    "x": 127.04773632414528,
    "y": 37.57997010526071,
    "size": 5,
    "sort": "distance"
  },
  "data": {
    "keyword": "서울시립대학교",
    "total_count": 166,
    "places": [
      {
        "name": "서울시립대로16길",
        "latitude": 37.5794661212773,
        "longitude": 127.052742134995,
        "address": "서울 동대문구 전농동 213-2",
        "road_address": "",
        "phone": "",
        "category": "교통,수송 > 도로시설 > 도로명",
        "distance": "445"
      },
      {
        "name": "로디키친 서울 시립대직영점",
        "latitude": 37.5831466242343,
        "longitude": 127.0528670039,
        "address": "서울 동대문구 전농동 126-8",
        "road_address": "서울 동대문구 전농로31길 13",
        "phone": "02-6204-0317",
        "category": "음식점 > 한식",
        "distance": "574"
      },
      {
        "name": "열공다방스터디카페 서울시립대점",
        "latitude": 37.5835456711565,
        "longitude": 127.05307447113,
        "address": "서울 동대문구 전농동 103-103",
        "road_address": "서울 동대문구 전농로 217-3",
        "phone": "010-2823-2307",
        "category": "서비스,산업 > 전문대행 > 공간대여 > 스터디카페,스터디룸",
        "distance": "616"
      },
      {
        "name": "세븐스타코인노래연습장 서울시립대점",
        "latitude": 37.5835528806273,
        "longitude": 127.053071079772,
        "address": "서울 동대문구 전농동 103-103",
        "road_address": "서울 동대문구 전농로 217-3",
        "phone": "",
        "category": "가정,생활 > 여가시설 > 노래방 > 코인노래방 > 세븐스타코인노래연습장",
        "distance": "616"
      },
      {
        "name": "화이트펜슬스터디카페 서울시립대점",
        "latitude": 37.5830408936479,
        "longitude": 127.053564334176,
        "address": "서울 동대문구 전농동 124-12",
        "road_address": "서울 동대문구 전농로 211",
        "phone": "010-6208-2845",
        "category": "서비스,산업 > 전문대행 > 공간대여 > 스터디카페,스터디룸",
        "distance": "617"
      }
    ]
  }
}