{
  "key": "455c0bc13840f787e8902bbc34f6c3461d1c0d07699f11425754bd23a38c59b5",
  "tool": "PlaceSearch_kakao",
  "created_at": "2025-10-27T13:40:04.253200",
  "input_params": {
    "keyword": "고려대학교",
    "size": 5,
    "sort": "distance",
    "x": 127.04773632414528,
    "y": 37.57997010526071
  },
  "raw_args": {
    "keyword": "고려대학교",
    "x": 127.04773632414528,
    "y": 37.57997010526071,
    "size": 5,
    "sort": "distance"
  },
  "data": {
    "keyword": "고려대학교",
    "total_count": 1145,
    "places": [
      {
        "name": "보더리스하우스 고려대2",
        "latitude": 37.58460485373967,
        "longitude": 127.0347305953275,
        "address": "서울 동대문구 제기동 67-477",
        "road_address": "서울 동대문구 제기로2가길 20",
        "phone": "02-363-5321",
        "category": "부동산 > 주거시설",
        "distance": "1258"
      },
      {
        "name": "펠어커피 경희대점",
        "latitude": 37.59116237728675,
        "longitude": 127.0516883147142,
        "address": "서울 동대문구 회기동 103-55",
        "road_address": "서울 동대문구 회기로 136-1",
        "phone": "070-4032-3824",
        "category": "음식점 > 카페 > 커피전문점",
        "distance": "1290"
      },
      {
        "name": "프리원핏 고려대점",
        "latitude": 37.5876524856688,
        "longitude": 127.036152948616,
        "address": "서울 동대문구 제기동 136-351",
        "road_address": "서울 동대문구 안암로22길 29-1",
        "phone": "0503-7152-0507",
        "category": "스포츠,레저 > 스포츠시설 > 헬스클럽",
        "distance": "1331"
      },
      {
        "name": "루마썬팅 서울고려대역점",
        "latitude": 37.5892270118978,
        "longitude": 127.037463717425,
        "address": "서울 동대문구 제기동 122-654",
        "road_address": "서울 동대문구 고산자로60길 13",
        "phone": "010-4733-2102",
        "category": "교통,수송 > 자동차 > 썬팅,광택 > 루마썬팅",
        "distance": "1370"
      },
      {
        "name": "이마트24 고려대역점",
        "latitude": 37.5893542485302,
        "longitude": 127.036838781004,
        "address": "서울 동대문구 제기동 136-50",
        "road_address": "서울 동대문구 고산자로 560",
        "phone": "02-929-6460",
        "category": "가정,생활 > 편의점 > 이마트24",
        "distance": "1418"
      }
    ]
  }
}