{
  "key": "ce5cd084dc9cccdfa83746bf5dc315ddf609ed940d74cc2271891dc8c41b09f6",
  "tool": "CategorySearch_kakao",
  "created_at": "2025-10-21T03:46:59.299678",
  "input_params": {
    "category": "CE7",
    "radius": 500,
    "size": 15,
    "x": 126.9237,
    "y": 37.5572
  },
  "raw_args": {
    "category": "CE7",
    "x": 126.9237,
    "y": 37.5572,
    "radius": 500
  },
  "data": {
    "category": "CE7",
    "total_count": 423,
    "places": [
      {
        "name": "벌툰 봉화당 홍대입구역점",
        "latitude": 37.5564499530999,
        "longitude": 126.925146143059,
        "address": "서울 마포구 동교동 169-11",
        "phone": "02-333-5111",
        "distance": "152"
      },
      {
        "name": "레드버튼 홍대점",
        "latitude": 37.5540084192114,
        "longitude": 126.922613551217,
        "address": "서울 마포구 서교동 358-1",
        "phone": "02-333-3799",
        "distance": "366"
      },
      {
        "name": "히어로보드게임카페 홍대2호점",
        "latitude": 37.55534916196303,
        "longitude": 126.92270270334447,
        "address": "서울 마포구 동교동 162-3",
        "phone": "02-3142-7767",
        "distance": "223"
      },
      {
        "name": "홈즈앤루팡 홍대점",
        "latitude": 37.5541414020202,
        "longitude": 126.922058874058,
        "address": "서울 마포구 서교동 356-3",
        "phone": "02-336-8708",
        "distance": "368"
      },
      {
        "name": "카페공명 연남점",
        "latitude": 37.5598708965573,
        "longitude": 126.926352615326,
        "address": "서울 마포구 동교동 146-8",
        "phone": "070-8869-6304",
        "distance": "377"
      },
      {
        "name": "이미커피",
        "latitude": 37.55747500027613,
        "longitude": 126.92191959031598,
        "address": "서울 마포구 동교동 201-10",
        "phone": "02-6368-5228",
        "distance": "160"
      },
      {
        "name": "데블다이스 홍대점",
        "latitude": 37.5549495465089,
        "longitude": 126.923358385336,
        "address": "서울 마포구 서교동 345-6",
        "phone": "070-4234-3912",
        "distance": "251"
      },
      {
        "name": "땡스네이쳐카페",
        "latitude": 37.5535983096117,
        "longitude": 126.923759261108,
        "address": "서울 마포구 서교동 486",
        "phone": "02-332-7470",
        "distance": "399"
      },
      {
        "name": "카페장쌤",
        "latitude": 37.5557374557051,
        "longitude": 126.926889731852,
        "address": "서울 마포구 서교동 333-30",
        "phone": "070-4084-3414",
        "distance": "325"
      },
      {
        "name": "터틀힙",
        "latitude": 37.55979694723278,
        "longitude": 126.92068463815171,
        "address": "서울 마포구 연남동 565-19",
        "phone": "02-332-5854",
        "distance": "392"
      },
      {
        "name": "카툰플러스 만화카페 24H (구 놀숲플러스)",
        "latitude": 37.5531929633346,
        "longitude": 126.921171477897,
        "address": "서울 마포구 서교동 357-5",
        "phone": "02-337-6588",
        "distance": "497"
      },
      {
        "name": "토즈모임센터 홍대점",
        "latitude": 37.5608678464544,
        "longitude": 126.92282150203918,
        "address": "서울 마포구 연남동 567-42",
        "phone": "02-336-0112",
        "distance": "414"
      },
      {
        "name": "17도씨",
        "latitude": 37.55874437401848,
        "longitude": 126.92448854538745,
        "address": "서울 마포구 동교동 154-25",
        "phone": "02-337-1706",
        "distance": "185"
      },
      {
        "name": "모멘트커피",
        "latitude": 37.5577014658143,
        "longitude": 126.921038838971,
        "address": "서울 마포구 동교동 203-30",
        "phone": "070-8860-5287",
        "distance": "241"
      },
      {
        "name": "대충유원지",
        "latitude": 37.5587425645618,
        "longitude": 126.920363197604,
        "address": "서울 마포구 연남동 570-28",
        "phone": "070-4799-5640",
        "distance": "341"
      }
    ]
  }
}