{
  "key": "7251df6186be356e1afd3123216dbc17786a31d6dce417678b1bbbdb1c237ab8",
  "tool": "PlaceSearch_kakao",
  "created_at": "2025-10-26T12:34:57.120815",
  "input_params": {
    "keyword": "카페",
    "radius": 1000,
    "sort": "accuracy",
    "x": 126.978687,
    "y": 37.499817
  },
  "raw_args": {
    "keyword": "카페",
    "x": 126.978687,
    "y": 37.499817,
    "radius": 1000,
    "sort": "accuracy"
  },
  "data": {
    "keyword": "카페",
    "total_count": 83,
    "places": [
      {
        "name": "동작노을카페",
        "latitude": 37.505994297130705,
        "longitude": 126.98005391990012,
        "address": "서울 동작구 동작동 316-3",
        "road_address": "서울 동작구 동작대로 335",
        "phone": "",
        "category": "음식점 > 카페",
        "distance": "696"
      },
      {
        "name": "사임당갤러리카페",
        "latitude": 37.4958414095508,
        "longitude": 126.978066353516,
        "address": "서울 동작구 동작동 61-61",
        "road_address": "서울 동작구 동작대로39가길 89",
        "phone": "02-595-1232",
        "category": "음식점 > 카페 > 테마카페 > 갤러리카페",
        "distance": "444"
      },
      {
        "name": "신세계플라워카페",
        "latitude": 37.50221108756954,
        "longitude": 126.97583090451523,
        "address": "서울 동작구 동작동 200",
        "road_address": "",
        "phone": "",
        "category": "음식점 > 카페",
        "distance": "366"
      },
      {
        "name": "카페파이브",
        "latitude": 37.4953386375752,
        "longitude": 126.98354987537,
        "address": "서울 서초구 방배동 764-34",
        "road_address": "서울 서초구 방배중앙로27길 38",
        "phone": "",
        "category": "음식점 > 카페",
        "distance": "657"
      },
      {
        "name": "카페앤아트",
        "latitude": 37.502157015419264,
        "longitude": 126.97577324457998,
        "address": "서울 동작구 동작동 산 41-2",
        "road_address": "서울 동작구 현충로 210",
        "phone": "",
        "category": "음식점 > 카페",
        "distance": "365"
      },
      {
        "name": "투썸플레이스 방배카페거리점",
        "latitude": 37.497392288225186,
        "longitude": 126.98550806901423,
        "address": "서울 서초구 방배동 755-14",
        "road_address": "서울 서초구 방배중앙로 204",
        "phone": "02-537-3339",
        "category": "음식점 > 카페 > 커피전문점 > 투썸플레이스",
        "distance": "660"
      },
      {
        "name": "방배동커피상회",
        "latitude": 37.49814004317015,
        "longitude": 126.98486672226917,
        "address": "서울 서초구 방배동 752-8",
        "road_address": "서울 서초구 방배중앙로 213",
        "phone": "",
        "category": "음식점 > 카페",
        "distance": "577"
      },
      {
        "name": "과일에반하다 프루타 방배점",
        "latitude": 37.4958170925462,
        "longitude": 126.983696778731,
        "address": "서울 서초구 방배동 764-16",
        "road_address": "서울 서초구 동광로1길 87",
        "phone": "02-595-1165",
        "category": "음식점 > 카페 > 생과일전문점",
        "distance": "627"
      },
      {
        "name": "커피빈 방배카페골목점",
        "latitude": 37.4957200247803,
        "longitude": 126.985547971263,
        "address": "서울 서초구 방배동 761-6",
        "road_address": "서울 서초구 방배중앙로 187",
        "phone": "02-592-7794",
        "category": "음식점 > 카페 > 커피전문점 > 커피빈",
        "distance": "758"
      },
      {
        "name": "동작구름카페",
        "latitude": 37.505777327080146,
        "longitude": 126.98110126819839,
        "address": "서울 서초구 반포동 1333-1",
        "road_address": "서울 서초구 동작대로 350",
        "phone": "",
        "category": "음식점 > 카페",
        "distance": "695"
      },
      {
        "name": "블렌딩나인커피",
        "latitude": 37.5016767909714,
        "longitude": 126.987412843694,
        "address": "서울 서초구 반포동 1141",
        "road_address": "서울 서초구 신반포로 23",
        "phone": "",
        "category": "음식점 > 카페 > 테마카페 > 무인카페",
        "distance": "799"
      },
      {
        "name": "더치앤빈 방배카페골목점",
        "latitude": 37.49766348101833,
        "longitude": 126.98542546375697,
        "address": "서울 서초구 방배동 751-4",
        "road_address": "서울 서초구 방배중앙로 208",
        "phone": "02-535-4434",
        "category": "음식점 > 카페 > 커피전문점",
        "distance": "642"
      },
      {
        "name": "몽드레",
        "latitude": 37.49401325042305,
        "longitude": 126.98350719544419,
        "address": "서울 서초구 방배동 765-30",
        "road_address": "서울 서초구 방배중앙로25길 42",
        "phone": "0507-1380-4966",
        "category": "음식점 > 카페",
        "distance": "772"
      },
      {
        "name": "커피주네 방배점",
        "latitude": 37.4979546011058,
        "longitude": 126.98621701293,
        "address": "서울 서초구 방배동 750-11",
        "road_address": "서울 서초구 사평대로2길 10",
        "phone": "",
        "category": "음식점 > 카페",
        "distance": "697"
      },
      {
        "name": "그린베일",
        "latitude": 37.49456450593183,
        "longitude": 126.98239322219959,
        "address": "서울 동작구 동작동 333",
        "road_address": "서울 동작구 동작대로39길 22",
        "phone": "",
        "category": "음식점 > 카페",
        "distance": "668"
      }
    ]
  }
}