{
  "key": "72546bb556833251ce50b2fa3c4a3372f4f867e745f110ff05aafb86f0bd6b01",
  "tool": "PlaceSearch_kakao",
  "created_at": "2025-12-15T13:54:29.547387",
  "input_params": {
    "keyword": "건국대학교",
    "size": 10,
    "sort": "distance",
    "x": 127.0458838,
    "y": 37.5829217
  },
  "raw_args": {
    "x": 127.0458838,
    "y": 37.5829217,
    "sort": "distance",
    "keyword": "건국대학교",
    "size": 10
  },
  "data": {
    "keyword": "건국대학교",
    "total_count": 1947,
    "places": [
      {
        "name": "건대우동집 왕십리점",
        "latitude": 37.5636882382342,
        "longitude": 127.031603745402,
        "address": "서울 성동구 도선동 289",
        "road_address": "서울 성동구 왕십리로 348",
        "phone": "02-2296-6934",
        "category": "음식점 > 분식",
        "distance": "2479"
      },
      {
        "name": "샐몬모텔",
        "latitude": 37.56370327091182,
        "longitude": 127.07580508336001,
        "address": "서울 광진구 중곡동 250-4",
        "road_address": "서울 광진구 동일로 367",
        "phone": "",
        "category": "여행 > 숙박 > 여관,모텔",
        "distance": "3396"
      },
      {
        "name": "낙곱새미장원 건대점",
        "latitude": 37.5579652767258,
        "longitude": 127.072207027606,
        "address": "서울 성동구 송정동 99-47",
        "road_address": "서울 성동구 동일로59길 4",
        "phone": "02-466-5558",
        "category": "음식점 > 한식 > 해물,생선",
        "distance": "3616"
      },
      {
        "name": "컴닥터 건대점",
        "latitude": 37.559469664457616,
        "longitude": 127.07553029526177,
        "address": "서울 광진구 중곡동 636-12",
        "road_address": "서울 광진구 동일로62길 24",
        "phone": "1544-2648",
        "category": "가정,생활 > 전자제품 > 전자제품서비스센터 > 컴퓨터수리",
        "distance": "3692"
      },
      {
        "name": "호텔더디자이너스 건대점",
        "latitude": 37.55864185273815,
        "longitude": 127.07661144291187,
        "address": "서울 광진구 중곡동 638-3",
        "road_address": "서울 광진구 천호대로 521",
        "phone": "02-466-7851",
        "category": "여행 > 숙박 > 호텔",
        "distance": "3824"
      },
      {
        "name": "투윅스보컬학원 건대점",
        "latitude": 37.5589259550434,
        "longitude": 127.077549984332,
        "address": "서울 광진구 중곡동 640-3",
        "road_address": "서울 광진구 면목로 56",
        "phone": "",
        "category": "교육,학문 > 학원 > 음악학원 > 실용음악학원",
        "distance": "3862"
      },
      {
        "name": "예리엘 잉글리쉬 건대광진점",
        "latitude": 37.55986853118294,
        "longitude": 127.0800499760421,
        "address": "서울 광진구 중곡동 645-7",
        "road_address": "서울 광진구 긴고랑로14길 64",
        "phone": "0503-7150-0680",
        "category": "교육,학문 > 온라인교육",
        "distance": "3956"
      },
      {
        "name": "튼튼영어 광진건국대교육본부",
        "latitude": 37.5575365836579,
        "longitude": 127.07760173738335,
        "address": "서울 광진구 군자동 473-23",
        "road_address": "서울 광진구 천호대로 536",
        "phone": "02-447-0844",
        "category": "교육,학문 > 학습교재 > 학습지",
        "distance": "3973"
      },
      {
        "name": "호텔쁠랑 건대점",
        "latitude": 37.551476423491714,
        "longitude": 127.06897323478826,
        "address": "서울 성동구 송정동 20-1",
        "road_address": "서울 성동구 동일로 219",
        "phone": "02-467-5579",
        "category": "여행 > 숙박 > 여관,모텔",
        "distance": "4042"
      },
      {
        "name": "컬러파이",
        "latitude": 37.5551173181737,
        "longitude": 127.076354327485,
        "address": "서울 광진구 군자동 53-20",
        "road_address": "서울 광진구 군자로 155",
        "phone": "010-8249-3941",
        "category": "가정,생활 > 미용 > 미용실",
        "distance": "4094"
      }
    ]
  }
}