{
  "key": "c4d5b017540135246e829b5bd02204aa2a52cbe7b103acc5d65872b824a4fef7",
  "tool": "PlaceSearch_kakao",
  "created_at": "2025-10-27T15:48:56.888745",
  "input_params": {
    "keyword": "애플 매장",
    "sort": "accuracy",
    "x": 127.0276983,
    "y": 37.4986525
  },
  "raw_args": {
    "keyword": "애플 매장",
    "x": 127.0276983,
    "y": 37.4986525
  },
  "data": {
    "keyword": "애플 매장",
    "total_count": 2671,
    "places": [
      {
        "name": "Apple 강남",
        "latitude": 37.5036902997713,
        "longitude": 127.025310702725,
        "address": "서울 강남구 역삼동 809",
        "road_address": "서울 강남구 강남대로 464",
        "phone": "080-500-0456",
        "category": "가정,생활 > 전자제품 > 전자제품서비스센터 > 통신기기수리 > Apple 공인서비스센터",
        "distance": "597"
      },
      {
        "name": "Apple 가로수길",
        "latitude": 37.520819816124934,
        "longitude": 127.02272940977892,
        "address": "서울 강남구 신사동 534-19",
        "road_address": "서울 강남구 가로수길 43",
        "phone": "080-500-0029",
        "category": "가정,생활 > 전자제품 > 전자제품서비스센터 > 통신기기수리 > Apple 공인서비스센터",
        "distance": "2499"
      },
      {
        "name": "애플",
        "latitude": 37.5012982208869,
        "longitude": 127.041029624075,
        "address": "서울 강남구 역삼동 719-18",
        "road_address": "서울 강남구 언주로87길 24",
        "phone": "010-3144-1175",
        "category": "가정,생활 > 유흥시설 > 유흥주점",
        "distance": "1215"
      },
      {
        "name": "애플공인서비스센터 프리스비 신세계강남점",
        "latitude": 37.50479216108638,
        "longitude": 127.0042637512257,
        "address": "서울 서초구 반포동 19-3",
        "road_address": "서울 서초구 신반포로 176",
        "phone": "1688-0476",
        "category": "가정,생활 > 전자제품 > 전자제품서비스센터 > 통신기기수리 > Apple 공인서비스센터",
        "distance": "2181"
      },
      {
        "name": "애플공인서비스센터 유베이스 코엑스센터",
        "latitude": 37.51217452148478,
        "longitude": 127.05946086642447,
        "address": "서울 강남구 삼성동 159",
        "road_address": "서울 강남구 영동대로 513",
        "phone": "1566-8514",
        "category": "가정,생활 > 전자제품 > 전자제품서비스센터 > 통신기기수리 > Apple 공인서비스센터",
        "distance": "3184"
      },
      {
        "name": "a#shop 현대백화점압구정점",
        "latitude": 37.52733395706555,
        "longitude": 127.02747043826793,
        "address": "서울 강남구 압구정동 429",
        "road_address": "서울 강남구 압구정로 165",
        "phone": "02-3449-5474",
        "category": "가정,생활 > 전자제품 > 전자제품판매 > a#shop",
        "distance": "3183"
      },
      {
        "name": "a#shop 현대백화점무역센터점",
        "latitude": 37.50840101038459,
        "longitude": 127.05966824338046,
        "address": "서울 강남구 삼성동 159-7",
        "road_address": "서울 강남구 테헤란로 517",
        "phone": "02-3467-8373",
        "category": "가정,생활 > 전자제품 > 전자제품판매 > a#shop",
        "distance": "3026"
      },
      {
        "name": "애플",
        "latitude": 37.5045219329462,
        "longitude": 127.000904771535,
        "address": "서울 서초구 반포동 18-3",
        "road_address": "서울 서초구 반포대로 287",
        "phone": "",
        "category": "가정,생활 > 패션 > 패션잡화점",
        "distance": "2457"
      },
      {
        "name": "Apple 잠실",
        "latitude": 37.5139978977813,
        "longitude": 127.10408109426407,
        "address": "서울 송파구 신천동 29",
        "road_address": "서울 송파구 올림픽로 300",
        "phone": "080-500-0098",
        "category": "가정,생활 > 전자제품 > 전자제품서비스센터 > 통신기기수리 > Apple 공인서비스센터",
        "distance": "6965"
      },
      {
        "name": "Apple 명동",
        "latitude": 37.56468141612801,
        "longitude": 126.98284080132754,
        "address": "서울 중구 남대문로2가 9-1",
        "road_address": "서울 중구 남대문로 84",
        "phone": "080-500-1007",
        "category": "가정,생활 > 전자제품 > 전자제품서비스센터 > 통신기기수리 > Apple 공인서비스센터",
        "distance": "8332"
      },
      {
        "name": "애플공인서비스센터 투바 왕십리",
        "latitude": 37.56128777712581,
        "longitude": 127.03838008079089,
        "address": "서울 성동구 행당동 168-151",
        "road_address": "서울 성동구 왕십리광장로 17",
        "phone": "1522-6222",
        "category": "가정,생활 > 전자제품 > 전자제품서비스센터 > 통신기기수리 > Apple 공인서비스센터",
        "distance": "7015"
      },
      {
        "name": "애플",
        "latitude": 37.53322151381729,
        "longitude": 126.99568598074444,
        "address": "서울 용산구 이태원동 137-56",
        "road_address": "서울 용산구 우사단로 34",
        "phone": "",
        "category": "음식점 > 한식",
        "distance": "4767"
      },
      {
        "name": "애플공인서비스센터 유베이스 서울역센터",
        "latitude": 37.554583213254595,
        "longitude": 126.97012936890823,
        "address": "서울 중구 봉래동2가 122-11",
        "road_address": "서울 중구 한강대로 405",
        "phone": "1566-8514",
        "category": "가정,생활 > 전자제품 > 전자제품서비스센터 > 통신기기수리 > Apple 공인서비스센터",
        "distance": "8026"
      },
      {
        "name": "애플공인서비스센터 투바 잠실",
        "latitude": 37.4846613180036,
        "longitude": 127.120933640633,
        "address": "서울 송파구 문정동 651",
        "road_address": "서울 송파구 송파대로 167",
        "phone": "1522-6222",
        "category": "가정,생활 > 전자제품 > 전자제품서비스센터 > 통신기기수리 > Apple 공인서비스센터",
        "distance": "8390"
      },
      {
        "name": "Apple 여의도",
        "latitude": 37.52490014770034,
        "longitude": 126.92594128549898,
        "address": "서울 영등포구 여의도동 23",
        "road_address": "서울 영등포구 국제금융로 10",
        "phone": "080-500-0013",
        "category": "가정,생활 > 전자제품 > 전자제품서비스센터 > 통신기기수리 > Apple 공인서비스센터",
        "distance": "9456"
      }
    ]
  }
}