{
  "key": "e422ac379a60c5c5e104a9b0697b415f6f40e1c04afe531283bdf642649aa00d",
  "tool": "PlaceSearch_kakao",
  "created_at": "2025-12-19T06:11:25.329650",
  "input_params": {
    "keyword": "병원",
    "page": 1,
    "radius": 500,
    "size": 10,
    "sort": "distance",
    "x": 127.027646096798,
    "y": 37.5924886084372
  },
  "raw_args": {
    "size": 10,
    "x": 127.027646096798,
    "y": 37.5924886084372,
    "page": 1,
    "sort": "distance",
    "keyword": "병원",
    "radius": 500
  },
  "data": {
    "keyword": "병원",
    "total_count": 6,
    "places": [
      {
        "name": "고려대학교의료원 안암병원 어린이집",
        "latitude": 37.59104095803628,
        "longitude": 127.03032225303645,
        "address": "서울 성북구 안암동5가 산 1-61",
        "road_address": "서울 성북구 안암로 145",
        "phone": "02-921-6585",
        "category": "교육,학문 > 유아교육 > 어린이집",
        "distance": "285"
      },
      {
        "name": "고려대학교안암병원 한국인공장기센터",
        "latitude": 37.59006904901414,
        "longitude": 127.02539653823244,
        "address": "서울 성북구 안암동5가 1-2",
        "road_address": "서울 성북구 안암로 145",
        "phone": "",
        "category": "의료,건강 > 병원부속시설",
        "distance": "333"
      },
      {
        "name": "고려대학교 안암병원 장례식장",
        "latitude": 37.58935716924624,
        "longitude": 127.02583787260157,
        "address": "서울 성북구 안암동5가 1-2",
        "road_address": "서울 성북구 안암로 145",
        "phone": "02-923-4442",
        "category": "가정,생활 > 장례 > 장례식장",
        "distance": "382"
      },
      {
        "name": "고려대학교 의과대학본관",
        "latitude": 37.5885082210814,
        "longitude": 127.02679431682276,
        "address": "서울 성북구 안암동5가 126-28",
        "road_address": "서울 성북구 고려대로 73",
        "phone": "02-2286-1125",
        "category": "교육,학문 > 학교부속시설",
        "distance": "447"
      },
      {
        "name": "고려대학교안암병원 의학도서관",
        "latitude": 37.5881748417598,
        "longitude": 127.026847412075,
        "address": "서울 성북구 안암동5가 126-1",
        "road_address": "서울 성북구 고려대로 73",
        "phone": "02-2286-1262",
        "category": "교육,학문 > 학습시설 > 도서관",
        "distance": "483"
      },
      {
        "name": "하나은행365 고대안암병원장례식장",
        "latitude": 37.58935716925206,
        "longitude": 127.02583787260176,
        "address": "서울 성북구 안암동5가 1-2",
        "road_address": "서울 성북구 안암로 145",
        "phone": "",
        "category": "금융,보험 > 금융서비스 > 은행 > ATM",
        "distance": "382"
      }
    ]
  }
}