{
  "key": "e23966d7f3f0c1603245d9265343d39c04f1c7e88c62c67d476c694369299975",
  "tool": "PlaceSearch_kakao",
  "created_at": "2025-12-15T08:26:25.611657",
  "input_params": {
    "keyword": "한국외국어대학교 서울캠퍼스",
    "page": 1,
    "radius": 5000,
    "size": 5,
    "sort": "accuracy",
    "x": 127.04773632414528,
    "y": 37.57997010526071
  },
  "raw_args": {
    "keyword": "한국외국어대학교 서울캠퍼스",
    "x": 127.04773632414528,
    "y": 37.57997010526071,
    "page": 1,
    "size": 5,
    "radius": 5000,
    "sort": "accuracy"
  },
  "data": {
    "keyword": "한국외국어대학교 서울캠퍼스",
    "total_count": 14,
    "places": [
      {
        "name": "한국외국어대학교 서울캠퍼스",
        "latitude": 37.5975430443335,
        "longitude": 127.05784829549488,
        "address": "서울 동대문구 이문동 270-1",
        "road_address": "서울 동대문구 이문로 107",
        "phone": "02-2173-2114",
        "category": "교육,학문 > 학교 > 대학교",
        "distance": "2145"
      },
      {
        "name": "한국외국어대학교 서울캠퍼스 본관",
        "latitude": 37.59733758845446,
        "longitude": 127.05790928428522,
        "address": "서울 동대문구 이문동 270-1",
        "road_address": "서울 동대문구 이문로 107",
        "phone": "02-2173-2114",
        "category": "교육,학문 > 학교부속시설",
        "distance": "2127"
      },
      {
        "name": "한국외국어대학교 서울캠퍼스 사이버관",
        "latitude": 37.596303228499,
        "longitude": 127.059761010427,
        "address": "서울 동대문구 이문동 270-1",
        "road_address": "서울 동대문구 이문로 107",
        "phone": "",
        "category": "교육,학문 > 학교부속시설",
        "distance": "2101"
      },
      {
        "name": "한국외국어대학교 서울캠퍼스 주차장",
        "latitude": 37.59690847020297,
        "longitude": 127.05840945532915,
        "address": "서울 동대문구 이문동 270-1",
        "road_address": "서울 동대문구 이문로 107",
        "phone": "",
        "category": "교통,수송 > 교통시설 > 주차장",
        "distance": "2103"
      },
      {
        "name": "한국외국어대학교 서울캠퍼스 스마트도서관",
        "latitude": 37.595846028810314,
        "longitude": 127.05875738712292,
        "address": "서울 동대문구 이문동 284-1",
        "road_address": "서울 동대문구 이문로 99",
        "phone": "02-2173-2472",
        "category": "교육,학문 > 학습시설 > 도서관",
        "distance": "2013"
      }
    ]
  }
}