{
  "key": "e29b570a13de2303c8cc46b73ddff623a2364bbcf9ec5fa3370c66a5e0031ad9",
  "tool": "PlaceSearch_kakao",
  "created_at": "2025-10-26T12:31:42.080333",
  "input_params": {
    "keyword": "Apple Store",
    "size": 5,
    "sort": "distance",
    "x": 127.027926,
    "y": 37.497175
  },
  "raw_args": {
    "x": 127.027926,
    "y": 37.497175,
    "sort": "distance",
    "keyword": "Apple Store",
    "size": 5
  },
  "data": {
    "keyword": "Apple Store",
    "total_count": 26,
    "places": [
      {
        "name": "Apple 강남",
        "latitude": 37.5036902997713,
        "longitude": 127.025310702725,
        "address": "서울 강남구 역삼동 809",
        "road_address": "서울 강남구 강남대로 464",
        "phone": "080-500-0456",
        "category": "가정,생활 > 전자제품 > 전자제품서비스센터 > 통신기기수리 > Apple 공인서비스센터",
        "distance": "759"
      },
      {
        "name": "Apple 가로수길",
        "latitude": 37.520819816124934,
        "longitude": 127.02272940977892,
        "address": "서울 강남구 신사동 534-19",
        "road_address": "서울 강남구 가로수길 43",
        "phone": "080-500-0029",
        "category": "가정,생활 > 전자제품 > 전자제품서비스센터 > 통신기기수리 > Apple 공인서비스센터",
        "distance": "2664"
      },
      {
        "name": "a#shop 현대백화점무역센터점",
        "latitude": 37.50840101038459,
        "longitude": 127.05966824338046,
        "address": "서울 강남구 삼성동 159-7",
        "road_address": "서울 강남구 테헤란로 517",
        "phone": "02-3467-8373",
        "category": "가정,생활 > 전자제품 > 전자제품판매 > a#shop",
        "distance": "3070"
      },
      {
        "name": "a#shop 현대백화점압구정점",
        "latitude": 37.52733395706555,
        "longitude": 127.02747043826793,
        "address": "서울 강남구 압구정동 429",
        "road_address": "서울 강남구 압구정로 165",
        "phone": "02-3449-5474",
        "category": "가정,생활 > 전자제품 > 전자제품판매 > a#shop",
        "distance": "3347"
      },
      {
        "name": "Apple 잠실",
        "latitude": 37.5139978977813,
        "longitude": 127.10408109426407,
        "address": "서울 송파구 신천동 29",
        "road_address": "서울 송파구 올림픽로 300",
        "phone": "080-500-0098",
        "category": "가정,생활 > 전자제품 > 전자제품서비스센터 > 통신기기수리 > Apple 공인서비스센터",
        "distance": "6987"
      }
    ]
  }
}