{
  "key": "dfee7f1d083fe2bdea192fb5cf85ee96b16e2ef26b9f132343db49371ff7cba6",
  "tool": "CategorySearch_tmap",
  "created_at": "2025-12-14T15:12:59.460544",
  "input_params": {
    "categories": "병원",
    "centerLat": 37.5566436823703,
    "centerLon": 127.04452650526459,
    "count": 20,
    "radius": 1
  },
  "raw_args": {
    "centerLon": 127.04452650526459,
    "centerLat": 37.5566436823703,
    "categories": "병원"
  },
  "data": {
    "totalCount": 84,
    "count": 20,
    "page": 1,
    "pois": [
      {
        "name": "한양대학교병원 소아과",
        "telNo": "0222908380",
        "latitude": "37.55856738",
        "longitude": "127.04240431",
        "address": "서울 성동구 행당동",
        "roadName": "왕십리로",
        "buildingNo": "-",
        "radius_km": "0.283",
        "dataKind": "",
        "stId": "",
        "parkFlag": "0",
        "merchantFlag": ""
      },
      {
        "name": "한양대학교병원 응급실",
        "telNo": "0222908282",
        "latitude": "37.55948397",
        "longitude": "127.04429300",
        "address": "서울 성동구 사근동",
        "roadName": "왕십리로",
        "buildingNo": "-",
        "radius_km": "0.316",
        "dataKind": "",
        "stId": "",
        "parkFlag": "0",
        "merchantFlag": ""
      },
      {
        "name": "한양대학교병원 제2주차장",
        "telNo": "0222908114",
        "latitude": "37.55962282",
        "longitude": "127.04259871",
        "address": "서울 성동구 사근동",
        "roadName": "왕십리로",
        "buildingNo": "-",
        "radius_km": "0.34",
        "dataKind": "",
        "stId": "",
        "parkFlag": "0",
        "merchantFlag": ""
      },
      {
        "name": "한양대학교병원",
        "telNo": "0222908114",
        "latitude": "37.55967839",
        "longitude": "127.04395970",
        "address": "서울 성동구 사근동",
        "roadName": "왕십리로",
        "buildingNo": "-",
        "radius_km": "0.34",
        "dataKind": "",
        "stId": "",
        "parkFlag": "1",
        "merchantFlag": ""
      },
      {
        "name": "한양대학교병원 후문",
        "telNo": "0222908114",
        "latitude": "37.55998387",
        "longitude": "127.04187654",
        "address": "서울 성동구 사근동",
        "roadName": "왕십리로",
        "buildingNo": "-",
        "radius_km": "0.34",
        "dataKind": "",
        "stId": "",
        "parkFlag": "0",
        "merchantFlag": ""
      },
      {
        "name": "한양대학교병원 정문",
        "telNo": "0222908114",
        "latitude": "37.55770636",
        "longitude": "127.04207104",
        "address": "서울 성동구 사근동",
        "roadName": "왕십리로",
        "buildingNo": "-",
        "radius_km": "0.34",
        "dataKind": "",
        "stId": "",
        "parkFlag": "0",
        "merchantFlag": ""
      },
      {
        "name": "한양대학교병원 제1주차장",
        "telNo": "0222908114",
        "latitude": "37.55853966",
        "longitude": "127.04529294",
        "address": "서울 성동구 사근동",
        "roadName": "왕십리로",
        "buildingNo": "-",
        "radius_km": "0.34",
        "dataKind": "",
        "stId": "",
        "parkFlag": "0",
        "merchantFlag": ""
      },
      {
        "name": "녹십자아이메드 서울숲의원",
        "telNo": "16440808",
        "latitude": "37.55673422",
        "longitude": "127.04026567",
        "address": "서울 성동구 행당동",
        "roadName": "왕십리로",
        "buildingNo": "-",
        "radius_km": "0.375",
        "dataKind": "",
        "stId": "",
        "parkFlag": "1",
        "merchantFlag": ""
      },
      {
        "name": "녹십자아이메드 서울숲의원 주차장",
        "telNo": "16440808",
        "latitude": "37.55581767",
        "longitude": "127.04057123",
        "address": "서울 성동구 행당동",
        "roadName": "왕십리로",
        "buildingNo": "-",
        "radius_km": "0.375",
        "dataKind": "",
        "stId": "",
        "parkFlag": "0",
        "merchantFlag": ""
      },
      {
        "name": "연세서울숲치과의원 주차장",
        "telNo": "0264640028",
        "latitude": "37.55584544",
        "longitude": "127.04065455",
        "address": "서울 성동구 행당동",
        "roadName": "왕십리로",
        "buildingNo": "-",
        "radius_km": "0.379",
        "dataKind": "",
        "stId": "",
        "parkFlag": "0",
        "merchantFlag": ""
      },
      {
        "name": "연세서울숲치과의원",
        "telNo": "0264640028",
        "latitude": "37.55628983",
        "longitude": "127.04023791",
        "address": "서울 성동구 행당동",
        "roadName": "왕십리로",
        "buildingNo": "-",
        "radius_km": "0.379",
        "dataKind": "",
        "stId": "",
        "parkFlag": "1",
        "merchantFlag": ""
      },
      {
        "name": "김태화엔도내과의원",
        "telNo": "0222996908",
        "latitude": "37.56012275",
        "longitude": "127.04198764",
        "address": "서울 성동구 행당동",
        "roadName": "사근동길",
        "buildingNo": "-",
        "radius_km": "0.446",
        "dataKind": "",
        "stId": "",
        "parkFlag": "0",
        "merchantFlag": ""
      },
      {
        "name": "신한철치과의원",
        "telNo": "0222925050",
        "latitude": "37.56028938",
        "longitude": "127.04145991",
        "address": "서울 성동구 행당동",
        "roadName": "마조로",
        "buildingNo": "-",
        "radius_km": "0.486",
        "dataKind": "",
        "stId": "",
        "parkFlag": "1",
        "merchantFlag": ""
      },
      {
        "name": "신한철치과의원 주차장",
        "telNo": "0222925050",
        "latitude": "37.56045603",
        "longitude": "127.04137658",
        "address": "서울 성동구 행당동",
        "roadName": "마조로",
        "buildingNo": "-",
        "radius_km": "0.486",
        "dataKind": "",
        "stId": "",
        "parkFlag": "0",
        "merchantFlag": ""
      },
      {
        "name": "나음치과의원 주차장",
        "telNo": "0222967075",
        "latitude": "37.56009495",
        "longitude": "127.04070998",
        "address": "서울 성동구 행당동",
        "roadName": "마조로",
        "buildingNo": "-",
        "radius_km": "0.495",
        "dataKind": "",
        "stId": "",
        "parkFlag": "0",
        "merchantFlag": ""
      },
      {
        "name": "나음치과의원",
        "telNo": "0222967075",
        "latitude": "37.56003940",
        "longitude": "127.04087663",
        "address": "서울 성동구 행당동",
        "roadName": "마조로",
        "buildingNo": "-",
        "radius_km": "0.495",
        "dataKind": "",
        "stId": "",
        "parkFlag": "1",
        "merchantFlag": ""
      },
      {
        "name": "서울숲정의원",
        "telNo": "0222946990",
        "latitude": "37.55631756",
        "longitude": "127.03801589",
        "address": "서울 성동구 행당동",
        "roadName": "고산자로2길",
        "buildingNo": "-",
        "radius_km": "0.574",
        "dataKind": "",
        "stId": "",
        "parkFlag": "1",
        "merchantFlag": ""
      },
      {
        "name": "서울숲정의원 주차장",
        "telNo": "0222946990",
        "latitude": "37.55606759",
        "longitude": "127.03768259",
        "address": "서울 성동구 행당동",
        "roadName": "고산자로2길",
        "buildingNo": "-",
        "radius_km": "0.574",
        "dataKind": "",
        "stId": "",
        "parkFlag": "0",
        "merchantFlag": ""
      },
      {
        "name": "우리아이소아청소년과",
        "telNo": "0222955275",
        "latitude": "37.55628979",
        "longitude": "127.03801589",
        "address": "서울 성동구 행당동",
        "roadName": "고산자로2길",
        "buildingNo": "-",
        "radius_km": "0.574",
        "dataKind": "",
        "stId": "",
        "parkFlag": "1",
        "merchantFlag": ""
      },
      {
        "name": "우리아이소아청소년과 주차장",
        "telNo": "0222955275",
        "latitude": "37.55601204",
        "longitude": "127.03762704",
        "address": "서울 성동구 행당동",
        "roadName": "고산자로2길",
        "buildingNo": "-",
        "radius_km": "0.574",
        "dataKind": "",
        "stId": "",
        "parkFlag": "0",
        "merchantFlag": ""
      }
    ]
  }
}