{
  "key": "7faf06e9f327e9ce45fbf0ae5568ff7771a52dc4b519001ad938f3d47c7710c3",
  "tool": "PlaceSearch_kakao",
  "created_at": "2025-10-27T16:45:05.375787",
  "input_params": {
    "keyword": "강남역 로스터리 카페",
    "radius": 800,
    "size": 15,
    "sort": "distance",
    "x": 127.02762,
    "y": 37.49794
  },
  "raw_args": {
    "keyword": "강남역 로스터리 카페",
    "x": 127.02762,
    "y": 37.49794,
    "radius": 800,
    "size": 15,
    "sort": "distance"
  },
  "data": {
    "keyword": "강남역 로스터리 카페",
    "total_count": 29,
    "places": [
      {
        "name": "브릭샌드 강남역점",
        "latitude": 37.49687174334512,
        "longitude": 127.02815474822921,
        "address": "서울 강남구 역삼동 858",
        "road_address": "",
        "phone": "070-8871-9673",
        "category": "음식점 > 간식 > 제과,베이커리",
        "distance": "127"
      },
      {
        "name": "커피나인 강남역센트럴애비뉴점",
        "latitude": 37.4976670570973,
        "longitude": 127.02928590781,
        "address": "서울 강남구 역삼동 825-20",
        "road_address": "서울 강남구 테헤란로4길 6",
        "phone": "",
        "category": "음식점 > 카페 > 커피전문점 > 커피나인",
        "distance": "150"
      },
      {
        "name": "커피나인 강남역2호점",
        "latitude": 37.4997232138463,
        "longitude": 127.029041307253,
        "address": "서울 강남구 역삼동 818-8",
        "road_address": "서울 강남구 강남대로94길 21",
        "phone": "02-508-2999",
        "category": "음식점 > 카페 > 커피전문점 > 커피나인",
        "distance": "234"
      },
      {
        "name": "커피나인 강남역점",
        "latitude": 37.495540266938185,
        "longitude": 127.02725297772209,
        "address": "서울 서초구 서초동 1327",
        "road_address": "서울 서초구 서초대로74길 23",
        "phone": "02-3474-2999",
        "category": "음식점 > 카페 > 커피전문점 > 커피나인",
        "distance": "268"
      },
      {
        "name": "영커피 강남해커스점",
        "latitude": 37.4986718204777,
        "longitude": 127.02472660755762,
        "address": "서울 서초구 서초동 1316-17",
        "road_address": "서울 서초구 강남대로61길 19",
        "phone": "",
        "category": "음식점 > 카페 > 커피전문점 > 영커피",
        "distance": "268"
      },
      {
        "name": "더벤티 강남점",
        "latitude": 37.4961367971498,
        "longitude": 127.03066832500929,
        "address": "서울 강남구 역삼동 827-14",
        "road_address": "서울 강남구 테헤란로4길 35",
        "phone": "02-558-0780",
        "category": "음식점 > 카페 > 커피전문점 > 더벤티",
        "distance": "335"
      },
      {
        "name": "로스터리락온 강남역 1호점",
        "latitude": 37.4955485950361,
        "longitude": 127.030064221769,
        "address": "서울 강남구 역삼동 826-37",
        "road_address": "서울 강남구 테헤란로4길 46",
        "phone": "",
        "category": "음식점 > 카페",
        "distance": "342"
      },
      {
        "name": "브라운홀릭",
        "latitude": 37.5010549835616,
        "longitude": 127.028702549419,
        "address": "서울 강남구 역삼동 620-15",
        "road_address": "서울 강남구 강남대로98길 25",
        "phone": "02-555-5978",
        "category": "음식점 > 카페 > 커피전문점",
        "distance": "358"
      },
      {
        "name": "사운즈커피 프리미어 강남",
        "latitude": 37.4950594168562,
        "longitude": 127.029793759297,
        "address": "서울 강남구 역삼동 826-14",
        "road_address": "서울 강남구 강남대로 358",
        "phone": "",
        "category": "음식점 > 카페 > 커피전문점",
        "distance": "373"
      },
      {
        "name": "팡뮤제 강남본점",
        "latitude": 37.4962481668029,
        "longitude": 127.032007284629,
        "address": "서울 강남구 역삼동 827-64",
        "road_address": "서울 강남구 테헤란로8길 40",
        "phone": "",
        "category": "음식점 > 간식 > 제과,베이커리",
        "distance": "430"
      },
      {
        "name": "수수커피 강남N타워점",
        "latitude": 37.4999331851048,
        "longitude": 127.032366220354,
        "address": "서울 강남구 역삼동 648-9",
        "road_address": "서울 강남구 테헤란로 129",
        "phone": "02-6250-0925",
        "category": "음식점 > 카페",
        "distance": "474"
      },
      {
        "name": "쓰리오브컵스",
        "latitude": 37.4936740814659,
        "longitude": 127.028107185013,
        "address": "서울 서초구 서초동 1330-3",
        "road_address": "서울 서초구 서초대로74길 45",
        "phone": "0502-5551-0094",
        "category": "음식점 > 술집 > 와인바",
        "distance": "475"
      },
      {
        "name": "카페온화 강남점",
        "latitude": 37.5024393045619,
        "longitude": 127.027110725716,
        "address": "서울 강남구 역삼동 812",
        "road_address": "서울 강남구 봉은사로4길 37",
        "phone": "",
        "category": "음식점 > 카페",
        "distance": "501"
      },
      {
        "name": "로스터리락온 역삼포스코점",
        "latitude": 37.4988327356674,
        "longitude": 127.033516979757,
        "address": "서울 강남구 역삼동 735-11",
        "road_address": "서울 강남구 논현로87길 41",
        "phone": "",
        "category": "음식점 > 카페",
        "distance": "530"
      },
      {
        "name": "로스터리스탠",
        "latitude": 37.49829559798224,
        "longitude": 127.03399962136838,
        "address": "서울 강남구 역삼동 735-17",
        "road_address": "서울 강남구 논현로85길 52",
        "phone": "010-7507-2335",
        "category": "음식점 > 카페 > 커피전문점",
        "distance": "565"
      }
    ]
  }
}