{
  "key": "b75ab2d94a27f2f032ca2e61cf51e84e45307011f0f9044d5d2f119d887c1392",
  "tool": "PlaceSearch_kakao",
  "created_at": "2025-10-27T16:45:05.304749",
  "input_params": {
    "keyword": "강남역 북카페",
    "radius": 800,
    "size": 15,
    "sort": "distance",
    "x": 127.02762,
    "y": 37.49794
  },
  "raw_args": {
    "keyword": "강남역 북카페",
    "x": 127.02762,
    "y": 37.49794,
    "radius": 800,
    "size": 15,
    "sort": "distance"
  },
  "data": {
    "keyword": "강남역 북카페",
    "total_count": 7,
    "places": [
      {
        "name": "사유의서재 강남점",
        "latitude": 37.50087867685724,
        "longitude": 127.02748109974698,
        "address": "서울 강남구 역삼동 619-28",
        "road_address": "서울 강남구 강남대로98길 11",
        "phone": "010-2197-0957",
        "category": "음식점 > 술집 > 와인바",
        "distance": "326"
      },
      {
        "name": "놀숲 강남역점",
        "latitude": 37.50098307994714,
        "longitude": 127.02796516792077,
        "address": "서울 강남구 역삼동 620-9",
        "road_address": "서울 강남구 강남대로98길 17",
        "phone": "02-558-5846",
        "category": "가정,생활 > 여가시설 > 만화방 > 만화카페 > 놀숲",
        "distance": "338"
      },
      {
        "name": "쿠지 커피로스터스 강남역점",
        "latitude": 37.4946830502246,
        "longitude": 127.03225652702,
        "address": "서울 강남구 역삼동 830-59",
        "road_address": "서울 강남구 역삼로5길 12",
        "phone": "02-555-8138",
        "category": "음식점 > 카페",
        "distance": "546"
      },
      {
        "name": "놀숲 강남교보타워점",
        "latitude": 37.502548906046734,
        "longitude": 127.02445419990524,
        "address": "서울 서초구 서초동 1303-36",
        "road_address": "서울 서초구 서초대로77길 58",
        "phone": "02-533-7533",
        "category": "가정,생활 > 여가시설 > 만화방 > 만화카페 > 놀숲",
        "distance": "582"
      },
      {
        "name": "그레이스케일커피",
        "latitude": 37.5032535497272,
        "longitude": 127.028237441604,
        "address": "서울 강남구 역삼동 618-8",
        "road_address": "서울 강남구 강남대로102길 38",
        "phone": "",
        "category": "음식점 > 카페",
        "distance": "592"
      },
      {
        "name": "서울북카페 욕망의북카페",
        "latitude": 37.5038455049071,
        "longitude": 127.028260283629,
        "address": "서울 강남구 역삼동 616-10",
        "road_address": "서울 강남구 강남대로102길 45",
        "phone": "010-3151-2608",
        "category": "음식점 > 카페 > 테마카페 > 북카페",
        "distance": "657"
      },
      {
        "name": "셋어스펠",
        "latitude": 37.5008226777495,
        "longitude": 127.034831984977,
        "address": "서울 강남구 역삼동 646-13",
        "road_address": "서울 강남구 강남대로94길 94",
        "phone": "",
        "category": "음식점 > 카페",
        "distance": "713"
      }
    ]
  }
}