{
  "key": "b79b0b57135b64c206d0c02a04e02334de2d57df0d5abc30a53ab59804699902",
  "tool": "PlaceSearch_kakao",
  "created_at": "2025-10-21T00:43:14.566610",
  "input_params": {
    "keyword": "디저트 카페",
    "page": 1,
    "radius": 1000,
    "size": 10,
    "sort": "distance",
    "x": 126.97865,
    "y": 37.49869
  },
  "raw_args": {
    "keyword": "디저트 카페",
    "x": 126.97865,
    "y": 37.49869,
    "page": 1,
    "size": 10,
    "radius": 1000,
    "sort": "distance"
  },
  "data": {
    "keyword": "디저트 카페",
    "total_count": 7,
    "places": [
      {
        "name": "방배동커피상회",
        "latitude": 37.49814004317015,
        "longitude": 126.98486672226917,
        "address": "서울 서초구 방배동 752-8",
        "road_address": "서울 서초구 방배중앙로 213",
        "phone": "",
        "category": "음식점 > 카페",
        "distance": "553"
      },
      {
        "name": "다수니",
        "latitude": 37.4949918663408,
        "longitude": 126.984408244327,
        "address": "서울 서초구 방배동 766-4",
        "road_address": "서울 서초구 동광로3길 91",
        "phone": "",
        "category": "음식점 > 카페 > 테마카페 > 디저트카페",
        "distance": "653"
      },
      {
        "name": "키르케",
        "latitude": 37.494250328676,
        "longitude": 126.984340549913,
        "address": "서울 서초구 방배동 766-29",
        "road_address": "서울 서초구 동광로3길 71",
        "phone": "02-6015-6835",
        "category": "음식점 > 간식 > 제과,베이커리",
        "distance": "704"
      },
      {
        "name": "라콤",
        "latitude": 37.4938557761672,
        "longitude": 126.985023637637,
        "address": "서울 서초구 방배동 780-21",
        "road_address": "서울 서초구 방배중앙로25길 19",
        "phone": "010-6767-7790",
        "category": "음식점 > 카페",
        "distance": "778"
      },
      {
        "name": "TTING",
        "latitude": 37.493934266481304,
        "longitude": 126.98585702505648,
        "address": "서울 서초구 방배동 778-2",
        "road_address": "서울 서초구 방배중앙로25길 5",
        "phone": "010-8691-1699",
        "category": "음식점 > 카페 > 테마카페 > 디저트카페",
        "distance": "827"
      },
      {
        "name": "요거트아이스크림의정석 이수점",
        "latitude": 37.4927718006266,
        "longitude": 126.984527438491,
        "address": "서울 서초구 방배동 780-17",
        "road_address": "서울 서초구 동광로3길 40",
        "phone": "0507-1381-1564",
        "category": "음식점 > 카페 > 테마카페 > 디저트카페 > 요거트아이스크림의정석",
        "distance": "837"
      },
      {
        "name": "파니모들",
        "latitude": 37.490234240400895,
        "longitude": 126.98222914929215,
        "address": "서울 동작구 사당동 79-3",
        "road_address": "서울 동작구 동작대로 153",
        "phone": "070-7607-8252",
        "category": "음식점 > 카페 > 테마카페 > 디저트카페",
        "distance": "990"
      }
    ]
  }
}