{
  "key": "7d3bbc32f6c36e7276d3c8c180cbc29722052becaba44e3934fe6cdfc0b0c8e7",
  "tool": "CategorySearch_kakao",
  "created_at": "2025-10-21T04:07:39.974996",
  "input_params": {
    "category": "FD6",
    "radius": 1000,
    "size": 15,
    "x": 126.9749,
    "y": 37.5866
  },
  "raw_args": {
    "category": "FD6",
    "x": 126.9749,
    "y": 37.5866,
    "radius": 1000,
    "size": 15
  },
  "data": {
    "category": "FD6",
    "total_count": 285,
    "places": [
      {
        "name": "삼청동수제비",
        "latitude": 37.5845977743306,
        "longitude": 126.98197124938,
        "address": "서울 종로구 삼청동 102-2",
        "phone": "02-735-2965",
        "distance": "662"
      },
      {
        "name": "황생가칼국수",
        "latitude": 37.58006016029821,
        "longitude": 126.98064098689737,
        "address": "서울 종로구 소격동 84",
        "phone": "02-739-6334",
        "distance": "885"
      },
      {
        "name": "잘빠진메밀 서촌점",
        "latitude": 37.57966895174509,
        "longitude": 126.97098201026118,
        "address": "서울 종로구 통인동 120",
        "phone": "070-4142-1214",
        "distance": "843"
      },
      {
        "name": "영화루",
        "latitude": 37.580129760488376,
        "longitude": 126.96901422936996,
        "address": "서울 종로구 누하동 25-1",
        "phone": "02-738-1218",
        "distance": "886"
      },
      {
        "name": "부영도가니탕",
        "latitude": 37.58719634044674,
        "longitude": 126.98265447996478,
        "address": "서울 종로구 삼청동 27-14",
        "phone": "02-730-9440",
        "distance": "687"
      },
      {
        "name": "들풀건강한밥상 청운동점",
        "latitude": 37.586427998006215,
        "longitude": 126.97015514328469,
        "address": "서울 종로구 청운동 69",
        "phone": "02-720-4323",
        "distance": "419"
      },
      {
        "name": "온지음 레스토랑",
        "latitude": 37.580494739542516,
        "longitude": 126.97339071212892,
        "address": "서울 종로구 창성동 17-1",
        "phone": "02-6952-0024",
        "distance": "690"
      },
      {
        "name": "중국",
        "latitude": 37.586196332706145,
        "longitude": 126.9697227357905,
        "address": "서울 종로구 청운동 59-1",
        "phone": "",
        "distance": "459"
      },
      {
        "name": "두오모 북스앤쿡스",
        "latitude": 37.5816116340889,
        "longitude": 126.971556378056,
        "address": "서울 종로구 효자동 40-2",
        "phone": "02-730-0902",
        "distance": "627"
      },
      {
        "name": "소선재푸드",
        "latitude": 37.5855203606309,
        "longitude": 126.981771761666,
        "address": "서울 종로구 삼청동 113-3",
        "phone": "02-730-7002",
        "distance": "618"
      },
      {
        "name": "청수정",
        "latitude": 37.5835958287631,
        "longitude": 126.981704301353,
        "address": "서울 종로구 삼청동 88-23",
        "phone": "02-738-8288",
        "distance": "687"
      },
      {
        "name": "편안한집",
        "latitude": 37.5872937461736,
        "longitude": 126.983338315565,
        "address": "서울 종로구 삼청동 27-3",
        "phone": "02-735-0092",
        "distance": "749"
      },
      {
        "name": "효자베이커리",
        "latitude": 37.5809405633518,
        "longitude": 126.968667464836,
        "address": "서울 종로구 통인동 43-1",
        "phone": "02-736-7629",
        "distance": "835"
      },
      {
        "name": "다락정",
        "latitude": 37.58723851547563,
        "longitude": 126.98152338766235,
        "address": "서울 종로구 삼청동 127",
        "phone": "02-725-1697",
        "distance": "589"
      },
      {
        "name": "까델루뽀",
        "latitude": 37.5818242357445,
        "longitude": 126.971420441248,
        "address": "서울 종로구 효자동 39-1",
        "phone": "02-734-5233",
        "distance": "612"
      }
    ]
  }
}