{
  "key": "8e0841de48390f0c3be7896412ed73725452a23eb2b13e85bb1dd1ddd6389613",
  "tool": "PlaceSearch_kakao",
  "created_at": "2025-10-21T05:31:28.223679",
  "input_params": {
    "keyword": "병원",
    "radius": 1000,
    "size": 15,
    "sort": "distance",
    "x": 127.05784829549488,
    "y": 37.5975430443335
  },
  "raw_args": {
    "x": 127.05784829549488,
    "y": 37.5975430443335,
    "sort": "distance",
    "keyword": "병원",
    "radius": 1000,
    "size": 15
  },
  "data": {
    "keyword": "병원",
    "total_count": 124,
    "places": [
      {
        "name": "보인한의원",
        "latitude": 37.59798334202295,
        "longitude": 127.06022323174224,
        "address": "서울 동대문구 이문동 263-10",
        "road_address": "서울 동대문구 이문로35길 21",
        "phone": "02-966-0241",
        "category": "의료,건강 > 병원 > 한의원",
        "distance": "215"
      },
      {
        "name": "보인내과의원",
        "latitude": 37.59746232694767,
        "longitude": 127.06069614226104,
        "address": "서울 동대문구 이문동 291-12",
        "road_address": "서울 동대문구 이문로 119",
        "phone": "02-966-0242",
        "category": "의료,건강 > 병원 > 내과",
        "distance": "251"
      },
      {
        "name": "서울석치과의원",
        "latitude": 37.59743348243108,
        "longitude": 127.06072103094965,
        "address": "서울 동대문구 이문동 291-12",
        "road_address": "",
        "phone": "02-963-7522",
        "category": "의료,건강 > 병원 > 치과",
        "distance": "253"
      },
      {
        "name": "미체로의원",
        "latitude": 37.5967361359659,
        "longitude": 127.06068083173,
        "address": "서울 동대문구 이문동 288-10",
        "road_address": "서울 동대문구 이문로 114",
        "phone": "02-962-3232",
        "category": "의료,건강 > 병원 > 피부과",
        "distance": "265"
      },
      {
        "name": "수비뇨기과의원",
        "latitude": 37.597864064384,
        "longitude": 127.060899163821,
        "address": "서울 동대문구 이문동 291-37",
        "road_address": "서울 동대문구 이문로 125",
        "phone": "02-963-7533",
        "category": "의료,건강 > 병원 > 비뇨기과",
        "distance": "271"
      },
      {
        "name": "밝은성모안과의원",
        "latitude": 37.5978856881594,
        "longitude": 127.060899181445,
        "address": "서울 동대문구 이문동 291-37",
        "road_address": "서울 동대문구 이문로 125",
        "phone": "02-965-1515",
        "category": "의료,건강 > 병원 > 안과",
        "distance": "271"
      },
      {
        "name": "NYU이문치과의원",
        "latitude": 37.5978856881594,
        "longitude": 127.060899181445,
        "address": "서울 동대문구 이문동 291-37",
        "road_address": "서울 동대문구 이문로 125",
        "phone": "02-968-3208",
        "category": "의료,건강 > 병원 > 치과",
        "distance": "271"
      },
      {
        "name": "서울현정신건강의학과의원",
        "latitude": 37.595525619358426,
        "longitude": 127.05986682852009,
        "address": "서울 동대문구 이문동 287-38",
        "road_address": "서울 동대문구 이문로 98",
        "phone": "02-6949-5663",
        "category": "의료,건강 > 병원 > 정신건강의학과",
        "distance": "286"
      },
      {
        "name": "아라현치과의원",
        "latitude": 37.5953202748493,
        "longitude": 127.059705872154,
        "address": "서울 동대문구 이문동 287-58",
        "road_address": "서울 동대문구 이문로 96",
        "phone": "02-966-2877",
        "category": "의료,건강 > 병원 > 치과",
        "distance": "295"
      },
      {
        "name": "에이블치과의원",
        "latitude": 37.596054953659575,
        "longitude": 127.06074482241544,
        "address": "서울 동대문구 이문동 288-50",
        "road_address": "서울 동대문구 휘경로 6",
        "phone": "02-2234-2222",
        "category": "의료,건강 > 병원 > 치과",
        "distance": "304"
      },
      {
        "name": "서울아트피부과의원",
        "latitude": 37.5960558517365,
        "longitude": 127.060750484886,
        "address": "서울 동대문구 이문동 288-50",
        "road_address": "서울 동대문구 휘경로 6",
        "phone": "02-966-1357",
        "category": "의료,건강 > 병원 > 피부과",
        "distance": "304"
      },
      {
        "name": "유진여성의원",
        "latitude": 37.59840180349117,
        "longitude": 127.06119402186313,
        "address": "서울 동대문구 이문동 291-32",
        "road_address": "서울 동대문구 이문로 131",
        "phone": "02-966-4263",
        "category": "의료,건강 > 병원 > 산부인과",
        "distance": "310"
      },
      {
        "name": "최일규정형외과의원",
        "latitude": 37.5979358642861,
        "longitude": 127.061438233626,
        "address": "서울 동대문구 이문동 292-249",
        "road_address": "서울 동대문구 이문로 128",
        "phone": "02-959-8312",
        "category": "의료,건강 > 병원 > 정형외과",
        "distance": "319"
      },
      {
        "name": "아이키소아청소년과의원 이문점",
        "latitude": 37.59915610818447,
        "longitude": 127.06085492109652,
        "address": "서울 동대문구 이문동 263-10",
        "road_address": "서울 동대문구 이문로35길 21",
        "phone": "02-6951-2205",
        "category": "의료,건강 > 병원 > 소아청소년과",
        "distance": "320"
      },
      {
        "name": "신재호내과",
        "latitude": 37.598633311055394,
        "longitude": 127.0612848024437,
        "address": "서울 동대문구 이문동 291-30",
        "road_address": "서울 동대문구 이문로 133-1",
        "phone": "02-968-6906",
        "category": "의료,건강 > 병원 > 내과",
        "distance": "326"
      }
    ]
  }
}