{
  "key": "7810993e935653e24d14f36e3f0d5dd25c54e98758844e0632109eb4417298fb",
  "tool": "PlaceSearch_kakao",
  "created_at": "2025-10-21T07:32:48.861907",
  "input_params": {
    "keyword": "강남역 카페",
    "page": 1,
    "size": 5,
    "sort": "accuracy"
  },
  "raw_args": {
    "keyword": "강남역 카페",
    "page": 1,
    "size": 5,
    "sort": "accuracy"
  },
  "data": {
    "keyword": "강남역 카페",
    "total_count": 2905,
    "places": [
      {
        "name": "키이스케이프 강남점",
        "latitude": 37.5001035869388,
        "longitude": 127.028430769789,
        "address": "서울 강남구 역삼동 817-21",
        "road_address": "서울 강남구 강남대로96길 17",
        "phone": "010-7456-6082",
        "category": "음식점 > 카페 > 테마카페",
        "distance": ""
      },
      {
        "name": "할리스 강남역점",
        "latitude": 37.49871619356776,
        "longitude": 127.02777433522404,
        "address": "서울 강남구 역삼동 820-11",
        "road_address": "서울 강남구 강남대로 402",
        "phone": "02-555-0890",
        "category": "음식점 > 카페 > 커피전문점 > 할리스",
        "distance": ""
      },
      {
        "name": "스타벅스 강남R점",
        "latitude": 37.4976744709989,
        "longitude": 127.028443419181,
        "address": "서울 강남구 역삼동 825",
        "road_address": "서울 강남구 강남대로 390",
        "phone": "1522-3232",
        "category": "음식점 > 카페 > 커피전문점 > 스타벅스",
        "distance": ""
      },
      {
        "name": "커피빈 강남역먹자골목점",
        "latitude": 37.500098449489826,
        "longitude": 127.02729195389342,
        "address": "서울 강남구 역삼동 816-6",
        "road_address": "서울 강남구 테헤란로1길 29",
        "phone": "02-552-6311",
        "category": "음식점 > 카페 > 커피전문점 > 커피빈",
        "distance": ""
      },
      {
        "name": "소과당",
        "latitude": 37.499734261007006,
        "longitude": 127.02806874426594,
        "address": "서울 강남구 역삼동 818-1",
        "road_address": "서울 강남구 강남대로96길 12",
        "phone": "02-538-8188",
        "category": "음식점 > 카페 > 테마카페 > 디저트카페",
        "distance": ""
      }
    ]
  }
}