{
  "key": "7843c01a4f44d8a784a83344211925adc5686e0a2c12b6468a54441f6d0e1877",
  "tool": "PlaceSearch_kakao",
  "created_at": "2025-10-27T17:17:06.050992",
  "input_params": {
    "keyword": "맛집",
    "radius": 1000,
    "size": 10,
    "sort": "distance",
    "x": 127.2215,
    "y": 37.6375
  },
  "raw_args": {
    "keyword": "맛집",
    "radius": 1000,
    "size": 10,
    "x": 127.2215,
    "y": 37.6375,
    "sort": "distance"
  },
  "data": {
    "keyword": "맛집",
    "total_count": 59,
    "places": [
      {
        "name": "어랑손만두국",
        "latitude": 37.63628665040511,
        "longitude": 127.22423501355276,
        "address": "경기 남양주시 금곡동 14",
        "road_address": "경기 남양주시 경춘로 1084-25",
        "phone": "031-592-2959",
        "category": "음식점 > 한식",
        "distance": "276"
      },
      {
        "name": "키스톤 스피시즈",
        "latitude": 37.636560879941705,
        "longitude": 127.22547982828894,
        "address": "경기 남양주시 금곡동 14-1",
        "road_address": "경기 남양주시 경춘로 1104-2",
        "phone": "070-8887-1104",
        "category": "음식점 > 카페",
        "distance": "366"
      },
      {
        "name": "달리는커피 남양주금곡점",
        "latitude": 37.6370749815033,
        "longitude": 127.216533197623,
        "address": "경기 남양주시 금곡동 204-2",
        "road_address": "경기 남양주시 경춘로양골1길 9-27",
        "phone": "031-559-5202",
        "category": "음식점 > 카페",
        "distance": "441"
      },
      {
        "name": "뜨란",
        "latitude": 37.6358722995465,
        "longitude": 127.216461730489,
        "address": "경기 남양주시 금곡동 185-10",
        "road_address": "경기 남양주시 경춘로 1037",
        "phone": "031-592-7150",
        "category": "음식점 > 카페 > 커피전문점",
        "distance": "480"
      },
      {
        "name": "매머드익스프레스 남양주시청제1청사점",
        "latitude": 37.6364148527216,
        "longitude": 127.215882096747,
        "address": "경기 남양주시 금곡동 203-31",
        "road_address": "경기 남양주시 경춘로양골1길 13",
        "phone": "",
        "category": "음식점 > 카페 > 커피전문점 > 매머드익스프레스",
        "distance": "510"
      },
      {
        "name": "티롤",
        "latitude": 37.6364096913831,
        "longitude": 127.215748392725,
        "address": "경기 남양주시 금곡동 203-32",
        "road_address": "경기 남양주시 경춘로양골1길 11",
        "phone": "",
        "category": "음식점 > 카페",
        "distance": "522"
      },
      {
        "name": "풀문",
        "latitude": 37.6361732018748,
        "longitude": 127.215491661151,
        "address": "경기 남양주시 금곡동 185-41",
        "road_address": "경기 남양주시 경춘로양골1길 10",
        "phone": "070-7543-3894",
        "category": "음식점 > 카페",
        "distance": "550"
      },
      {
        "name": "태능배갈비",
        "latitude": 37.6353160633072,
        "longitude": 127.215164031511,
        "address": "경기 남양주시 금곡동 185-18",
        "road_address": "경기 남양주시 경춘로 1023",
        "phone": "031-559-8588",
        "category": "음식점 > 한식 > 육류,고기 > 갈비",
        "distance": "609"
      },
      {
        "name": "승희네집밥",
        "latitude": 37.6362547144146,
        "longitude": 127.21426943699,
        "address": "경기 남양주시 금곡동 166-1",
        "road_address": "경기 남양주시 경춘로1015번길 13",
        "phone": "",
        "category": "음식점 > 한식",
        "distance": "653"
      },
      {
        "name": "원조공릉동멸치국수 금곡점",
        "latitude": 37.6355299650025,
        "longitude": 127.214466754158,
        "address": "경기 남양주시 금곡동 185-69",
        "road_address": "경기 남양주시 경춘로1015번길 8",
        "phone": "031-594-2901",
        "category": "음식점 > 한식 > 국수",
        "distance": "658"
      }
    ]
  }
}