{
  "key": "2228a50594212c79a9b9e0fe468ddcbe1fb0073077946c2abb7c48d61541841d",
  "tool": "CategorySearch_kakao",
  "created_at": "2025-10-27T16:51:32.829722",
  "input_params": {
    "category": "CS2",
    "radius": 800,
    "size": 15,
    "x": 129.1754,
    "y": 35.1534
  },
  "raw_args": {
    "x": 129.1754,
    "y": 35.1534,
    "category": "CS2",
    "radius": 800,
    "size": 15
  },
  "data": {
    "category": "CS2",
    "total_count": 6,
    "places": [
      {
        "name": "CU 해운대힐스파점",
        "latitude": 35.1584671925885,
        "longitude": 129.175268953533,
        "address": "부산 해운대구 중동 1509-7",
        "phone": "",
        "distance": "562"
      },
      {
        "name": "이마트24 해운대달맞이점",
        "latitude": 35.15761974344358,
        "longitude": 129.17970020980226,
        "address": "부산 해운대구 중동 1500-11",
        "phone": "02-6916-1500",
        "distance": "610"
      },
      {
        "name": "GS25 해운달맞이점",
        "latitude": 35.15884418370487,
        "longitude": 129.1809629469035,
        "address": "부산 해운대구 중동 1493-18",
        "phone": "051-741-3040",
        "distance": "788"
      },
      {
        "name": "CU 해운대미포점",
        "latitude": 35.15886473161774,
        "longitude": 129.17059082258595,
        "address": "부산 해운대구 중동 957-1",
        "phone": "",
        "distance": "748"
      },
      {
        "name": "세븐일레븐 부산해운대미포점",
        "latitude": 35.159236896810874,
        "longitude": 129.17039003287854,
        "address": "부산 해운대구 중동 957-9",
        "phone": "",
        "distance": "792"
      },
      {
        "name": "CU 해운대달맞이점",
        "latitude": 35.160363329804284,
        "longitude": 129.17541163081776,
        "address": "부산 해운대구 중동 1511-4",
        "phone": "051-746-1510",
        "distance": "772"
      }
    ]
  }
}