{
  "key": "ddb38eb5197e8d5bfba10ad24ca3312af9f6ea892f4b0f9e5951fb8b28344bf4",
  "tool": "PlaceSearch_kakao",
  "created_at": "2025-12-15T14:50:42.929081",
  "input_params": {
    "keyword": "대학교",
    "radius": 1000,
    "size": 10,
    "sort": "accuracy",
    "x": 127.002,
    "y": 37.595
  },
  "raw_args": {
    "keyword": "대학교",
    "size": 10,
    "x": 127.002,
    "y": 37.595,
    "radius": 1000
  },
  "data": {
    "keyword": "대학교",
    "total_count": 35,
    "places": [
      {
        "name": "가톨릭대학교 성신교정",
        "latitude": 37.586336176926416,
        "longitude": 127.0045786211564,
        "address": "서울 종로구 혜화동 90-1",
        "road_address": "서울 종로구 창경궁로 296-12",
        "phone": "02-740-9714",
        "category": "교육,학문 > 학교 > 대학교",
        "distance": "988"
      },
      {
        "name": "홍익대학교 사범대학 부속고등학교",
        "latitude": 37.5950001606957,
        "longitude": 127.003315469066,
        "address": "서울 성북구 성북동 151",
        "road_address": "서울 성북구 성북로14가길 23",
        "phone": "02-762-0826",
        "category": "교육,학문 > 학교 > 고등학교",
        "distance": "116"
      },
      {
        "name": "서강대학교SLP 성북",
        "latitude": 37.5906209473833,
        "longitude": 127.010181335698,
        "address": "서울 성북구 동소문동4가 75",
        "road_address": "서울 성북구 동소문로 43",
        "phone": "02-953-3553",
        "category": "교육,학문 > 학원 > 어학원 > 영어학원 > 서강대학교SLP",
        "distance": "870"
      },
      {
        "name": "홍익대학교 사범대학 부속중학교",
        "latitude": 37.59372166853255,
        "longitude": 127.00272774191963,
        "address": "서울 성북구 성북동 151",
        "road_address": "서울 성북구 성북로14가길 23",
        "phone": "02-762-0824",
        "category": "교육,학문 > 학교 > 중학교",
        "distance": "155"
      },
      {
        "name": "동방문화대학원대학교",
        "latitude": 37.5966577253632,
        "longitude": 126.99149826028,
        "address": "서울 성북구 성북동 292-1",
        "road_address": "서울 성북구 성북로28길 60",
        "phone": "02-3668-9800",
        "category": "교육,학문 > 학교 > 대학원",
        "distance": "945"
      },
      {
        "name": "홍익대학교사범대학 부속고등학교 후문",
        "latitude": 37.5950289781094,
        "longitude": 127.003791050107,
        "address": "서울 성북구 성북동 151",
        "road_address": "서울 성북구 성북로14가길 23",
        "phone": "",
        "category": "교통,수송 > 입출구",
        "distance": "158"
      },
      {
        "name": "성균관대학교 인문사회과학캠퍼스 K하우스",
        "latitude": 37.5880228280751,
        "longitude": 126.995235590364,
        "address": "서울 종로구 명륜3가 51",
        "road_address": "서울 종로구 성균관로7길 35",
        "phone": "02-760-1468",
        "category": "부동산 > 주거시설 > 기숙사,기숙시설",
        "distance": "978"
      },
      {
        "name": "성균관대학교 크라운빌A동",
        "latitude": 37.5867867614806,
        "longitude": 126.999596933987,
        "address": "서울 종로구 명륜1가 46-1",
        "road_address": "서울 종로구 혜화로5길 7",
        "phone": "",
        "category": "부동산 > 주거시설 > 기숙사,기숙시설",
        "distance": "936"
      },
      {
        "name": "동방문화대학원대학교 평생교육원",
        "latitude": 37.59664871447027,
        "longitude": 126.99148467301751,
        "address": "서울 성북구 성북동 292-1",
        "road_address": "서울 성북구 성북로28길 60",
        "phone": "02-3668-9890",
        "category": "교육,학문 > 교육단체 > 평생교육원,사회교육원",
        "distance": "946"
      },
      {
        "name": "가톨릭대학교성신교정 신학대학",
        "latitude": 37.5863578000523,
        "longitude": 127.004596737703,
        "address": "서울 종로구 혜화동 90-1",
        "road_address": "서울 종로구 창경궁로 296-12",
        "phone": "",
        "category": "교육,학문 > 학교부속시설",
        "distance": "986"
      }
    ]
  }
}