{
  "key": "290c001b96a01bb077da0eac4b95edf66503cd88906dd1fc0053e9c9c3b6035a",
  "tool": "PlaceSearch_kakao",
  "created_at": "2025-10-26T11:53:33.711145",
  "input_params": {
    "keyword": "맛집",
    "radius": 1000,
    "sort": "accuracy",
    "x": 126.9563,
    "y": 37.4738
  },
  "raw_args": {
    "keyword": "맛집",
    "radius": 1000,
    "x": 126.9563,
    "y": 37.4738
  },
  "data": {
    "keyword": "맛집",
    "total_count": 1084,
    "places": [
      {
        "name": "쟝블랑제리",
        "latitude": 37.477157623199,
        "longitude": 126.961968234363,
        "address": "서울 관악구 봉천동 1660-7",
        "road_address": "서울 관악구 낙성대역길 8",
        "phone": "02-889-5170",
        "category": "음식점 > 간식 > 제과,베이커리",
        "distance": "624"
      },
      {
        "name": "티라노",
        "latitude": 37.4783303233591,
        "longitude": 126.955613839455,
        "address": "서울 관악구 봉천동 1613-7",
        "road_address": "서울 관악구 남부순환로230길 39",
        "phone": "",
        "category": "음식점 > 카페 > 커피전문점",
        "distance": "506"
      },
      {
        "name": "킷사서울",
        "latitude": 37.47919458101109,
        "longitude": 126.95375917295634,
        "address": "서울 관악구 봉천동 1603-3",
        "road_address": "서울 관악구 남부순환로226길 31",
        "phone": "02-878-7444",
        "category": "음식점 > 일식",
        "distance": "639"
      },
      {
        "name": "시골집",
        "latitude": 37.4768789338449,
        "longitude": 126.958468200087,
        "address": "서울 관악구 봉천동 1625-5",
        "road_address": "서울 관악구 낙성대로 22-7",
        "phone": "02-874-7333",
        "category": "음식점 > 한식 > 쌈밥",
        "distance": "391"
      },
      {
        "name": "어부사시가",
        "latitude": 37.47899656141045,
        "longitude": 126.95427936155424,
        "address": "서울 관악구 봉천동 1603-15",
        "road_address": "서울 관악구 관악로14길 31",
        "phone": "02-877-9288",
        "category": "음식점 > 한식 > 해물,생선",
        "distance": "603"
      },
      {
        "name": "온고지신",
        "latitude": 37.4779167150772,
        "longitude": 126.95795435004281,
        "address": "서울 관악구 봉천동 1620-32",
        "road_address": "서울 관악구 관악로14길 101",
        "phone": "02-6338-5977",
        "category": "음식점 > 카페",
        "distance": "479"
      },
      {
        "name": "송원숯불갈비",
        "latitude": 37.4770988941379,
        "longitude": 126.958793677035,
        "address": "서울 관악구 봉천동 1625-29",
        "road_address": "서울 관악구 낙성대로 16",
        "phone": "02-887-5623",
        "category": "음식점 > 한식 > 육류,고기 > 갈비",
        "distance": "427"
      },
      {
        "name": "베이컨시",
        "latitude": 37.4778485717066,
        "longitude": 126.958901799382,
        "address": "서울 관악구 봉천동 1627-10",
        "road_address": "서울 관악구 봉천로62길 5",
        "phone": "0507-1428-6958",
        "category": "음식점 > 양식 > 이탈리안",
        "distance": "504"
      },
      {
        "name": "낙성기사식당",
        "latitude": 37.4780827852694,
        "longitude": 126.958761480961,
        "address": "서울 관악구 봉천동 1627-1",
        "road_address": "서울 관악구 봉천로 550",
        "phone": "02-883-1819",
        "category": "음식점 > 한식",
        "distance": "522"
      },
      {
        "name": "사케바히토리",
        "latitude": 37.4770230945561,
        "longitude": 126.958465859209,
        "address": "서울 관악구 봉천동 1625-4",
        "road_address": "서울 관악구 낙성대로 22-11",
        "phone": "02-875-0430",
        "category": "음식점 > 술집 > 일본식주점",
        "distance": "405"
      },
      {
        "name": "텐동요츠야",
        "latitude": 37.478438793238524,
        "longitude": 126.95655214933412,
        "address": "서울 관악구 봉천동 1612-40",
        "road_address": "서울 관악구 관악로14길 71",
        "phone": "02-883-7974",
        "category": "음식점 > 일식",
        "distance": "515"
      },
      {
        "name": "카페폴",
        "latitude": 37.4775522640476,
        "longitude": 126.956726768485,
        "address": "서울 관악구 봉천동 1621-36",
        "road_address": "서울 관악구 남부순환로234길 43",
        "phone": "070-8100-9091",
        "category": "음식점 > 카페",
        "distance": "418"
      },
      {
        "name": "하이보 서울대입구점",
        "latitude": 37.4772263635773,
        "longitude": 126.952715754868,
        "address": "서울 관악구 봉천동 1597-23",
        "road_address": "서울 관악구 관악로 134",
        "phone": "02-882-8813",
        "category": "음식점 > 중식 > 중국요리",
        "distance": "495"
      },
      {
        "name": "안녕과자점",
        "latitude": 37.478870620237636,
        "longitude": 126.95479950399285,
        "address": "서울 관악구 봉천동 1603-22",
        "road_address": "서울 관악구 남부순환로228길 20",
        "phone": "02-3285-0908",
        "category": "음식점 > 간식 > 제과,베이커리",
        "distance": "578"
      },
      {
        "name": "모던보이작업실",
        "latitude": 37.47823602662336,
        "longitude": 126.95644486276049,
        "address": "서울 관악구 봉천동 1619-1",
        "road_address": "서울 관악구 관악로14길 70",
        "phone": "02-878-0812",
        "category": "음식점 > 퓨전요리 > 퓨전한식",
        "distance": "492"
      }
    ]
  }
}