{
  "key": "2991138d50c9327a9994e0dc02bbe525040c2a988e77aff2c90c2398441b7482",
  "tool": "PlaceSearch_kakao",
  "created_at": "2025-12-19T02:57:43.624446",
  "input_params": {
    "keyword": "편의점",
    "radius": 500,
    "sort": "accuracy",
    "x": 126.928635,
    "y": 37.548163
  },
  "raw_args": {
    "x": 126.928635,
    "y": 37.548163,
    "radius": 500,
    "keyword": "편의점"
  },
  "data": {
    "keyword": "편의점",
    "total_count": 17,
    "places": [
      {
        "name": "이마트24 R마포서강해모로점",
        "latitude": 37.5471651539927,
        "longitude": 126.929514382845,
        "address": "서울 마포구 창전동 330",
        "road_address": "서울 마포구 독막로22길 3",
        "phone": "02-6401-8765",
        "category": "가정,생활 > 편의점 > 이마트24",
        "distance": "135"
      },
      {
        "name": "세븐일레븐 서강쌍용예가점",
        "latitude": 37.5479801372156,
        "longitude": 126.9303238557,
        "address": "서울 마포구 창전동 299",
        "road_address": "서울 마포구 독막로 147-10",
        "phone": "02-322-9408",
        "category": "가정,생활 > 편의점 > 세븐일레븐",
        "distance": "150"
      },
      {
        "name": "GS25 뉴상수사랑점",
        "latitude": 37.54745667509563,
        "longitude": 126.92591331725727,
        "address": "서울 마포구 상수동 402",
        "road_address": "서울 마포구 독막로20나길 22",
        "phone": "",
        "category": "가정,생활 > 편의점 > GS25",
        "distance": "252"
      },
      {
        "name": "GS25 광흥창역점",
        "latitude": 37.54820055890189,
        "longitude": 126.93131042648486,
        "address": "서울 마포구 창전동 444",
        "road_address": "서울 마포구 서강로 55",
        "phone": "",
        "category": "가정,생활 > 편의점 > GS25",
        "distance": "236"
      },
      {
        "name": "CU 마포창전점",
        "latitude": 37.5492169741063,
        "longitude": 126.931463396692,
        "address": "서울 마포구 창전동 104-2",
        "road_address": "서울 마포구 서강로3길 5",
        "phone": "",
        "category": "가정,생활 > 편의점 > CU",
        "distance": "275"
      },
      {
        "name": "CU 마포서강해모로점",
        "latitude": 37.5458170003157,
        "longitude": 126.929081122513,
        "address": "서울 마포구 하중동 12-1",
        "road_address": "서울 마포구 토정로 165-9",
        "phone": "",
        "category": "가정,생활 > 편의점 > CU",
        "distance": "263"
      },
      {
        "name": "세븐일레븐 밤섬자이행복점",
        "latitude": 37.5458449915999,
        "longitude": 126.927694900477,
        "address": "서울 마포구 상수동 50-1",
        "road_address": "서울 마포구 토정로 149",
        "phone": "1577-0711",
        "category": "가정,생활 > 편의점 > 세븐일레븐",
        "distance": "270"
      },
      {
        "name": "CU 홍대점",
        "latitude": 37.5479440106782,
        "longitude": 126.924327435471,
        "address": "서울 마포구 상수동 143-21",
        "road_address": "서울 마포구 독막로 97",
        "phone": "",
        "category": "가정,생활 > 편의점 > CU",
        "distance": "381"
      },
      {
        "name": "GS25 홍대엘리트점",
        "latitude": 37.54831206468882,
        "longitude": 126.92502753954936,
        "address": "서울 마포구 상수동 141-1",
        "road_address": "서울 마포구 독막로19길 15",
        "phone": "080-999-5425",
        "category": "가정,생활 > 편의점 > GS25",
        "distance": "319"
      },
      {
        "name": "이마트24 R홍대기숙사점",
        "latitude": 37.54948504665585,
        "longitude": 126.9248419068511,
        "address": "서울 마포구 상수동 72-1",
        "road_address": "서울 마포구 와우산로 94",
        "phone": "070-7723-4165",
        "category": "가정,생활 > 편의점 > 이마트24",
        "distance": "366"
      },
      {
        "name": "GS25 S6광흥창역점",
        "latitude": 37.5474864310311,
        "longitude": 126.931939127002,
        "address": "서울 마포구 창전동 145-17",
        "road_address": "서울 마포구 독막로 지하 165",
        "phone": "",
        "category": "가정,생활 > 편의점 > GS25",
        "distance": "301"
      },
      {
        "name": "GS25 상수크리원점",
        "latitude": 37.5454083876006,
        "longitude": 126.925409527402,
        "address": "서울 마포구 상수동 355-2",
        "road_address": "서울 마포구 토정로 131",
        "phone": "",
        "category": "가정,생활 > 편의점 > GS25",
        "distance": "418"
      },
      {
        "name": "세븐일레븐 광흥창역점",
        "latitude": 37.5481221923273,
        "longitude": 126.932912876034,
        "address": "서울 마포구 신수동 105-86",
        "road_address": "서울 마포구 창전로 64",
        "phone": "02-716-9851",
        "category": "가정,생활 > 편의점 > 세븐일레븐",
        "distance": "378"
      },
      {
        "name": "GS25 서강자이점",
        "latitude": 37.545242193092,
        "longitude": 126.932200298986,
        "address": "서울 마포구 구수동 68-8",
        "road_address": "서울 마포구 토정로 192",
        "phone": "",
        "category": "가정,생활 > 편의점 > GS25",
        "distance": "452"
      },
      {
        "name": "CU 홍대학사점",
        "latitude": 37.5497998533185,
        "longitude": 126.923993986447,
        "address": "서울 마포구 상수동 88-5",
        "road_address": "서울 마포구 독막로19길 42-18",
        "phone": "02-335-7740",
        "category": "가정,생활 > 편의점 > CU",
        "distance": "448"
      }
    ]
  }
}