{
  "key": "29a182a9f0a5c47622b40f40e4d4711872add8030211329657862ff7b9eda6c5",
  "tool": "PlaceSearch_kakao",
  "created_at": "2025-10-27T07:41:07.006948",
  "input_params": {
    "keyword": "디저트 카페",
    "radius": 1000,
    "size": 10,
    "sort": "distance",
    "x": 127.02800140627488,
    "y": 37.49808633653005
  },
  "raw_args": {
    "y": 37.49808633653005,
    "sort": "distance",
    "size": 10,
    "x": 127.02800140627488,
    "keyword": "디저트 카페",
    "radius": 1000
  },
  "data": {
    "keyword": "디저트 카페",
    "total_count": 88,
    "places": [
      {
        "name": "앤디캔디솜사탕",
        "latitude": 37.4982658880851,
        "longitude": 127.026920361572,
        "address": "서울 서초구 서초동 1318-8",
        "road_address": "서울 서초구 강남대로 399",
        "phone": "02-765-3837",
        "category": "음식점 > 카페 > 테마카페 > 디저트카페",
        "distance": "97"
      },
      {
        "name": "레이지레이디 케이크",
        "latitude": 37.497630184743244,
        "longitude": 127.02900657088206,
        "address": "서울 강남구 역삼동 825-20",
        "road_address": "서울 강남구 테헤란로4길 6",
        "phone": "02-554-8222",
        "category": "음식점 > 카페 > 테마카페 > 디저트카페",
        "distance": "102"
      },
      {
        "name": "스타벅스 강남역신분당역사점",
        "latitude": 37.49701321401818,
        "longitude": 127.02810165133745,
        "address": "서울 강남구 역삼동 858",
        "road_address": "",
        "phone": "1522-3232",
        "category": "음식점 > 카페 > 커피전문점 > 스타벅스",
        "distance": "119"
      },
      {
        "name": "비유어거트",
        "latitude": 37.4977274262053,
        "longitude": 127.029279146213,
        "address": "서울 강남구 역삼동 825-20",
        "road_address": "서울 강남구 테헤란로4길 6",
        "phone": "0503-5260-5027",
        "category": "음식점 > 카페 > 테마카페 > 디저트카페",
        "distance": "119"
      },
      {
        "name": "디저트39 강남 테헤란로점",
        "latitude": 37.4977283224454,
        "longitude": 127.029298371216,
        "address": "서울 강남구 역삼동 825-20",
        "road_address": "서울 강남구 테헤란로4길 6",
        "phone": "02-555-0390",
        "category": "음식점 > 카페 > 테마카페 > 디저트카페 > 디저트39",
        "distance": "121"
      },
      {
        "name": "브릭샌드 강남역점",
        "latitude": 37.49687174334512,
        "longitude": 127.02815474822921,
        "address": "서울 강남구 역삼동 858",
        "road_address": "",
        "phone": "070-8871-9673",
        "category": "음식점 > 간식 > 제과,베이커리",
        "distance": "135"
      },
      {
        "name": "투썸플레이스 강남역중앙점",
        "latitude": 37.499418935961735,
        "longitude": 127.0279544066067,
        "address": "서울 강남구 역삼동 818-15",
        "road_address": "서울 강남구 테헤란로1길 16",
        "phone": "02-558-1125",
        "category": "음식점 > 카페 > 커피전문점 > 투썸플레이스",
        "distance": "148"
      },
      {
        "name": "소과당",
        "latitude": 37.499734261007006,
        "longitude": 127.02806874426594,
        "address": "서울 강남구 역삼동 818-1",
        "road_address": "서울 강남구 강남대로96길 12",
        "phone": "02-538-8188",
        "category": "음식점 > 카페 > 테마카페 > 디저트카페",
        "distance": "183"
      },
      {
        "name": "커피빈 강남역세계빌딩점",
        "latitude": 37.49861752417937,
        "longitude": 127.02582919310726,
        "address": "서울 서초구 서초동 1317-31",
        "road_address": "서울 서초구 서초대로73길 12",
        "phone": "02-592-0053",
        "category": "음식점 > 카페 > 커피전문점 > 커피빈",
        "distance": "200"
      },
      {
        "name": "트리오드",
        "latitude": 37.4996167604381,
        "longitude": 127.029584093415,
        "address": "서울 강남구 역삼동 649",
        "road_address": "서울 강남구 강남대로94길 28",
        "phone": "02-568-9427",
        "category": "음식점 > 카페",
        "distance": "220"
      }
    ]
  }
}