{
  "key": "994937a56e492bb376bcc8ce45fa08fea2af603e30aff05e34e6c365138eac85",
  "tool": "PlaceSearch_kakao",
  "created_at": "2025-10-15T15:37:53.997446",
  "input_params": {
    "keyword": "맛집 시흥시청",
    "sort": "accuracy"
  },
  "raw_args": {
    "keyword": "맛집 시흥시청"
  },
  "data": {
    "keyword": "맛집 시흥시청",
    "total_count": 929,
    "places": [
      {
        "name": "마주생태탕",
        "latitude": 37.3820033134277,
        "longitude": 126.800646869127,
        "address": "경기 시흥시 장현동 533-2",
        "road_address": "경기 시흥시 새재로17번길 19",
        "phone": "031-317-1500",
        "category": "음식점 > 한식 > 해물,생선 > 매운탕,해물탕",
        "distance": ""
      },
      {
        "name": "돈카츠지공",
        "latitude": 37.38157161147612,
        "longitude": 126.80111546493227,
        "address": "경기 시흥시 장현동 534-1",
        "road_address": "경기 시흥시 시청로72번길 16",
        "phone": "031-317-3964",
        "category": "음식점 > 일식 > 돈까스,우동",
        "distance": ""
      },
      {
        "name": "선도아구찜탕",
        "latitude": 37.3817464892232,
        "longitude": 126.802237344597,
        "address": "경기 시흥시 장현동 546-1",
        "road_address": "경기 시흥시 시청로68번길 26",
        "phone": "",
        "category": "음식점 > 한식 > 해물,생선 > 아구",
        "distance": ""
      },
      {
        "name": "오 왕서방짬뽕",
        "latitude": 37.3811410423075,
        "longitude": 126.802261516649,
        "address": "경기 시흥시 장현동 547-5",
        "road_address": "경기 시흥시 새재로 19",
        "phone": "031-404-3700",
        "category": "음식점 > 중식 > 중국요리",
        "distance": ""
      },
      {
        "name": "장현족발",
        "latitude": 37.38091144937925,
        "longitude": 126.80128657389537,
        "address": "경기 시흥시 장현동 544-5",
        "road_address": "경기 시흥시 새재로7번길 6-1",
        "phone": "031-317-8989",
        "category": "음식점 > 한식 > 육류,고기 > 족발,보쌈",
        "distance": ""
      },
      {
        "name": "뜨는청국장시대 장현2호점",
        "latitude": 37.3816076788188,
        "longitude": 126.801131177277,
        "address": "경기 시흥시 장현동 534-1",
        "road_address": "경기 시흥시 시청로72번길 16",
        "phone": "031-503-5257",
        "category": "음식점 > 한식 > 찌개,전골",
        "distance": ""
      },
      {
        "name": "삼형제시골순대",
        "latitude": 37.3814206995292,
        "longitude": 126.801389108415,
        "address": "경기 시흥시 장현동 545-1",
        "road_address": "경기 시흥시 새재로17번길 9",
        "phone": "031-317-1542",
        "category": "음식점 > 한식 > 순대",
        "distance": ""
      },
      {
        "name": "진갈비 시흥장현점",
        "latitude": 37.381699540950564,
        "longitude": 126.80110609415459,
        "address": "경기 시흥시 장현동 534-1",
        "road_address": "경기 시흥시 시청로72번길 16",
        "phone": "031-318-3051",
        "category": "음식점 > 한식 > 육류,고기 > 갈비",
        "distance": ""
      },
      {
        "name": "소래올갱이코다리조림",
        "latitude": 37.382213558109406,
        "longitude": 126.80136443491902,
        "address": "경기 시흥시 장현동 531-4",
        "road_address": "경기 시흥시 시청로72번길 21-2",
        "phone": "031-504-7413",
        "category": "음식점 > 한식 > 해물,생선",
        "distance": ""
      },
      {
        "name": "반올림피자 경기시흥시청점",
        "latitude": 37.38200648826627,
        "longitude": 126.80253926601527,
        "address": "경기 시흥시 장현동 548-3",
        "road_address": "경기 시흥시 시청로68번길 30",
        "phone": "031-318-6333",
        "category": "음식점 > 양식 > 피자 > 반올림피자",
        "distance": ""
      },
      {
        "name": "일리카페 시흥시청점",
        "latitude": 37.3780408354557,
        "longitude": 126.802389336574,
        "address": "경기 시흥시 장현동 677",
        "road_address": "경기 시흥시 시청전원마을길 21",
        "phone": "0503-7150-4570",
        "category": "음식점 > 카페 > 커피전문점 > 일리카페",
        "distance": ""
      },
      {
        "name": "가마솥한식뷔페",
        "latitude": 37.3810530762545,
        "longitude": 126.801385561509,
        "address": "경기 시흥시 장현동 544-3",
        "road_address": "경기 시흥시 새재로7번길 6-2",
        "phone": "031-311-6978",
        "category": "음식점 > 뷔페 > 한식뷔페",
        "distance": ""
      },
      {
        "name": "가메골양푼이김치찌개 시흥시청점",
        "latitude": 37.3816438353702,
        "longitude": 126.801199957792,
        "address": "경기 시흥시 장현동 534-1",
        "road_address": "경기 시흥시 시청로72번길 16",
        "phone": "031-313-9915",
        "category": "음식점 > 한식 > 찌개,전골",
        "distance": ""
      },
      {
        "name": "커피와케이크",
        "latitude": 37.3820583096863,
        "longitude": 126.801202251008,
        "address": "경기 시흥시 장현동 532-4",
        "road_address": "경기 시흥시 시청로72번길 21",
        "phone": "010-4040-4259",
        "category": "음식점 > 카페",
        "distance": ""
      },
      {
        "name": "배스킨라빈스 시흥시청점",
        "latitude": 37.38093992042698,
        "longitude": 126.79947089939841,
        "address": "경기 시흥시 장현동 538-3",
        "road_address": "경기 시흥시 시청로 74",
        "phone": "031-312-9945",
        "category": "음식점 > 간식 > 아이스크림 > 배스킨라빈스",
        "distance": ""
      }
    ]
  }
}