{
  "key": "f1903f2e6458a0081be4390f19fdd49c5e40bc905ae4df5ee5da49544f00b540",
  "tool": "PlaceSearch_kakao",
  "created_at": "2025-12-19T06:11:21.396028",
  "input_params": {
    "keyword": "병원",
    "page": 1,
    "radius": 2000,
    "size": 10,
    "sort": "distance",
    "x": 127.027646096798,
    "y": 37.5924886084372
  },
  "raw_args": {
    "size": 10,
    "x": 127.027646096798,
    "y": 37.5924886084372,
    "page": 1,
    "sort": "distance",
    "keyword": "병원",
    "radius": 2000
  },
  "data": {
    "keyword": "병원",
    "total_count": 684,
    "places": [
      {
        "name": "고려대학교의료원 안암병원 어린이집",
        "latitude": 37.59104095803628,
        "longitude": 127.03032225303645,
        "address": "서울 성북구 안암동5가 산 1-61",
        "road_address": "서울 성북구 안암로 145",
        "phone": "02-921-6585",
        "category": "교육,학문 > 유아교육 > 어린이집",
        "distance": "285"
      },
      {
        "name": "고려대학교안암병원 한국인공장기센터",
        "latitude": 37.59006904901414,
        "longitude": 127.02539653823244,
        "address": "서울 성북구 안암동5가 1-2",
        "road_address": "서울 성북구 안암로 145",
        "phone": "",
        "category": "의료,건강 > 병원부속시설",
        "distance": "333"
      },
      {
        "name": "고려대학교 안암병원 장례식장",
        "latitude": 37.58935716924624,
        "longitude": 127.02583787260157,
        "address": "서울 성북구 안암동5가 1-2",
        "road_address": "서울 성북구 안암로 145",
        "phone": "02-923-4442",
        "category": "가정,생활 > 장례 > 장례식장",
        "distance": "382"
      },
      {
        "name": "고려대학교 의과대학본관",
        "latitude": 37.5885082210814,
        "longitude": 127.02679431682276,
        "address": "서울 성북구 안암동5가 126-28",
        "road_address": "서울 성북구 고려대로 73",
        "phone": "02-2286-1125",
        "category": "교육,학문 > 학교부속시설",
        "distance": "447"
      },
      {
        "name": "고려대학교안암병원 의학도서관",
        "latitude": 37.5881748417598,
        "longitude": 127.026847412075,
        "address": "서울 성북구 안암동5가 126-1",
        "road_address": "서울 성북구 고려대로 73",
        "phone": "02-2286-1262",
        "category": "교육,학문 > 학습시설 > 도서관",
        "distance": "483"
      },
      {
        "name": "고려대안암병원 주차장",
        "latitude": 37.5878006486128,
        "longitude": 127.02805649207909,
        "address": "서울 성북구 안암동5가 126-1",
        "road_address": "서울 성북구 고려대로 73",
        "phone": "",
        "category": "교통,수송 > 교통시설 > 주차장",
        "distance": "521"
      },
      {
        "name": "고려대학교안암병원 심장혈관흉부외과",
        "latitude": 37.5876136769361,
        "longitude": 127.0261633494,
        "address": "서울 성북구 안암동5가 126-1",
        "road_address": "서울 성북구 고려대로 73",
        "phone": "1577-0083",
        "category": "의료,건강 > 병원 > 흉부외과",
        "distance": "556"
      },
      {
        "name": "고려대학교안암병원 이비인후과",
        "latitude": 37.5875776271837,
        "longitude": 127.026208625576,
        "address": "서울 성북구 안암동5가 126-1",
        "road_address": "서울 성북구 고려대로 73",
        "phone": "1577-0083",
        "category": "의료,건강 > 병원 > 이비인후과",
        "distance": "559"
      },
      {
        "name": "고려대학교안암병원 마취통증의학과",
        "latitude": 37.5875506044394,
        "longitude": 127.026176913957,
        "address": "서울 성북구 안암동5가 126-1",
        "road_address": "서울 성북구 고려대로 73",
        "phone": "1577-0083",
        "category": "의료,건강 > 병원부속시설",
        "distance": "563"
      },
      {
        "name": "고려대학교안암병원 성형외과",
        "latitude": 37.5875145521657,
        "longitude": 127.026233512276,
        "address": "서울 성북구 안암동5가 126-1",
        "road_address": "서울 성북구 고려대로 73",
        "phone": "",
        "category": "의료,건강 > 병원 > 성형외과",
        "distance": "565"
      }
    ]
  }
}