{
  "key": "1a1404af8f08b26b6b753c0c5b67edda734a2c6563f2e808a0ec5be961657e1a",
  "tool": "PlaceSearch_kakao",
  "created_at": "2025-10-20T02:45:32.063590",
  "input_params": {
    "keyword": "주차장",
    "radius": 1000,
    "size": 10,
    "sort": "distance",
    "x": 127.111217,
    "y": 37.395516
  },
  "raw_args": {
    "keyword": "주차장",
    "x": 127.111217,
    "y": 37.395516,
    "size": 10,
    "radius": 1000,
    "sort": "distance"
  },
  "data": {
    "keyword": "주차장",
    "total_count": 80,
    "places": [
      {
        "name": "카카오 판교 아지트 주차장",
        "latitude": 37.3954296320512,
        "longitude": 127.110487319628,
        "address": "경기 성남시 분당구 백현동 532",
        "road_address": "경기 성남시 분당구 판교역로 166",
        "phone": "",
        "category": "교통,수송 > 교통시설 > 주차장",
        "distance": "65"
      },
      {
        "name": "카카오 T 판교테크원 주차장",
        "latitude": 37.395474938369574,
        "longitude": 127.11213055159179,
        "address": "경기 성남시 분당구 백현동 534",
        "road_address": "경기 성남시 분당구 분당내곡로 131",
        "phone": "",
        "category": "교통,수송 > 교통시설 > 주차장",
        "distance": "81"
      },
      {
        "name": "판교역 환승 공영주차장",
        "latitude": 37.39473508906209,
        "longitude": 127.11129375840602,
        "address": "경기 성남시 분당구 백현동 532-1",
        "road_address": "경기 성남시 분당구 분당내곡로 121",
        "phone": "031-701-5182",
        "category": "교통,수송 > 교통시설 > 주차장 > 공영주차장",
        "distance": "86"
      },
      {
        "name": "럭스타워 주차장",
        "latitude": 37.3964810239246,
        "longitude": 127.111553829114,
        "address": "경기 성남시 분당구 삼평동 651",
        "road_address": "경기 성남시 분당구 대왕판교로606번길 39",
        "phone": "",
        "category": "교통,수송 > 교통시설 > 주차장",
        "distance": "111"
      },
      {
        "name": "프라임스퀘어 주차장",
        "latitude": 37.3964519267223,
        "longitude": 127.111833861813,
        "address": "경기 성남시 분당구 삼평동 652",
        "road_address": "경기 성남시 분당구 대왕판교로606번길 41",
        "phone": "",
        "category": "교통,수송 > 교통시설 > 주차장",
        "distance": "117"
      },
      {
        "name": "카카오판교아지트 주차장입구",
        "latitude": 37.3950318137811,
        "longitude": 127.110022586526,
        "address": "경기 성남시 분당구 백현동 532",
        "road_address": "경기 성남시 분당구 판교역로 166",
        "phone": "",
        "category": "교통,수송 > 입출구",
        "distance": "118"
      },
      {
        "name": "AJ파크 메트로큐브점",
        "latitude": 37.3966080050735,
        "longitude": 127.110661838441,
        "address": "경기 성남시 분당구 삼평동 647",
        "road_address": "경기 성남시 분당구 대왕판교로606번길 31",
        "phone": "1899-1485",
        "category": "교통,수송 > 교통시설 > 주차장",
        "distance": "130"
      },
      {
        "name": "서건타워 주차장",
        "latitude": 37.3965480775583,
        "longitude": 127.110189686443,
        "address": "경기 성남시 분당구 삼평동 646",
        "road_address": "경기 성남시 분당구 판교역로 178",
        "phone": "",
        "category": "교통,수송 > 교통시설 > 주차장",
        "distance": "146"
      },
      {
        "name": "야외1층유료주차장",
        "latitude": 37.3968271838879,
        "longitude": 127.111375905865,
        "address": "경기 성남시 분당구 삼평동 650",
        "road_address": "",
        "phone": "",
        "category": "교통,수송 > 교통시설 > 주차장",
        "distance": "146"
      },
      {
        "name": "카카오T 판교알파돔타워 주차장",
        "latitude": 37.39447054205603,
        "longitude": 127.10995287833975,
        "address": "경기 성남시 분당구 백현동 537",
        "road_address": "경기 성남시 분당구 판교역로 152",
        "phone": "",
        "category": "교통,수송 > 교통시설 > 주차장",
        "distance": "160"
      }
    ]
  }
}