{
  "key": "1f5eaa3672de176e23acb70056625987e587d3c797802bca13e3567fb59c51ee",
  "tool": "PlaceSearch_kakao",
  "created_at": "2025-10-21T01:29:57.785052",
  "input_params": {
    "keyword": "카페",
    "radius": 1000,
    "size": 10,
    "sort": "accuracy"
  },
  "raw_args": {
    "keyword": "카페",
    "sort": "accuracy",
    "size": 10,
    "radius": 1000
  },
  "data": {
    "keyword": "카페",
    "total_count": 149739,
    "places": [
      {
        "name": "카페대너리스 북한강지점",
        "latitude": 37.5974253820501,
        "longitude": 127.338994556803,
        "address": "경기 남양주시 조안면 삼봉리 200-18",
        "road_address": "경기 남양주시 조안면 북한강로 914",
        "phone": "031-521-9700",
        "category": "음식점 > 카페",
        "distance": ""
      },
      {
        "name": "조양방직",
        "latitude": 37.746952643636554,
        "longitude": 126.48031692005236,
        "address": "인천 강화군 강화읍 신문리 587",
        "road_address": "인천 강화군 강화읍 향나무길5번길 12",
        "phone": "0507-1307-2192",
        "category": "음식점 > 카페 > 테마카페 > 갤러리카페",
        "distance": ""
      },
      {
        "name": "카페감자밭 본점",
        "latitude": 37.929580549697775,
        "longitude": 127.78451211702641,
        "address": "강원특별자치도 춘천시 신북읍 천전리 99-13",
        "road_address": "강원특별자치도 춘천시 신북읍 신샘밭로 674",
        "phone": "1566-3756",
        "category": "음식점 > 카페",
        "distance": ""
      },
      {
        "name": "어니언 안국",
        "latitude": 37.57763190416756,
        "longitude": 126.98657365849033,
        "address": "서울 종로구 계동 146-1",
        "road_address": "서울 종로구 계동길 5",
        "phone": "070-7543-2123",
        "category": "음식점 > 카페",
        "distance": ""
      },
      {
        "name": "스태픽스",
        "latitude": 37.5774769385374,
        "longitude": 126.967908167278,
        "address": "서울 종로구 필운동 32-1",
        "road_address": "서울 종로구 사직로9길 22",
        "phone": "0503-7152-4716",
        "category": "음식점 > 카페",
        "distance": ""
      },
      {
        "name": "키이스케이프 강남점",
        "latitude": 37.5001035869388,
        "longitude": 127.028430769789,
        "address": "서울 강남구 역삼동 817-21",
        "road_address": "서울 강남구 강남대로96길 17",
        "phone": "010-7456-6082",
        "category": "음식점 > 카페 > 테마카페",
        "distance": ""
      },
      {
        "name": "더대청호",
        "latitude": 36.51131303295064,
        "longitude": 127.49969635208237,
        "address": "충북 청주시 상당구 문의면 문산리 20-8",
        "road_address": "충북 청주시 상당구 문의면 대청호반로 786-25",
        "phone": "043-286-1231",
        "category": "음식점 > 카페",
        "distance": ""
      },
      {
        "name": "테라로사 광화문점",
        "latitude": 37.57482524736088,
        "longitude": 126.97982728286621,
        "address": "서울 종로구 중학동 19",
        "road_address": "서울 종로구 종로1길 50",
        "phone": "1668-2764",
        "category": "음식점 > 카페 > 커피전문점",
        "distance": ""
      },
      {
        "name": "테라로사 커피공장 강릉본점",
        "latitude": 37.69650003203305,
        "longitude": 128.8925581489692,
        "address": "강원특별자치도 강릉시 구정면 어단리 산 314",
        "road_address": "강원특별자치도 강릉시 구정면 현천길 7",
        "phone": "033-648-2760",
        "category": "음식점 > 카페 > 커피전문점",
        "distance": ""
      },
      {
        "name": "바다정원",
        "latitude": 38.23143245403228,
        "longitude": 128.5828850198183,
        "address": "강원특별자치도 고성군 토성면 용촌리 75-36",
        "road_address": "강원특별자치도 고성군 토성면 버리깨길 23",
        "phone": "033-636-1096",
        "category": "음식점 > 카페 > 커피전문점",
        "distance": ""
      }
    ]
  }
}