{
  "key": "1f70bce42f28faceac313f484edeb940a34817b794a456536c68dc112f0d5ac7",
  "tool": "PlaceSearch_kakao",
  "created_at": "2025-10-27T14:02:44.448870",
  "input_params": {
    "keyword": "판교역 공영주차장",
    "size": 15,
    "sort": "accuracy"
  },
  "raw_args": {
    "keyword": "판교역 공영주차장",
    "size": 15
  },
  "data": {
    "keyword": "판교역 공영주차장",
    "total_count": 20,
    "places": [
      {
        "name": "판교역 환승 공영주차장",
        "latitude": 37.39473508906209,
        "longitude": 127.11129375840602,
        "address": "경기 성남시 분당구 백현동 532-1",
        "road_address": "경기 성남시 분당구 분당내곡로 121",
        "phone": "031-701-5182",
        "category": "교통,수송 > 교통시설 > 주차장 > 공영주차장",
        "distance": ""
      },
      {
        "name": "판교공영주차장",
        "latitude": 37.39335344505844,
        "longitude": 127.11073610423651,
        "address": "경기 성남시 분당구 백현동 539",
        "road_address": "",
        "phone": "031-8017-2600",
        "category": "교통,수송 > 교통시설 > 주차장 > 공영주차장",
        "distance": ""
      },
      {
        "name": "백현동행정복지센터 주차장",
        "latitude": 37.3885382845996,
        "longitude": 127.110839685198,
        "address": "경기 성남시 분당구 백현동 557",
        "road_address": "경기 성남시 분당구 동판교로 21",
        "phone": "",
        "category": "교통,수송 > 교통시설 > 주차장 > 공영주차장",
        "distance": ""
      },
      {
        "name": "판교어린이도서관 주차장",
        "latitude": 37.38685597399271,
        "longitude": 127.10802777379284,
        "address": "경기 성남시 분당구 백현동 523",
        "road_address": "",
        "phone": "",
        "category": "교통,수송 > 교통시설 > 주차장 > 공영주차장",
        "distance": ""
      },
      {
        "name": "백현동카페거리 공영주차장",
        "latitude": 37.385448501406614,
        "longitude": 127.1119823765547,
        "address": "경기 성남시 분당구 백현동 563",
        "road_address": "경기 성남시 분당구 판교역로2번길 23",
        "phone": "031-724-0166",
        "category": "교통,수송 > 교통시설 > 주차장 > 공영주차장",
        "distance": ""
      },
      {
        "name": "서현역환승 공영주차장",
        "latitude": 37.384412901739,
        "longitude": 127.124044753546,
        "address": "경기 성남시 분당구 서현동 264",
        "road_address": "경기 성남시 분당구 황새울로360번길 43",
        "phone": "031-709-9968",
        "category": "교통,수송 > 교통시설 > 주차장 > 공영주차장",
        "distance": ""
      },
      {
        "name": "이매2동 행정복지센터 주차장",
        "latitude": 37.39956693565273,
        "longitude": 127.12169011307125,
        "address": "경기 성남시 분당구 이매동 138",
        "road_address": "",
        "phone": "",
        "category": "교통,수송 > 교통시설 > 주차장 > 공영주차장",
        "distance": ""
      },
      {
        "name": "백현동 공영주차장",
        "latitude": 37.3854304937986,
        "longitude": 127.111968799702,
        "address": "경기 성남시 분당구 백현동 563",
        "road_address": "경기 성남시 분당구 판교역로2번길 23",
        "phone": "",
        "category": "교통,수송 > 교통시설 > 주차장 > 공영주차장",
        "distance": ""
      },
      {
        "name": "판교 제2공영주차장",
        "latitude": 37.39038547791005,
        "longitude": 127.09851554386213,
        "address": "경기 성남시 분당구 판교동 574",
        "road_address": "",
        "phone": "031-8016-8427",
        "category": "교통,수송 > 교통시설 > 주차장 > 공영주차장",
        "distance": ""
      },
      {
        "name": "황새울공원 공영주차장",
        "latitude": 37.3835714294982,
        "longitude": 127.118695738142,
        "address": "경기 성남시 분당구 수내동 42",
        "road_address": "",
        "phone": "",
        "category": "교통,수송 > 교통시설 > 주차장 > 공영주차장",
        "distance": ""
      },
      {
        "name": "수내역환승공영주차장",
        "latitude": 37.3779817075995,
        "longitude": 127.114811991505,
        "address": "경기 성남시 분당구 수내동 15-1",
        "road_address": "",
        "phone": "031-716-9325",
        "category": "교통,수송 > 교통시설 > 주차장 > 공영주차장",
        "distance": ""
      },
      {
        "name": "판교동임시 공영주차장",
        "latitude": 37.38934062610651,
        "longitude": 127.09811329947024,
        "address": "경기 성남시 분당구 판교동 578",
        "road_address": "",
        "phone": "",
        "category": "교통,수송 > 교통시설 > 주차장 > 공영주차장",
        "distance": ""
      },
      {
        "name": "삼평동행정복지센터 주차장",
        "latitude": 37.406128175533,
        "longitude": 127.116309700901,
        "address": "경기 성남시 분당구 삼평동 712",
        "road_address": "경기 성남시 분당구 동판교로266번길 7",
        "phone": "",
        "category": "교통,수송 > 교통시설 > 주차장 > 공영주차장",
        "distance": ""
      },
      {
        "name": "판교동행정복지센터 지하주차장",
        "latitude": 37.3899222210087,
        "longitude": 127.098673031286,
        "address": "경기 성남시 분당구 판교동 575",
        "road_address": "경기 성남시 분당구 서판교로32번길 9",
        "phone": "",
        "category": "교통,수송 > 교통시설 > 주차장 > 공영주차장",
        "distance": ""
      },
      {
        "name": "노상 공영주차장",
        "latitude": 37.4059960931028,
        "longitude": 127.122198611455,
        "address": "경기 성남시 분당구 야탑동 553-2",
        "road_address": "",
        "phone": "",
        "category": "교통,수송 > 교통시설 > 주차장 > 공영주차장",
        "distance": ""
      }
    ]
  }
}