{
  "key": "f64c7a018344d762230e9bc3f212689733d487249bd76d2bed448f249de7a406",
  "tool": "PlaceSearch_kakao",
  "created_at": "2025-10-27T09:04:03.969789",
  "input_params": {
    "keyword": "맛집",
    "page": 1,
    "radius": 1000,
    "size": 10,
    "sort": "accuracy",
    "x": 126.976292,
    "y": 37.493872
  },
  "raw_args": {
    "keyword": "맛집",
    "radius": 1000,
    "x": 126.976292,
    "y": 37.493872,
    "page": 1,
    "size": 10
  },
  "data": {
    "keyword": "맛집",
    "total_count": 659,
    "places": [
      {
        "name": "소문난순대국",
        "latitude": 37.4897150466601,
        "longitude": 126.980863337009,
        "address": "서울 동작구 사당동 77-65",
        "road_address": "서울 동작구 동작대로29나길 38",
        "phone": "02-2061-1820",
        "category": "음식점 > 한식 > 순대",
        "distance": "613"
      },
      {
        "name": "사임당갤러리카페",
        "latitude": 37.4958414095508,
        "longitude": 126.978066353516,
        "address": "서울 동작구 동작동 61-61",
        "road_address": "서울 동작구 동작대로39가길 89",
        "phone": "02-595-1232",
        "category": "음식점 > 카페 > 테마카페 > 갤러리카페",
        "distance": "268"
      },
      {
        "name": "유정우함흥냉면",
        "latitude": 37.4885832932946,
        "longitude": 126.980329923961,
        "address": "서울 동작구 사당동 91-3",
        "road_address": "서울 동작구 동작대로29다길 7-1",
        "phone": "02-3478-0105",
        "category": "음식점 > 한식 > 냉면",
        "distance": "687"
      },
      {
        "name": "희객",
        "latitude": 37.4952765263926,
        "longitude": 126.983973948359,
        "address": "서울 서초구 방배동 763-15",
        "road_address": "서울 서초구 방배중앙로27길 32",
        "phone": "02-3444-7625",
        "category": "음식점 > 중식",
        "distance": "696"
      },
      {
        "name": "정작가의막걸리집",
        "latitude": 37.4897187748424,
        "longitude": 126.981645808956,
        "address": "서울 동작구 사당동 83-2",
        "road_address": "서울 동작구 동작대로33가길 5",
        "phone": "010-8986-1048",
        "category": "음식점 > 술집 > 호프,요리주점",
        "distance": "660"
      },
      {
        "name": "경성모밀",
        "latitude": 37.488241088361,
        "longitude": 126.981430203187,
        "address": "서울 동작구 사당동 88-18",
        "road_address": "서울 동작구 동작대로29가길 6",
        "phone": "02-532-6670",
        "category": "음식점 > 한식 > 국수",
        "distance": "772"
      },
      {
        "name": "오토김밥 동작",
        "latitude": 37.49097660709675,
        "longitude": 126.9818117229254,
        "address": "서울 동작구 사당동 39-10",
        "road_address": "서울 동작구 동작대로35길 10",
        "phone": "02-535-5870",
        "category": "음식점 > 분식",
        "distance": "584"
      },
      {
        "name": "샤브로21 이수",
        "latitude": 37.4893078853199,
        "longitude": 126.981453684542,
        "address": "서울 동작구 사당동 89-13",
        "road_address": "서울 동작구 동작대로29가길 29",
        "phone": "070-4791-1095",
        "category": "음식점 > 샤브샤브",
        "distance": "682"
      },
      {
        "name": "개미식당",
        "latitude": 37.4965919528133,
        "longitude": 126.983657030718,
        "address": "서울 서초구 방배동 753-8",
        "road_address": "서울 서초구 방배중앙로29길 30",
        "phone": "02-537-2563",
        "category": "음식점 > 한식 > 육류,고기",
        "distance": "717"
      },
      {
        "name": "방배화로구이",
        "latitude": 37.4907260650633,
        "longitude": 126.9814137574345,
        "address": "서울 동작구 사당동 72-15",
        "road_address": "서울 동작구 동작대로35가길 3",
        "phone": "02-591-5353",
        "category": "음식점 > 한식 > 육류,고기",
        "distance": "571"
      }
    ]
  }
}