{
  "key": "c284c61de8293daa0891727f9371c2f2ca0f12c024d81e91725847af56a9a244",
  "tool": "CategorySearch_tmap",
  "created_at": "2025-10-21T01:53:31.133856",
  "input_params": {
    "categories": "편의점",
    "centerLat": 37.4979,
    "centerLon": 127.0276,
    "count": 20,
    "radius": 1
  },
  "raw_args": {
    "radius": 1,
    "categories": "편의점",
    "centerLat": 37.4979,
    "centerLon": 127.0276
  },
  "data": {
    "totalCount": 171,
    "count": 20,
    "page": 1,
    "pois": [
      {
        "name": "이마트24 강남역점",
        "telNo": "0269161500",
        "latitude": "37.49790749",
        "longitude": "127.02760182",
        "address": "서울 강남구 역삼동",
        "roadName": "테헤란로",
        "buildingNo": "-",
        "radius_km": "0.001",
        "dataKind": "",
        "stId": "",
        "parkFlag": "0",
        "merchantFlag": ""
      },
      {
        "name": "GS25 S강남역1호점",
        "telNo": "025586042",
        "latitude": "37.49818525",
        "longitude": "127.02846285",
        "address": "서울 강남구 역삼동",
        "roadName": "강남대로",
        "buildingNo": "-",
        "radius_km": "0.082",
        "dataKind": "",
        "stId": "",
        "parkFlag": "0",
        "merchantFlag": ""
      },
      {
        "name": "GS25 강남메트로점 지하주차장",
        "telNo": "0234533207",
        "latitude": "37.49871296",
        "longitude": "127.02804621",
        "address": "서울 강남구 역삼동",
        "roadName": "테헤란로",
        "buildingNo": "-",
        "radius_km": "0.085",
        "dataKind": "",
        "stId": "",
        "parkFlag": "0",
        "merchantFlag": ""
      },
      {
        "name": "GS25 강남메트로점",
        "telNo": "0234533207",
        "latitude": "37.49860186",
        "longitude": "127.02801843",
        "address": "서울 강남구 역삼동",
        "roadName": "테헤란로",
        "buildingNo": "-",
        "radius_km": "0.085",
        "dataKind": "",
        "stId": "",
        "parkFlag": "1",
        "merchantFlag": ""
      },
      {
        "name": "GS25 강남본점",
        "telNo": "025553047",
        "latitude": "37.49762977",
        "longitude": "127.02876839",
        "address": "서울 강남구 역삼동",
        "roadName": "테헤란로2길",
        "buildingNo": "-",
        "radius_km": "0.107",
        "dataKind": "",
        "stId": "",
        "parkFlag": "0",
        "merchantFlag": ""
      },
      {
        "name": "세븐일레븐 강남스퀘어점",
        "telNo": "",
        "latitude": "37.49896294",
        "longitude": "127.02821285",
        "address": "서울 강남구 역삼동",
        "roadName": "테헤란로1길",
        "buildingNo": "-",
        "radius_km": "0.129",
        "dataKind": "",
        "stId": "",
        "parkFlag": "0",
        "merchantFlag": ""
      },
      {
        "name": "세븐일레븐 강남광장점",
        "telNo": "15770711",
        "latitude": "37.49860183",
        "longitude": "127.02621304",
        "address": "서울 서초구 서초동",
        "roadName": "서초대로77길",
        "buildingNo": "-",
        "radius_km": "0.145",
        "dataKind": "",
        "stId": "",
        "parkFlag": "0",
        "merchantFlag": ""
      },
      {
        "name": "GS25 S강남역3호점",
        "telNo": "16445425",
        "latitude": "37.49662988",
        "longitude": "127.02826847",
        "address": "서울 강남구 역삼동",
        "roadName": "강남대로",
        "buildingNo": "-",
        "radius_km": "0.154",
        "dataKind": "",
        "stId": "",
        "parkFlag": "0",
        "merchantFlag": ""
      },
      {
        "name": "CU 뉴삼성전자본점 주차장",
        "telNo": "",
        "latitude": "37.49704646",
        "longitude": "127.02624086",
        "address": "서울 서초구 서초동",
        "roadName": "서초대로74길",
        "buildingNo": "-",
        "radius_km": "0.157",
        "dataKind": "",
        "stId": "",
        "parkFlag": "0",
        "merchantFlag": ""
      },
      {
        "name": "CU 뉴삼성전자본점",
        "telNo": "",
        "latitude": "37.49671317",
        "longitude": "127.02665750",
        "address": "서울 서초구 서초동",
        "roadName": "서초대로74길",
        "buildingNo": "-",
        "radius_km": "0.157",
        "dataKind": "",
        "stId": "",
        "parkFlag": "1",
        "merchantFlag": ""
      },
      {
        "name": "CU 강남푸르지오점",
        "telNo": "028731232",
        "latitude": "37.49776865",
        "longitude": "127.02937944",
        "address": "서울 강남구 역삼동",
        "roadName": "테헤란로4길",
        "buildingNo": "-",
        "radius_km": "0.158",
        "dataKind": "",
        "stId": "",
        "parkFlag": "0",
        "merchantFlag": ""
      },
      {
        "name": "GS25 S강남역2호점",
        "telNo": "0805552525",
        "latitude": "37.49657433",
        "longitude": "127.02829624",
        "address": "서울 강남구 역삼동",
        "roadName": "강남대로",
        "buildingNo": "-",
        "radius_km": "0.161",
        "dataKind": "",
        "stId": "",
        "parkFlag": "0",
        "merchantFlag": ""
      },
      {
        "name": "GS25 강남프리미엄점",
        "telNo": "",
        "latitude": "37.49882403",
        "longitude": "127.02607416",
        "address": "서울 서초구 서초동",
        "roadName": "서초대로77길",
        "buildingNo": "-",
        "radius_km": "0.169",
        "dataKind": "",
        "stId": "",
        "parkFlag": "0",
        "merchantFlag": ""
      },
      {
        "name": "세븐일레븐 강남역TGI점",
        "telNo": "025344462",
        "latitude": "37.49771303",
        "longitude": "127.02551869",
        "address": "서울 서초구 서초동",
        "roadName": "서초대로",
        "buildingNo": "-",
        "radius_km": "0.185",
        "dataKind": "",
        "stId": "",
        "parkFlag": "0",
        "merchantFlag": ""
      },
      {
        "name": "GS25 서초삼성타운점",
        "telNo": "025823487",
        "latitude": "37.49671315",
        "longitude": "127.02574092",
        "address": "서울 서초구 서초동",
        "roadName": "서초대로74길",
        "buildingNo": "-",
        "radius_km": "0.212",
        "dataKind": "",
        "stId": "",
        "parkFlag": "1",
        "merchantFlag": ""
      },
      {
        "name": "GS25 서초삼성타운점 주차장",
        "telNo": "025823487",
        "latitude": "37.49668539",
        "longitude": "127.02612977",
        "address": "서울 서초구 서초동",
        "roadName": "서초대로74길",
        "buildingNo": "-",
        "radius_km": "0.212",
        "dataKind": "",
        "stId": "",
        "parkFlag": "0",
        "merchantFlag": ""
      },
      {
        "name": "CU 강남해커스점",
        "telNo": "025862418",
        "latitude": "37.49887956",
        "longitude": "127.02551865",
        "address": "서울 서초구 서초동",
        "roadName": "강남대로61길",
        "buildingNo": "-",
        "radius_km": "0.213",
        "dataKind": "",
        "stId": "",
        "parkFlag": "0",
        "merchantFlag": ""
      },
      {
        "name": "세븐일레븐 뉴강남센터점",
        "telNo": "15770711",
        "latitude": "37.49985171",
        "longitude": "127.02771287",
        "address": "서울 강남구 역삼동",
        "roadName": "강남대로96길",
        "buildingNo": "-",
        "radius_km": "0.216",
        "dataKind": "",
        "stId": "",
        "parkFlag": "0",
        "merchantFlag": ""
      },
      {
        "name": "CU 역삼우인점",
        "telNo": "025384118",
        "latitude": "37.49646325",
        "longitude": "127.02932393",
        "address": "서울 강남구 역삼동",
        "roadName": "강남대로84길",
        "buildingNo": "-",
        "radius_km": "0.221",
        "dataKind": "",
        "stId": "",
        "parkFlag": "0",
        "merchantFlag": ""
      },
      {
        "name": "GS25 강남타운점",
        "telNo": "0805552525",
        "latitude": "37.49896297",
        "longitude": "127.02985159",
        "address": "서울 강남구 역삼동",
        "roadName": "테헤란로",
        "buildingNo": "-",
        "radius_km": "0.23",
        "dataKind": "",
        "stId": "",
        "parkFlag": "0",
        "merchantFlag": ""
      }
    ]
  }
}