{
  "key": "c08d6f6a2d6327df809c89ed8a57b7fb75da4d357f64480214bf779a7db14e62",
  "tool": "PlaceSearch_kakao",
  "created_at": "2025-10-26T10:36:28.732462",
  "input_params": {
    "keyword": "맛집",
    "radius": 1000,
    "sort": "accuracy",
    "x": 126.9581,
    "y": 37.4793
  },
  "raw_args": {
    "keyword": "맛집",
    "radius": 1000,
    "x": 126.9581,
    "y": 37.4793
  },
  "data": {
    "keyword": "맛집",
    "total_count": 1417,
    "places": [
      {
        "name": "쟝블랑제리",
        "latitude": 37.477157623199,
        "longitude": 126.961968234363,
        "address": "서울 관악구 봉천동 1660-7",
        "road_address": "서울 관악구 낙성대역길 8",
        "phone": "02-889-5170",
        "category": "음식점 > 간식 > 제과,베이커리",
        "distance": "416"
      },
      {
        "name": "티라노",
        "latitude": 37.4783303233591,
        "longitude": 126.955613839455,
        "address": "서울 관악구 봉천동 1613-7",
        "road_address": "서울 관악구 남부순환로230길 39",
        "phone": "",
        "category": "음식점 > 카페 > 커피전문점",
        "distance": "244"
      },
      {
        "name": "킷사서울",
        "latitude": 37.47919458101109,
        "longitude": 126.95375917295634,
        "address": "서울 관악구 봉천동 1603-3",
        "road_address": "서울 관악구 남부순환로226길 31",
        "phone": "02-878-7444",
        "category": "음식점 > 일식",
        "distance": "384"
      },
      {
        "name": "빽돈 샤로수길점",
        "latitude": 37.4799119952814,
        "longitude": 126.954301415673,
        "address": "서울 관악구 봉천동 1602-18",
        "road_address": "서울 관악구 관악로16길 32-2",
        "phone": "02-6405-7787",
        "category": "음식점 > 한식 > 육류,고기",
        "distance": "342"
      },
      {
        "name": "어부사시가",
        "latitude": 37.47899656141045,
        "longitude": 126.95427936155424,
        "address": "서울 관악구 봉천동 1603-15",
        "road_address": "서울 관악구 관악로14길 31",
        "phone": "02-877-9288",
        "category": "음식점 > 한식 > 해물,생선",
        "distance": "339"
      },
      {
        "name": "숙이네조개전골 서울대입구점",
        "latitude": 37.4798942062041,
        "longitude": 126.954902902007,
        "address": "서울 관악구 봉천동 1601-11",
        "road_address": "서울 관악구 관악로16길 41",
        "phone": "02-878-4645",
        "category": "음식점 > 한식 > 해물,생선 > 조개",
        "distance": "290"
      },
      {
        "name": "낙성기사식당",
        "latitude": 37.4780827852694,
        "longitude": 126.958761480961,
        "address": "서울 관악구 봉천동 1627-1",
        "road_address": "서울 관악구 봉천로 550",
        "phone": "02-883-1819",
        "category": "음식점 > 한식",
        "distance": "147"
      },
      {
        "name": "온고지신",
        "latitude": 37.4779167150772,
        "longitude": 126.95795435004281,
        "address": "서울 관악구 봉천동 1620-32",
        "road_address": "서울 관악구 관악로14길 101",
        "phone": "02-6338-5977",
        "category": "음식점 > 카페",
        "distance": "154"
      },
      {
        "name": "베이컨시",
        "latitude": 37.4778485717066,
        "longitude": 126.958901799382,
        "address": "서울 관악구 봉천동 1627-10",
        "road_address": "서울 관악구 봉천로62길 5",
        "phone": "0507-1428-6958",
        "category": "음식점 > 양식 > 이탈리안",
        "distance": "176"
      },
      {
        "name": "텐동요츠야",
        "latitude": 37.478438793238524,
        "longitude": 126.95655214933412,
        "address": "서울 관악구 봉천동 1612-40",
        "road_address": "서울 관악구 관악로14길 71",
        "phone": "02-883-7974",
        "category": "음식점 > 일식",
        "distance": "166"
      },
      {
        "name": "모즈타파스라운지",
        "latitude": 37.4790899681414,
        "longitude": 126.953515031938,
        "address": "서울 관악구 봉천동 1598-6",
        "road_address": "서울 관악구 남부순환로226길 36",
        "phone": "02-885-8910",
        "category": "음식점 > 양식",
        "distance": "406"
      },
      {
        "name": "안녕과자점",
        "latitude": 37.478870620237636,
        "longitude": 126.95479950399285,
        "address": "서울 관악구 봉천동 1603-22",
        "road_address": "서울 관악구 남부순환로228길 20",
        "phone": "02-3285-0908",
        "category": "음식점 > 간식 > 제과,베이커리",
        "distance": "295"
      },
      {
        "name": "안녕부산",
        "latitude": 37.47921260561538,
        "longitude": 126.95377046767742,
        "address": "서울 관악구 봉천동 1603-3",
        "road_address": "서울 관악구 남부순환로226길 31",
        "phone": "02-6407-0718",
        "category": "음식점 > 한식",
        "distance": "382"
      },
      {
        "name": "모던보이작업실",
        "latitude": 37.47823602662336,
        "longitude": 126.95644486276049,
        "address": "서울 관악구 봉천동 1619-1",
        "road_address": "서울 관악구 관악로14길 70",
        "phone": "02-878-0812",
        "category": "음식점 > 퓨전요리 > 퓨전한식",
        "distance": "188"
      },
      {
        "name": "소래포구",
        "latitude": 37.4780323791697,
        "longitude": 126.958906220981,
        "address": "서울 관악구 봉천동 1627-3",
        "road_address": "서울 관악구 봉천로 552",
        "phone": "02-872-2923",
        "category": "음식점 > 한식 > 해물,생선 > 회",
        "distance": "157"
      }
    ]
  }
}