{
  "key": "c0c7988d503fed7efffdd5db98dc0a860217f19a7f400591ccb23ba3ac1a1c38",
  "tool": "PlaceSearch_kakao",
  "created_at": "2025-10-21T02:32:34.862819",
  "input_params": {
    "keyword": "병원",
    "radius": 1000,
    "sort": "accuracy",
    "x": 127.0439910760298,
    "y": 37.579551697242124
  },
  "raw_args": {
    "x": 127.0439910760298,
    "keyword": "병원",
    "y": 37.579551697242124,
    "radius": 1000
  },
  "data": {
    "keyword": "병원",
    "total_count": 233,
    "places": [
      {
        "name": "서울성심병원",
        "latitude": 37.5841741732334,
        "longitude": 127.049838048407,
        "address": "서울 동대문구 청량리동 40-9",
        "road_address": "서울 동대문구 왕산로 259",
        "phone": "02-966-1616",
        "category": "의료,건강 > 병원 > 종합병원",
        "distance": "728"
      },
      {
        "name": "잘듣는이비인후과의원",
        "latitude": 37.5790941456921,
        "longitude": 127.0435775934993,
        "address": "서울 동대문구 전농동 620-56",
        "road_address": "서울 동대문구 왕산로36길 6",
        "phone": "02-6235-1234",
        "category": "의료,건강 > 병원 > 이비인후과",
        "distance": "62"
      },
      {
        "name": "자연튼튼의원",
        "latitude": 37.5799203573415,
        "longitude": 127.043576942931,
        "address": "서울 동대문구 청량리동 766",
        "road_address": "서울 동대문구 왕산로 183",
        "phone": "02-963-7711",
        "category": "의료,건강 > 병원 > 피부과",
        "distance": "54"
      },
      {
        "name": "서울베스트안과의원 본관",
        "latitude": 37.57949111424015,
        "longitude": 127.04211402300265,
        "address": "서울 동대문구 제기동 652-2",
        "road_address": "서울 동대문구 왕산로 171",
        "phone": "02-966-0225",
        "category": "의료,건강 > 병원 > 안과",
        "distance": "165"
      },
      {
        "name": "우태하피부과의원 동대문점",
        "latitude": 37.578848453986275,
        "longitude": 127.04025250899771,
        "address": "서울 동대문구 제기동 1012",
        "road_address": "서울 동대문구 왕산로 151",
        "phone": "02-966-3141",
        "category": "의료,건강 > 병원 > 피부과",
        "distance": "339"
      },
      {
        "name": "다보는성모안과의원",
        "latitude": 37.5802299425513,
        "longitude": 127.044532622955,
        "address": "서울 동대문구 청량리동 750",
        "road_address": "서울 동대문구 왕산로 193",
        "phone": "02-964-5235",
        "category": "의료,건강 > 병원 > 안과",
        "distance": "89"
      },
      {
        "name": "라환도외과의원",
        "latitude": 37.579286188473155,
        "longitude": 127.04322109574159,
        "address": "서울 동대문구 전농동 620-70",
        "road_address": "서울 동대문구 왕산로 178",
        "phone": "02-968-5700",
        "category": "의료,건강 > 병원 > 외과",
        "distance": "73"
      },
      {
        "name": "서울나은병원",
        "latitude": 37.5785993475183,
        "longitude": 127.03885311926,
        "address": "서울 동대문구 제기동 1046-4",
        "road_address": "서울 동대문구 왕산로 137",
        "phone": "1544-6003",
        "category": "의료,건강 > 병원 > 정형외과",
        "distance": "465"
      },
      {
        "name": "삼성베스트내과의원",
        "latitude": 37.57866089588209,
        "longitude": 127.04322865889205,
        "address": "서울 동대문구 전농동 622-1",
        "road_address": "서울 동대문구 답십리로 9",
        "phone": "02-6953-9663",
        "category": "의료,건강 > 병원 > 내과",
        "distance": "119"
      },
      {
        "name": "서울명병원",
        "latitude": 37.5774644056992,
        "longitude": 127.037897065275,
        "address": "서울 동대문구 용두동 45-1",
        "road_address": "서울 동대문구 고산자로 421",
        "phone": "02-965-2800",
        "category": "의료,건강 > 병원",
        "distance": "585"
      },
      {
        "name": "솔라시도한방병원",
        "latitude": 37.57747251470519,
        "longitude": 127.04314646305951,
        "address": "서울 동대문구 용두동 798",
        "road_address": "서울 동대문구 고산자로32길 78",
        "phone": "02-964-1004",
        "category": "의료,건강 > 병원 > 한방병원",
        "distance": "242"
      },
      {
        "name": "블리비의원 청량리점",
        "latitude": 37.5795849039836,
        "longitude": 127.04433864988415,
        "address": "서울 동대문구 전농동 620-6",
        "road_address": "서울 동대문구 왕산로 190",
        "phone": "1833-2789",
        "category": "의료,건강 > 병원 > 피부과",
        "distance": "31"
      },
      {
        "name": "청량리삼성신경과의원",
        "latitude": 37.57892627772552,
        "longitude": 127.04187030577609,
        "address": "서울 동대문구 용두동 793",
        "road_address": "서울 동대문구 왕산로32길 7",
        "phone": "02-2138-1191",
        "category": "의료,건강 > 병원 > 신경과",
        "distance": "199"
      },
      {
        "name": "경희임내과의원",
        "latitude": 37.582731045439,
        "longitude": 127.044679027462,
        "address": "서울 동대문구 청량리동 317",
        "road_address": "서울 동대문구 홍릉로 28",
        "phone": "02-960-1080",
        "category": "의료,건강 > 병원 > 내과",
        "distance": "358"
      },
      {
        "name": "오가나셀피부과의원 동대문점",
        "latitude": 37.57880145257708,
        "longitude": 127.04322421180551,
        "address": "서울 동대문구 전농동 622-1",
        "road_address": "서울 동대문구 답십리로 9",
        "phone": "02-2038-3275",
        "category": "의료,건강 > 병원 > 피부과",
        "distance": "107"
      }
    ]
  }
}