{
  "key": "c0e156a9b431d420669657d5cb5736ce0f8f7728a3ee6265846f91921c07712b",
  "tool": "PlaceSearch_kakao",
  "created_at": "2025-10-15T15:35:23.788487",
  "input_params": {
    "keyword": "편의점",
    "radius": 300,
    "sort": "distance",
    "x": 127.02758,
    "y": 37.49794
  },
  "raw_args": {
    "keyword": "편의점",
    "x": 127.02758,
    "y": 37.49794,
    "radius": 300,
    "sort": "distance"
  },
  "data": {
    "keyword": "편의점",
    "total_count": 24,
    "places": [
      {
        "name": "GS25 S강남역1호점",
        "latitude": 37.498110630379124,
        "longitude": 127.02814164293909,
        "address": "서울 강남구 역삼동 858",
        "road_address": "서울 강남구 강남대로 지하 396",
        "phone": "",
        "category": "가정,생활 > 편의점 > GS25",
        "distance": "53"
      },
      {
        "name": "이마트24 강남역점",
        "latitude": 37.498164651039694,
        "longitude": 127.02830790088069,
        "address": "서울 강남구 역삼동 804",
        "road_address": "서울 강남구 강남대로 지하 396",
        "phone": "",
        "category": "가정,생활 > 편의점 > 이마트24",
        "distance": "69"
      },
      {
        "name": "GS25 S강남역3호점",
        "latitude": 37.497738438910254,
        "longitude": 127.02845814464982,
        "address": "서울 강남구 역삼동 825",
        "road_address": "서울 강남구 강남대로 390",
        "phone": "080-999-5425",
        "category": "가정,생활 > 편의점 > GS25",
        "distance": "80"
      },
      {
        "name": "GS25 강남메트로점",
        "latitude": 37.4986152146001,
        "longitude": 127.028054754897,
        "address": "서울 강남구 역삼동 821-1",
        "road_address": "서울 강남구 테헤란로 101",
        "phone": "",
        "category": "가정,생활 > 편의점 > GS25",
        "distance": "85"
      },
      {
        "name": "GS25 강남본점",
        "latitude": 37.4976707892101,
        "longitude": 127.028764582323,
        "address": "서울 강남구 역삼동 825-1",
        "road_address": "서울 강남구 테헤란로2길 8",
        "phone": "",
        "category": "가정,생활 > 편의점 > GS25",
        "distance": "109"
      },
      {
        "name": "세븐일레븐 강남스퀘어점",
        "latitude": 37.498961160035,
        "longitude": 127.028226778159,
        "address": "서울 강남구 역삼동 819-10",
        "road_address": "서울 강남구 테헤란로1길 10",
        "phone": "1577-0711",
        "category": "가정,생활 > 편의점 > 세븐일레븐",
        "distance": "126"
      },
      {
        "name": "세븐일레븐 강남광장점",
        "latitude": 37.4985687801279,
        "longitude": 127.026236291174,
        "address": "서울 서초구 서초동 1317-11",
        "road_address": "서울 서초구 서초대로77길 9",
        "phone": "",
        "category": "가정,생활 > 편의점 > 세븐일레븐",
        "distance": "137"
      },
      {
        "name": "CU 뉴삼성전자본점",
        "latitude": 37.4966332657545,
        "longitude": 127.026914121286,
        "address": "서울 서초구 서초동 1320-10",
        "road_address": "서울 서초구 서초대로74길 11",
        "phone": "1577-8007",
        "category": "가정,생활 > 편의점 > CU",
        "distance": "156"
      },
      {
        "name": "CU 강남푸르지오점",
        "latitude": 37.49781570574347,
        "longitude": 127.02935607938045,
        "address": "서울 강남구 역삼동 825-20",
        "road_address": "서울 강남구 테헤란로4길 6",
        "phone": "02-873-1232",
        "category": "가정,생활 > 편의점 > CU",
        "distance": "157"
      },
      {
        "name": "GS25 강남프리미엄점",
        "latitude": 37.4988390970466,
        "longitude": 127.026168533028,
        "address": "서울 서초구 서초동 1317-7",
        "road_address": "서울 서초구 서초대로77길 13",
        "phone": "",
        "category": "가정,생활 > 편의점 > GS25",
        "distance": "159"
      },
      {
        "name": "세븐일레븐 강남역TGI점",
        "latitude": 37.4977544260072,
        "longitude": 127.02552582473,
        "address": "서울 서초구 서초동 1316-19",
        "road_address": "서울 서초구 서초대로 405",
        "phone": "1577-0711",
        "category": "가정,생활 > 편의점 > 세븐일레븐",
        "distance": "182"
      },
      {
        "name": "이마트24 self위워크강남2점",
        "latitude": 37.4992708496096,
        "longitude": 127.029280879719,
        "address": "서울 강남구 역삼동 819-5",
        "road_address": "서울 강남구 테헤란로5길 7",
        "phone": "02-6916-1500",
        "category": "가정,생활 > 편의점 > 이마트24",
        "distance": "210"
      },
      {
        "name": "세븐일레븐 뉴강남센터점",
        "latitude": 37.4998577773668,
        "longitude": 127.027736307654,
        "address": "서울 강남구 역삼동 817-11",
        "road_address": "서울 강남구 강남대로96길 9",
        "phone": "1577-0711",
        "category": "가정,생활 > 편의점 > 세븐일레븐",
        "distance": "213"
      },
      {
        "name": "GS25 서초삼성타운점",
        "latitude": 37.496718231068975,
        "longitude": 127.0256984915832,
        "address": "서울 서초구 서초동 1321-15",
        "road_address": "서울 서초구 서초대로74길 4",
        "phone": "02-582-3487",
        "category": "가정,생활 > 편의점 > GS25",
        "distance": "214"
      },
      {
        "name": "CU 강남해커스점",
        "latitude": 37.49887440826275,
        "longitude": 127.02538032254185,
        "address": "서울 서초구 서초동 1317",
        "road_address": "서울 서초구 강남대로61길 13",
        "phone": "",
        "category": "가정,생활 > 편의점 > CU",
        "distance": "220"
      }
    ]
  }
}