{
  "key": "c5996765ce6fa46d5e904b68baaa9bc3a6b7a5c1befac759ae743791f23a7273",
  "tool": "CategorySearch_kakao",
  "created_at": "2025-10-27T17:17:45.309736",
  "input_params": {
    "category": "CS2",
    "radius": 800,
    "size": 15,
    "x": 129.158,
    "y": 35.158
  },
  "raw_args": {
    "x": 129.158,
    "y": 35.158,
    "category": "CS2",
    "radius": 800,
    "size": 15
  },
  "data": {
    "category": "CS2",
    "total_count": 49,
    "places": [
      {
        "name": "GS25 해운대패러그라프점",
        "latitude": 35.1601075298495,
        "longitude": 129.156865796596,
        "address": "부산 해운대구 우동 645-6",
        "phone": "",
        "distance": "255"
      },
      {
        "name": "CU 해운대비치점",
        "latitude": 35.1617881738564,
        "longitude": 129.158685668102,
        "address": "부산 해운대구 우동 541-5",
        "phone": "",
        "distance": "424"
      },
      {
        "name": "세븐일레븐 해운대그랜드점",
        "latitude": 35.15978320975209,
        "longitude": 129.15635466530802,
        "address": "부산 해운대구 우동 648-21",
        "phone": "",
        "distance": "248"
      },
      {
        "name": "GS25 해운후레쉬점",
        "latitude": 35.1618944853227,
        "longitude": 129.160000889552,
        "address": "부산 해운대구 우동 542-5",
        "phone": "",
        "distance": "468"
      },
      {
        "name": "GS25 W타워점",
        "latitude": 35.1600359687021,
        "longitude": 129.161536247771,
        "address": "부산 해운대구 중동 1391-66",
        "phone": "",
        "distance": "393"
      },
      {
        "name": "GS25 해운오션점",
        "latitude": 35.15928793772006,
        "longitude": 129.15430938966455,
        "address": "부산 해운대구 우동 653-2",
        "phone": "",
        "distance": "365"
      },
      {
        "name": "세븐일레븐 해운대나인점",
        "latitude": 35.15983530485442,
        "longitude": 129.15469362060708,
        "address": "부산 해운대구 우동 654-2",
        "phone": "1577-0711",
        "distance": "364"
      },
      {
        "name": "CU 해운대한양수자인점",
        "latitude": 35.1607007210081,
        "longitude": 129.156194541468,
        "address": "부산 해운대구 우동 643-1",
        "phone": "",
        "distance": "341"
      },
      {
        "name": "CU 해운대블루점",
        "latitude": 35.16037220638474,
        "longitude": 129.1579931440623,
        "address": "부산 해운대구 우동 634-17",
        "phone": "",
        "distance": "263"
      },
      {
        "name": "이마트24 해운대광수호텔점",
        "latitude": 35.1603261181805,
        "longitude": 129.15658407337102,
        "address": "부산 해운대구 우동 645-8",
        "phone": "02-6916-1500",
        "distance": "288"
      },
      {
        "name": "GS25 씨클라우드점",
        "latitude": 35.1605137391956,
        "longitude": 129.16243552318,
        "address": "부산 해운대구 중동 1392-100",
        "phone": "",
        "distance": "491"
      },
      {
        "name": "CU 보광해운대점",
        "latitude": 35.1602001277682,
        "longitude": 129.160618851659,
        "address": "부산 해운대구 우동 626-4",
        "phone": "051-742-6811",
        "distance": "341"
      },
      {
        "name": "GS25 해운대하운드점",
        "latitude": 35.1610271988761,
        "longitude": 129.156786936953,
        "address": "부산 해운대구 우동 637-9",
        "phone": "",
        "distance": "353"
      },
      {
        "name": "CU 해운대구남로점",
        "latitude": 35.1613824195383,
        "longitude": 129.161023222017,
        "address": "부산 해운대구 중동 1393-31",
        "phone": "",
        "distance": "465"
      },
      {
        "name": "세븐일레븐 부산해운대L7점",
        "latitude": 35.1602314695756,
        "longitude": 129.160074317155,
        "address": "부산 해운대구 우동 626-2",
        "phone": "",
        "distance": "311"
      }
    ]
  }
}